{
"type": "FeatureCollection",
"name": "missing",
"crs": { "type": "name", "properties": { "name": "urn:ogc:def:crs:OGC:1.3:CRS84" } },
"features": [
{ "type": "Feature", "properties": { "num": null, "address": null, "lat": null, "lon": null, "tel": null, "name": null, "wilaya": null, "code": null, "osm_intersect": null, "to_check": null }, "geometry": null },
{ "type": "Feature", "properties": { "num": 767, "address": "KAIS,Cité Des Jardin,Khenchela", "lat": 45.4866815, "lon": -75.6870615, "tel": "32773577", "name": ". IMPOTS", "wilaya": "Khenchela", "code": 40, "osm_intersect": "0", "to_check": "1" }, "geometry": { "type": "Point", "coordinates": [ -75.687061499999984, 45.486681499999975 ] } },
{ "type": "Feature", "properties": { "num": 434, "address": "JIJEL,Hai El Akaabi,Jijel", "lat": 42.4534492, "lon": -76.4735027, "tel": "034 47 34 38  - 034 47 38 11  - 034 47 47 80  - 034 47 47 86  - 034 47 47 87  - 034 47 74 19  - 034 47 77 54  - 034 49 82 92  - 034 49 89 33  - 034 52 31 65  - 034 56 36 17  - 034 59 64 51", "name": ". IMPOTS Direction", "wilaya": "Jijel", "code": 18, "osm_intersect": "0", "to_check": "1" }, "geometry": { "type": "Point", "coordinates": [ -76.4735027, 42.4534492 ] } },
{ "type": "Feature", "properties": { "num": 740, "address": "TINDOUF , Residence Hotel De Finance , Tindouf , Tindouf", "lat": 27.8063119, "lon": -5.7299821, "tel": "049 37 07 52 - 049 37 08 11 - 049 37 07 13 - 049 37 04 14", "name": "Impots Direction", "wilaya": "Tindouf", "code": 37, "osm_intersect": "0", "to_check": "1" }, "geometry": { "type": "Point", "coordinates": [ -8.141655152924328, 27.667017475060913 ] } },
{ "type": "Feature", "properties": { "num": 687, "address": "ILLIZI,Rue Mostéfa BENBOULAID,Illizi", "lat": 26.4775863, "lon": 8.4776326, "tel": "29411309", "name": ". DIRECTION DES IMPOTS", "wilaya": "Illizi", "code": 33, "osm_intersect": "0", "to_check": "1" }, "geometry": { "type": "Point", "coordinates": [ 8.495534289010577, 26.489217001123663 ] } },
{ "type": "Feature", "properties": { "num": 691, "address": "ORG,ILLIZI,Avenue 19 mars 1962,Illizi", "lat": 26.4775863, "lon": 8.4776326, "tel": "029 41 11 64  - 029 41 13 26  - 029 41 13 28  - 029 41 13 29  - 029 41 14 60", "name": ". DIRECTION DES IMPOTS", "wilaya": "Illizi", "code": 33, "osm_intersect": "0", "to_check": "1" }, "geometry": { "type": "Point", "coordinates": [ 8.496060972230453, 26.484738698173302 ] } },
{ "type": "Feature", "properties": { "num": 145, "address": "Chem A{ropot,BECHAR,Chem Aéroport,Bechar", "lat": 31.645279, "lon": -2.278066, "tel": "049 26 22 23  - 049 26 22 32  - 049 26 26 17", "name": ". IMPOTS", "wilaya": "Bechar", "code": 8, "osm_intersect": "0", "to_check": "1" }, "geometry": { "type": "Point", "coordinates": [ -2.278066, 31.645279 ] } },
{ "type": "Feature", "properties": { "num": 632, "address": "HASSI MESSAOUD,Cité 300 logements,Ouargla", "lat": 30.9859091, "lon": 5.7493813, "tel": "29745891", "name": ". IMPOTS Direction", "wilaya": "Ouargla", "code": 30, "osm_intersect": "0", "to_check": "1" }, "geometry": { "type": "Point", "coordinates": [ 6.113289773861524, 31.666622536196154 ] } },
{ "type": "Feature", "properties": { "num": 420, "address": "DJELFA,Place Mohamed Boudiaf,Djelfa", "lat": 34.6703956, "lon": 3.2503761, "tel": "27923169", "name": ". IMPOTS", "wilaya": "Djelfa", "code": 17, "osm_intersect": "0", "to_check": "0" }, "geometry": { "type": "Point", "coordinates": [ 3.24900198693476, 34.671202323472428 ] } },
{ "type": "Feature", "properties": { "num": 413, "address": "DJELFA,Route Moudjebara,Djelfa", "lat": 34.2788953, "lon": 3.5812692, "tel": "027 93 62 57  - 027 93 62 58  - 027 93 63 84", "name": ". IMPOTS", "wilaya": "Djelfa", "code": 17, "osm_intersect": "0", "to_check": "1" }, "geometry": { "type": "Point", "coordinates": [ 3.251388368180815, 34.668596635210022 ] } },
{ "type": "Feature", "properties": { "num": 412, "address": "DJELFA,Cité Administrative,Djelfa", "lat": 34.6698008, "lon": 3.2419109, "tel": "27936626", "name": ". IMPOTS", "wilaya": "Djelfa", "code": 17, "osm_intersect": "0", "to_check": "0" }, "geometry": { "type": "Point", "coordinates": [ 3.2419109, 34.669800799999983 ] } },
{ "type": "Feature", "properties": { "num": 425, "address": "JIJEL,Cite Arid Ahcene,Jijel", "lat": 36.8105432, "lon": 5.7752319, "tel": "34590506", "name": ". IMPOTS Direction", "wilaya": "Jijel", "code": 18, "osm_intersect": "0", "to_check": "0" }, "geometry": { "type": "Point", "coordinates": [ 5.7752319, 36.8105432 ] } },
{ "type": "Feature", "properties": { "num": 428, "address": "JIJEL,Cite Engebat 200 Logts Laouir,Jijel", "lat": 36.8210144, "lon": 5.7634126, "tel": "034 50 12 80  - 034 50 16 63", "name": ". IMPOTS Direction", "wilaya": "Jijel", "code": 18, "osm_intersect": "0", "to_check": "0" }, "geometry": { "type": "Point", "coordinates": [ 5.7634126, 36.8210144 ] } },
{ "type": "Feature", "properties": { "num": 422, "address": "JIJEL,Cite Moussaoui Messaouda,Jijel", "lat": 36.8208696, "lon": 5.7609245, "tel": "34492602", "name": ". IMPOTS Direction", "wilaya": "Jijel", "code": 18, "osm_intersect": "0", "to_check": "0" }, "geometry": { "type": "Point", "coordinates": [ 5.7609245, 36.8208696 ] } },
{ "type": "Feature", "properties": { "num": 429, "address": "JIJEL,Cooperative EL AMEL,Jijel", "lat": 36.8103555, "lon": 5.7739494, "tel": "034 59 65 04  - 034 59 65 05  - 034 59 65 06  - 034 59 65 07  - 034 59 65 08  - 034 59 65 09  - 034 59 65 10  - 034 59 65 11  - 034 59 65 12  - 034 59 65 13  - 034 59 65 14  - 034 59 65 15  - 034 59 65 16", "name": ". IMPOTS Direction", "wilaya": "Jijel", "code": 18, "osm_intersect": "0", "to_check": "0" }, "geometry": { "type": "Point", "coordinates": [ 5.784651606514323, 36.805590199827158 ] } },
{ "type": "Feature", "properties": { "num": 430, "address": "JIJEL,Avenue des Maquisards,Jijel", "lat": 36.8173619, "lon": 5.7553312, "tel": "34471489", "name": ". IMPOTS Direction", "wilaya": "Jijel", "code": 18, "osm_intersect": "0", "to_check": "0" }, "geometry": { "type": "Point", "coordinates": [ 5.7553312, 36.8173619 ] } },
{ "type": "Feature", "properties": { "num": 787, "address": "SOUK AHRAS,Route National N°16,Souk Ahras", "lat": 36.2801062, "lon": 7.9384033, "tel": "037 76 82 24  - 037 76 82 25  - 037 76 82 26  - 037 76 84 01", "name": ". IMPOTS Direction", "wilaya": "Souk Ahras", "code": 41, "osm_intersect": "0", "to_check": "0" }, "geometry": { "type": "Point", "coordinates": [ 7.9384033, 36.280106199999977 ] } },
{ "type": "Feature", "properties": { "num": 788, "address": "DGSN,SOUK AHRAS,Rue Colonel Amirouche,Souk Ahras", "lat": 36.2799829, "lon": 7.9382979, "tel": "037 72 24 19  - 037 72 26 78", "name": ". IMPOTS Direction", "wilaya": "Souk Ahras", "code": 41, "osm_intersect": "0", "to_check": "0" }, "geometry": { "type": "Point", "coordinates": [ 7.9382979, 36.279982899999986 ] } },
{ "type": "Feature", "properties": { "num": 779, "address": "SOUK AHRAS,Boulevard 1 ER Novembre,Souk Ahras", "lat": 36.2801062, "lon": 7.9384033, "tel": "037 71 84 57  - 037 73 10 20  - 037 73 10 21  - 037 73 10 22  - 037 73 10 23  - 037 73 10 25  - 037 73 10 27  - 037 73 12 29  - 037 73 16 93  - 037 78 13 82  - 037 83 52 93  - 037 83 52 94", "name": ". IMPOTS Direction", "wilaya": "Souk Ahras", "code": 41, "osm_intersect": "0", "to_check": "0" }, "geometry": { "type": "Point", "coordinates": [ 7.9384033, 36.280106199999977 ] } },
{ "type": "Feature", "properties": { "num": 786, "address": "26,SOUK AHRAS,Bd Mohamed Cherif Messadia,Souk Ahras", "lat": 36.298694, "lon": 7.9259208, "tel": "037 71 52 04  - 037 71 55 60", "name": ". IMPOTS Direction", "wilaya": "Souk Ahras", "code": 41, "osm_intersect": "0", "to_check": "0" }, "geometry": { "type": "Point", "coordinates": [ 7.9259208, 36.298694 ] } },
{ "type": "Feature", "properties": { "num": 831, "address": "OUED ATHMENIA,Route De Constantine,Mila", "lat": 36.2468394, "lon": 6.2857278, "tel": "31400177", "name": ". IMPOTS Direction", "wilaya": "Mila", "code": 43, "osm_intersect": "0", "to_check": "0" }, "geometry": { "type": "Point", "coordinates": [ 6.2857278, 36.2468394 ] } },
{ "type": "Feature", "properties": { "num": 821, "address": "OUED ATHMENIA,Rue ALN (Route N 5),Mila", "lat": 36.2560672, "lon": 6.3014747, "tel": "31400151", "name": ". IMPOTS Direction", "wilaya": "Mila", "code": 43, "osm_intersect": "0", "to_check": "1" }, "geometry": { "type": "Point", "coordinates": [ 6.3014747, 36.2560672 ] } },
{ "type": "Feature", "properties": { "num": 826, "address": "OUED ENDJA,Rue Koukou Smail,Mila", "lat": 36.5000205, "lon": 6.0713274, "tel": "31456814", "name": ". IMPOTS Direction", "wilaya": "Mila", "code": 43, "osm_intersect": "0", "to_check": "1" }, "geometry": { "type": "Point", "coordinates": [ 6.122620601092657, 36.425627722790011 ] } },
{ "type": "Feature", "properties": { "num": 816, "address": "4,OUED ENDJA,Rue 20 Aout,Mila", "lat": 36.5000205, "lon": 6.0713274, "tel": "31456866", "name": ". IMPOTS Direction", "wilaya": "Mila", "code": 43, "osm_intersect": "0", "to_check": "1" }, "geometry": { "type": "Point", "coordinates": [ 6.127406798714982, 36.426231816125714 ] } },
{ "type": "Feature", "properties": { "num": 731, "address": "EL TARF,Cite 168 Logts,El Tarf", "lat": 36.7576678, "lon": 8.3076343, "tel": "38301790", "name": ". IMPOTS DIRECTION", "wilaya": "El Tarf", "code": 36, "osm_intersect": "0", "to_check": "1" }, "geometry": { "type": "Point", "coordinates": [ 8.3076343, 36.7576678 ] } },
{ "type": "Feature", "properties": { "num": 119, "address": "SOUK EL TENINE,Boulevard Principal,Bejaia", "lat": 36.6144444, "lon": 5.3352778, "tel": "34847583", "name": ". IMPOTS Recette Contributions Divers", "wilaya": "Bejaia", "code": 6, "osm_intersect": "0", "to_check": "1" }, "geometry": { "type": "Point", "coordinates": [ 5.3352778, 36.614444399999989 ] } },
{ "type": "Feature", "properties": { "num": 894, "address": "RELIZANE,Cité Zeraia,Relizane", "lat": 35.9213805, "lon": 0.0694577, "tel": "46769201", "name": ". IMPOTS", "wilaya": "Relizane", "code": 48, "osm_intersect": "0", "to_check": "1" }, "geometry": { "type": "Point", "coordinates": [ 0.551998093384412, 35.734714923112527 ] } },
{ "type": "Feature", "properties": { "num": 213, "address": "ILOT 337,AIN SALAH,Centre ville 06,Tamanrasset", "lat": 27.2026311, "lon": 2.4878487, "tel": "029 36 53 00  - 029 36 54 89  - 029 36 59 00", "name": ". IMPOTS Direction", "wilaya": "Tamanrasset", "code": 11, "osm_intersect": "0", "to_check": "0" }, "geometry": { "type": "Point", "coordinates": [ 2.508393929668855, 27.196496475643386 ] } },
{ "type": "Feature", "properties": { "num": 206, "address": "ORG,TAMANRASSET,Logements OPGI,Tamanrasset", "lat": 22.7976383, "lon": 5.5181324, "tel": "29326834", "name": ". IMPOTS Direction", "wilaya": "Tamanrasset", "code": 11, "osm_intersect": "0", "to_check": "1" }, "geometry": { "type": "Point", "coordinates": [ 5.531441790370419, 22.792203037778272 ] } },
{ "type": "Feature", "properties": { "num": 216, "address": "ILOT 1215,TAMANRASSET,K'SAR EST,Tamanrasset", "lat": 22.7902972, "lon": 5.5193268, "tel": "29312450", "name": ". IMPOTS Direction", "wilaya": "Tamanrasset", "code": 11, "osm_intersect": "0", "to_check": "0" }, "geometry": { "type": "Point", "coordinates": [ 5.51848640219809, 22.790009348271131 ] } }
]
}
