{
"type": "FeatureCollection",
"name": "madr_struct_checked_in_out_wilayas",
"crs": { "type": "name", "properties": { "name": "urn:ogc:def:crs:OGC:1.3:CRS84" } },
"features": [
{ "type": "Feature", "properties": { "num": 1, "name": "Commissariat au Développement de l'Agriculture des Régions Sahariennes", "address": " ", "tel": " ", "fax": " ", "website": null, "lon": 0.2760638889, "lat": 27.87338611, "acronym": "CDARS Antenne Adrar", "code_wil": 1, "to_check": false }, "geometry": { "type": "Point", "coordinates": [ 0.2760638889, 27.87338611 ] } },
{ "type": "Feature", "properties": { "num": 2, "name": "Direction des Services Agricole ADRAR", "address": "RUE TALEB MOHAMED", "tel": "049 36 48 28", "fax": "049364811", "website": null, "lon": -0.28185, "lat": 27.87745, "acronym": "DSA ADRAR", "code_wil": 1, "to_check": false }, "geometry": { "type": "Point", "coordinates": [ -0.28185, 27.87745 ] } },
{ "type": "Feature", "properties": { "num": 3, "name": "Institut deTechnologie Moyen Agricole Spécialisé Adrar", "address": null, "tel": "049 90 49 50\/049 90-49-51", "fax": null, "website": null, "lon": 0.23603124525299199, "lat": 29.253709812919364, "acronym": "ITMAS Adrar", "code_wil": 1, "to_check": false }, "geometry": { "type": "Point", "coordinates": [ 0.236031245252992, 29.253709812919364 ] } },
{ "type": "Feature", "properties": { "num": 4, "name": "Conservation des Forêts ADRAR", "address": "CITE OULED OUNGAL A ADRAR (ANCIEN SIEGE DE LA WILAYA) BP 389", "tel": "049 36 12 32 ", "fax": "049 36 12 34", "website": null, "lon": -0.287901, "lat": 27.899426, "acronym": "CF ADRAR", "code_wil": 1, "to_check": false }, "geometry": { "type": "Point", "coordinates": [ -0.287901, 27.899426 ] } },
{ "type": "Feature", "properties": { "num": 5, "name": "Direction des Services Agricole Chlef", "address": "CITE BELHAMRI DJILALI  CHLEF", "tel": "027 77 59 00", "fax": "027 79 05 75", "website": null, "lon": 1.329005, "lat": 36.161627, "acronym": "DSA Chlef", "code_wil": 2, "to_check": false }, "geometry": { "type": "Point", "coordinates": [ 1.329005, 36.161627 ] } },
{ "type": "Feature", "properties": { "num": 6, "name": "Conservation des Forêts CHLEF", "address": "RUE EMIR ABDELKADER BP 232", "tel": "027 77 10 46 \/ 027 77 18 08", "fax": "027 77 16 16", "website": null, "lon": 1.336333, "lat": 36.163843, "acronym": "CF CHLEF", "code_wil": 2, "to_check": false }, "geometry": { "type": "Point", "coordinates": [ 1.336333, 36.163843 ] } },
{ "type": "Feature", "properties": { "num": 7, "name": "Chambre d'Agriculture de Wilaya Chlef", "address": "hai bensouna face casnos02000", "tel": "027 77 46 63", "fax": "027 79 08 57", "website": null, "lon": 1.318618, "lat": 36.1611, "acronym": "CAW Chlef", "code_wil": 2, "to_check": false }, "geometry": { "type": "Point", "coordinates": [ 1.318618, 36.1611 ] } },
{ "type": "Feature", "properties": { "num": 8, "name": " Direction des Services Agricole Laghouat", "address": "MHAFIR", "tel": "029 14 54 12", "fax": "029 14 64 84", "website": null, "lon": 2.854042, "lat": 33.79567, "acronym": "DSA Laghouat", "code_wil": 3, "to_check": false }, "geometry": { "type": "Point", "coordinates": [ 2.854042, 33.79567 ] } },
{ "type": "Feature", "properties": { "num": 9, "name": "Chambre d'Agriculture de Wilaya Laghouat", "address": "Cité 5 juillet maamourah jardin 03000 laghouat", "tel": "029 13 43 01", "fax": "029 13 43 00", "website": null, "lon": 2.864975, "lat": 33.802371, "acronym": "CAW Laghouat", "code_wil": 3, "to_check": false }, "geometry": { "type": "Point", "coordinates": [ 2.864975, 33.802371 ] } },
{ "type": "Feature", "properties": { "num": 10, "name": "Conservation des Forêts LAGHOUAT", "address": "CITE ADMINISTRATIVE EL M'HAFIR  LAGHOUAT", "tel": "029 14 54 00 ", "fax": "029 14 54 01", "website": null, "lon": 2.853161, "lat": 33.794214, "acronym": "CF LAGHOUAT", "code_wil": 3, "to_check": false }, "geometry": { "type": "Point", "coordinates": [ 2.853161, 33.794214 ] } },
{ "type": "Feature", "properties": { "num": 11, "name": "Conservation des Forêts OUM EL BOUAGHI", "address": "CITE 18 FEVRIER BP N°41  OUM EL BOUAGHI 04000", "tel": "032 56 36 14", "fax": "032 54 57 17", "website": null, "lon": 7.113224, "lat": 35.87018, "acronym": "CF OUM EL BOUAGHI", "code_wil": 4, "to_check": false }, "geometry": { "type": "Point", "coordinates": [ 7.113224, 35.87018 ] } },
{ "type": "Feature", "properties": { "num": 12, "name": "Direction des Services Agricole Oum el Bouaghi", "address": "CITE LAARBI BEN MHIDI  OUM EL BOUAGHI", "tel": "032 56 32 72\/ 032 56 31 10", "fax": "032 56 32 62", "website": null, "lon": 7.09506, "lat": 35.87881, "acronym": "DSA Oum el Bouaghi", "code_wil": 4, "to_check": false }, "geometry": { "type": "Point", "coordinates": [ 7.09506, 35.87881 ] } },
{ "type": "Feature", "properties": { "num": 13, "name": "Chambre d'Agriculture de Wilaya OEB", "address": "Rue medfoun oeb", "tel": "032 56 07 26 ", "fax": "032 56 06 51", "website": null, "lon": 7.118158, "lat": 35.871407, "acronym": "CAW OEB", "code_wil": 4, "to_check": false }, "geometry": { "type": "Point", "coordinates": [ 7.118158, 35.871407 ] } },
{ "type": "Feature", "properties": { "num": 14, "name": "Chambre d'Agriculture de Wilaya Batna", "address": "Cité adm la verdure 05000 batna", "tel": "033 81 46 56 ", "fax": "033 80 38 79", "website": null, "lon": 6.169133, "lat": 35.552637, "acronym": "CAW Batna", "code_wil": 5, "to_check": false }, "geometry": { "type": "Point", "coordinates": [ 6.169133, 35.552637 ] } },
{ "type": "Feature", "properties": { "num": 15, "name": "Ecole Nationale des Forêts ", "address": null, "tel": "033 85 71 43\/033 85 74 54", "fax": null, "website": null, "lon": 6.191768, "lat": 35.529791, "acronym": "ENAF ", "code_wil": 5, "to_check": false }, "geometry": { "type": "Point", "coordinates": [ 6.191768, 35.529791 ] } },
{ "type": "Feature", "properties": { "num": 16, "name": "Stations d’expérimentation du HCDS Batna – Barika", "address": " ", "tel": " ", "fax": " ", "website": null, "lon": 5.344111111, "lat": 35.35991667, "acronym": "Station HCDS Batna – Barika", "code_wil": 5, "to_check": false }, "geometry": { "type": "Point", "coordinates": [ 5.344111111, 35.35991667 ] } },
{ "type": "Feature", "properties": { "num": 17, "name": "Direction des Services Agricole Batna", "address": "CITE KECHIDA", "tel": "033 80 72 86\/ 033 85 25 68", "fax": "033 80 70 44", "website": null, "lon": 6.156314, "lat": 35.560048, "acronym": "DSA Batna", "code_wil": 5, "to_check": false }, "geometry": { "type": "Point", "coordinates": [ 6.156314, 35.560048 ] } },
{ "type": "Feature", "properties": { "num": 18, "name": "Conservation des Forêts BATNA", "address": "NOUVELLE CITE ADMINISTRATIVE (Ex-La Verdure)  BATNA 03", "tel": "033 80 70 31 ", "fax": "033 85 39 02", "website": null, "lon": 6.169608, "lat": 35.552893, "acronym": "CF BATNA", "code_wil": 5, "to_check": false }, "geometry": { "type": "Point", "coordinates": [ 6.169608, 35.552893 ] } },
{ "type": "Feature", "properties": { "num": 19, "name": "Conservation des Forêts BEJAIA", "address": "RUE FATEH MAHFOUDI ZONE INDU BEJAIA", "tel": "034 18 70 90", "fax": "034 18 71 28", "website": null, "lon": 5.053945, "lat": 36.745705, "acronym": "CF BEJAIA", "code_wil": 6, "to_check": false }, "geometry": { "type": "Point", "coordinates": [ 5.053945, 36.745705 ] } },
{ "type": "Feature", "properties": { "num": 20, "name": "Chambre d'Agriculture de Wilaya Bejaia", "address": "50 logts cite rabea naceria 06000 bejaia", "tel": "034 16 41 85", "fax": "034 16 41 86", "website": null, "lon": 5.069771, "lat": 36.752493, "acronym": "CAW Bejaia", "code_wil": 6, "to_check": false }, "geometry": { "type": "Point", "coordinates": [ 5.069771, 36.752493 ] } },
{ "type": "Feature", "properties": { "num": 21, "name": "Direction des Services Agricole BEJAIA", "address": "NOUVELLE CITE ADMINISTRATIVE, RUE DES FRERES TABET  BEJAIA", "tel": "034 10 26 05\/ 034 10 26 06", "fax": "034 10 26 12", "website": null, "lon": 5.062498, "lat": 36.739011, "acronym": "DSA BEJAIA", "code_wil": 6, "to_check": false }, "geometry": { "type": "Point", "coordinates": [ 5.062498, 36.739011 ] } },
{ "type": "Feature", "properties": { "num": 22, "name": "Conservation des Forêts BISKRA", "address": "HARET EL OUED  BISKRA", "tel": "033 53 04 50 \/ 033 53 04 54", "fax": "033 53 04 53", "website": null, "lon": 5.73282, "lat": 34.857699, "acronym": "CF BISKRA", "code_wil": 7, "to_check": false }, "geometry": { "type": "Point", "coordinates": [ 5.73282, 34.857699 ] } },
{ "type": "Feature", "properties": { "num": 23, "name": "Institut Technique de Développement de  L’Agronomie Saharienne", "address": "BP 27 RP AIN BENNOUI BISKRA", "tel": "033 62 42 91 \/ 94", "fax": "0 33 62 42 78", "website": "www.itdas.dz", "lon": 5.654527778, "lat": 34.80673056, "acronym": "ITDAS", "code_wil": 7, "to_check": false }, "geometry": { "type": "Point", "coordinates": [ 5.654527778, 34.80673056 ] } },
{ "type": "Feature", "properties": { "num": 24, "name": "GVAPRO", "address": "Rue de la gare BP64 ", "tel": "033627019\/18-033627021", "fax": "0 33 62 70 20", "website": null, "lon": 5.725425, "lat": 34.859656, "acronym": "Filiale SUDACO", "code_wil": 7, "to_check": false }, "geometry": { "type": "Point", "coordinates": [ 5.725425, 34.859656 ] } },
{ "type": "Feature", "properties": { "num": 25, "name": "Chambre d'Agriculture de Wilaya Biskra", "address": "635 rue des freres djezzar centre ville 07000 biskra", "tel": "033 53 74 70", "fax": "033 53 74 69", "website": null, "lon": 5.730454, "lat": 34.855396, "acronym": "CAW Biskra", "code_wil": 7, "to_check": false }, "geometry": { "type": "Point", "coordinates": [ 5.730454, 34.855396 ] } },
{ "type": "Feature", "properties": { "num": 26, "name": "Direction des Services Agricole Biskra", "address": "BD EMIR ABDELKADER LA GARE", "tel": "033 55 83 72", "fax": "033 55 83 71", "website": null, "lon": 5.7246758, "lat": 34.8561983, "acronym": "DSA Biskra", "code_wil": 7, "to_check": false }, "geometry": { "type": "Point", "coordinates": [ 5.7246758, 34.8561983 ] } },
{ "type": "Feature", "properties": { "num": 27, "name": "Stations d’expérimentation du HCDS Biskra - Ouled Djellal", "address": " ", "tel": " ", "fax": " ", "website": null, "lon": 5.099025, "lat": 34.45745278, "acronym": "Station HCDS Biskra - Ouled Djellal", "code_wil": 7, "to_check": false }, "geometry": { "type": "Point", "coordinates": [ 5.099025, 34.45745278 ] } },
{ "type": "Feature", "properties": { "num": 28, "name": "Conservation des Forêts BECHAR", "address": "BOITE POSTAL 193, ROUTE DE L'AEROPORT  BECHAR", "tel": "049 26 21 83 \/ 82", "fax": "049 26 21 82", "website": null, "lon": -2.220973, "lat": 31.624377, "acronym": "CF BECHAR", "code_wil": 8, "to_check": false }, "geometry": { "type": "Point", "coordinates": [ -2.220973, 31.624377 ] } },
{ "type": "Feature", "properties": { "num": 29, "name": " Direction des Services Agricole BECHAR", "address": "5 COL CHABOU BARGA", "tel": "049 21 03 62", "fax": "049 21 03 64", "website": null, "lon": -2.225899, "lat": 31.602642, "acronym": " DSA BECHAR", "code_wil": 8, "to_check": false }, "geometry": { "type": "Point", "coordinates": [ -2.225899, 31.602642 ] } },
{ "type": "Feature", "properties": { "num": 30, "name": "Chambre d'Agriculture de Wilaya Bechar", "address": "lotissement gharassa08000 bechar", "tel": "049 21 57 15", "fax": "049 21 57 15", "website": null, "lon": -2.225499, "lat": 31.584725, "acronym": "CAW Bechar", "code_wil": 8, "to_check": false }, "geometry": { "type": "Point", "coordinates": [ -2.225499, 31.584725 ] } },
{ "type": "Feature", "properties": { "num": 31, "name": "Conservation des Forêts BLIDA", "address": "RTE OUED ALLEUG -13 ZABANA (09000 BLIDA)", "tel": "025 23 58 15 \/16", "fax": "025 23 58 17", "website": null, "lon": 2.83508, "lat": 36.468434, "acronym": "CF BLIDA", "code_wil": 9, "to_check": false }, "geometry": { "type": "Point", "coordinates": [ 2.83508, 36.468434 ] } },
{ "type": "Feature", "properties": { "num": 32, "name": "GVAPRO", "address": "Route Bensari Commune de Chebli", "tel": "025486844\/46-025215829", "fax": "025486842", "website": null, "lon": 3.055611, "lat": 36.578378, "acronym": "Filiale AGRAL\/AM", "code_wil": 9, "to_check": false }, "geometry": { "type": "Point", "coordinates": [ 3.055611, 36.578378 ] } },
{ "type": "Feature", "properties": { "num": 33, "name": "Groupe Génie Rural", "address": "Route BenSari Chebli,W de Blida", "tel": "025-48-68-47", "fax": "025-48-68-52", "website": null, "lon": 3.038572, "lat": 36.5838813, "acronym": "GGR", "code_wil": 9, "to_check": false }, "geometry": { "type": "Point", "coordinates": [ 3.038572, 36.5838813 ] } },
{ "type": "Feature", "properties": { "num": 34, "name": "Direction des Services Agricole Blida", "address": "CITE AZZI ALI SIDI AEK", "tel": "025 39 13 47\/ 025 39 14 57", "fax": "025 24 65 31", "website": null, "lon": 2.815244, "lat": 36.490729, "acronym": "DSA Blida", "code_wil": 9, "to_check": false }, "geometry": { "type": "Point", "coordinates": [ 2.815244, 36.490729 ] } },
{ "type": "Feature", "properties": { "num": 35, "name": "Chambre d'Agriculture de Wilaya Blida", "address": "10 avenue ben boulaid 09000 blida", "tel": "025 23 44 17", "fax": "026 23 44 16", "website": null, "lon": 2.834045, "lat": 36.484276, "acronym": "CAW Blida", "code_wil": 9, "to_check": false }, "geometry": { "type": "Point", "coordinates": [ 2.834045, 36.484276 ] } },
{ "type": "Feature", "properties": { "num": 36, "name": "Conservation des Forêts BOUIRA", "address": "ZONE DES PARCS, WILAYA DE BOUIRA", "tel": "026 73 28 39 \/026 73 28 38", "fax": "026 93 01 31", "website": null, "lon": 3.882153, "lat": 36.380332, "acronym": "CF BOUIRA", "code_wil": 10, "to_check": false }, "geometry": { "type": "Point", "coordinates": [ 3.882153, 36.380332 ] } },
{ "type": "Feature", "properties": { "num": 37, "name": "Direction des Services Agricole Bouira", "address": "RUE BOUKAROU MAKHLOUF", "tel": "026 73 02 10", "fax": "026 73 01 77", "website": null, "lon": 3.9024440426683031, "lat": 36.381455458933068, "acronym": "DSA Bouira", "code_wil": 10, "to_check": false }, "geometry": { "type": "Point", "coordinates": [ 3.902444042668303, 36.381455458933068 ] } },
{ "type": "Feature", "properties": { "num": 38, "name": "Chambre d'Agriculture de Wilaya Bouira", "address": "rue boukarou makhlouf 10000 bouira", "tel": "026 73 01 71 \/ 026 73 01 72", "fax": "026 73 01 01", "website": null, "lon": 3.902333, "lat": 36.381349, "acronym": "CAW Bouira", "code_wil": 10, "to_check": false }, "geometry": { "type": "Point", "coordinates": [ 3.902333, 36.381349 ] } },
{ "type": "Feature", "properties": { "num": 39, "name": "Chambre d'Agriculture de Wilaya TAMENGHASSET", "address": "Rue said mokrani centre ville TAMENGHASSET", "tel": "029 31 40 01 ", "fax": "029 31 40 01 ", "website": null, "lon": 5.524206, "lat": 22.793218, "acronym": "CAW TAMENGHASSET", "code_wil": 11, "to_check": false }, "geometry": { "type": "Point", "coordinates": [ 5.524206, 22.793218 ] } },
{ "type": "Feature", "properties": { "num": 40, "name": "Direction des Services Agricole TAMENGHASSET", "address": "ILOT 3048 HAI ESSALEM", "tel": "029 31 02 10", "fax": "029 31 02 06\/029 31 02 11", "website": null, "lon": 5.521134, "lat": 22.775952, "acronym": "DSA TAMENGHASSET", "code_wil": 11, "to_check": false }, "geometry": { "type": "Point", "coordinates": [ 5.521134, 22.775952 ] } },
{ "type": "Feature", "properties": { "num": 41, "name": "Conservation des Forêts TAMENGHASSET", "address": "HAY ECHOUMOUA B.P.126  TAMENGHASSET", "tel": "029 32 01 47 \/48", "fax": "029 32 01 47", "website": null, "lon": 5.516616, "lat": 22.80151, "acronym": "CF TAMENGHASSET", "code_wil": 11, "to_check": false }, "geometry": { "type": "Point", "coordinates": [ 5.516616, 22.80151 ] } },
{ "type": "Feature", "properties": { "num": 42, "name": "Stations d’expérimentation du HCDS Tebessa - Ain Zarga ", "address": " ", "tel": " ", "fax": " ", "website": null, "lon": 8.196111111, "lat": 35.64694444, "acronym": "Station HCDS Tebessa - Ain Zarga", "code_wil": 12, "to_check": false }, "geometry": { "type": "Point", "coordinates": [ 8.196111111, 35.64694444 ] } },
{ "type": "Feature", "properties": { "num": 43, "name": "Chambre d'Agriculture de Wilaya Tébessa", "address": "Cité chahla BT2 12000 tebessa", "tel": "037 56 20 41", "fax": "037 48 30 42\/037 59 28 37", "website": null, "lon": 8.100224, "lat": 35.403947, "acronym": "CAW Tébessa", "code_wil": 12, "to_check": false }, "geometry": { "type": "Point", "coordinates": [ 8.100224, 35.403947 ] } },
{ "type": "Feature", "properties": { "num": 44, "name": "Stations d’expérimentation du HCDS Tebessa - Thlidjane", "address": " ", "tel": " ", "fax": " ", "website": null, "lon": 7.748027778, "lat": 35.07619444, "acronym": "Station HCDS Tebessa - Thlidjane", "code_wil": 12, "to_check": false }, "geometry": { "type": "Point", "coordinates": [ 7.748027778, 35.07619444 ] } },
{ "type": "Feature", "properties": { "num": 45, "name": "Conservation des Forêts TEBESSA", "address": "CITE BEL AIR TEBESSA Centre", "tel": "037 55 59 48", "fax": "037 55 56 54", "website": null, "lon": 8.112883, "lat": 35.404883, "acronym": "CF TEBESSA", "code_wil": 12, "to_check": false }, "geometry": { "type": "Point", "coordinates": [ 8.112883, 35.404883 ] } },
{ "type": "Feature", "properties": { "num": 46, "name": "Haut Commissariat au Développement de la Steppe Centre régional Tébessa", "address": " ", "tel": " ", "fax": " ", "website": null, "lon": 8.132172778, "lat": 35.40958556, "acronym": "HCDS CR Tébessa", "code_wil": 12, "to_check": false }, "geometry": { "type": "Point", "coordinates": [ 8.132172778, 35.40958556 ] } },
{ "type": "Feature", "properties": { "num": 47, "name": "Direction des Services Agricole Tébéssa", "address": "RTE CONSTANTINE", "tel": "037 59 27 00", "fax": "037 59 28 37", "website": null, "lon": 8.108234, "lat": 35.408822, "acronym": "DSA Tébéssa", "code_wil": 12, "to_check": false }, "geometry": { "type": "Point", "coordinates": [ 8.108234, 35.408822 ] } },
{ "type": "Feature", "properties": { "num": 48, "name": "Direction des Services Agricole Tlemcen", "address": "BD DES 24 METRES  TLEMCEN", "tel": "043 42 21 96\/043 42 23 47", "fax": "043 42 20 31", "website": null, "lon": -1.321337, "lat": 34.874794, "acronym": "DSA Tlemcen", "code_wil": 13, "to_check": false }, "geometry": { "type": "Point", "coordinates": [ -1.321337, 34.874794 ] } },
{ "type": "Feature", "properties": { "num": 49, "name": "Conservation des Forêts TLEMCEN", "address": "BP N°369  TLEMCEN ", "tel": "043 27 85 62", "fax": "043 27 14 79", "website": null, "lon": -1.305207, "lat": 34.871707, "acronym": "CF TLEMCEN", "code_wil": 13, "to_check": false }, "geometry": { "type": "Point", "coordinates": [ -1.305207, 34.871707 ] } },
{ "type": "Feature", "properties": { "num": 50, "name": "Chambre d'Agriculture de Wilaya Tlemcen", "address": "35 bd med 5 bel air 13000 tlemcen", "tel": "043 42 20 31", "fax": "043 59 28 37", "website": null, "lon": -1.272977, "lat": 34.912808, "acronym": "CAW Tlemcen", "code_wil": 13, "to_check": false }, "geometry": { "type": "Point", "coordinates": [ -1.272977, 34.912808 ] } },
{ "type": "Feature", "properties": { "num": 51, "name": "Direction des Services Agricole Tiaret", "address": "CITE BOLLIS AMAR TEFFAH ROUTE BOUCHEKIF TIARET", "tel": "046 24 44 08", "fax": " 046 25 50 20\/ 046 24 44 07", "website": null, "lon": 1.327127, "lat": 35.371482, "acronym": "DSA Tiaret", "code_wil": 14, "to_check": false }, "geometry": { "type": "Point", "coordinates": [ 1.327127, 35.371482 ] } },
{ "type": "Feature", "properties": { "num": 52, "name": "Chambre d'Agriculture de Wilaya Tiaret", "address": "cite 1575 logts mohamed djahlane 14000 tiaret", "tel": "046 22 18 29", "fax": "046 42 68 30 \/ 046 42 64  30 ", "website": null, "lon": 1.320805, "lat": 35.356677, "acronym": "CAW Tiaret", "code_wil": 14, "to_check": false }, "geometry": { "type": "Point", "coordinates": [ 1.320805, 35.356677 ] } },
{ "type": "Feature", "properties": { "num": 53, "name": "Conservation des Forêts TIARET", "address": "CITE ARBAOUI AEK EN FACE CITE DUABI B.P 118  TIARET", "tel": "046 25 42 12", "fax": "046 20 78 16", "website": null, "lon": 1.30797, "lat": 35.351536, "acronym": "CF TIARET", "code_wil": 14, "to_check": false }, "geometry": { "type": "Point", "coordinates": [ 1.30797, 35.351536 ] } },
{ "type": "Feature", "properties": { "num": 54, "name": "OFFICE NATIONAL DE DÉVELOPPEMENT DES ELEVAGES ÉQUINS ET CAMELINS", "address": "Haras national chaouchaoua de Tiaret", "tel": null, "fax": null, "website": null, "lon": 1.365658, "lat": 35.399953, "acronym": "ONDEEC", "code_wil": 14, "to_check": false }, "geometry": { "type": "Point", "coordinates": [ 1.365658, 35.399953 ] } },
{ "type": "Feature", "properties": { "num": 55, "name": "Direction des Services Agricole Tizi Ouzou", "address": "AXE NOUVEAU LYCEE GARE FERROVIAIRE L'EX SOUK EL FELLAH BELLOUA", "tel": "026 21 41 90\/ 026 20 90 36", "fax": "026 20 05 08", "website": null, "lon": 4.050023, "lat": 36.712361, "acronym": "DSA Tizi Ouzou", "code_wil": 15, "to_check": false }, "geometry": { "type": "Point", "coordinates": [ 4.050023, 36.712361 ] } },
{ "type": "Feature", "properties": { "num": 56, "name": "Institut deTechnologie Moyen Agricole Spécialisé Tizi Ouzou", "address": null, "tel": "026 20 70 51\/026 20 70 52", "fax": null, "website": null, "lon": 4.017942, "lat": 36.746463, "acronym": "ITMAS Tizi Ouzou", "code_wil": 15, "to_check": false }, "geometry": { "type": "Point", "coordinates": [ 4.017942, 36.746463 ] } },
{ "type": "Feature", "properties": { "num": 57, "name": "Conservation des Forêts TIZI OUZOU", "address": "12, RUE LAMALI AHMED   TIZI OUZOU ", "tel": "026 12 12 35 \/026 12 29 27", "fax": "026 12 25 57", "website": null, "lon": 4.053498, "lat": 36.709705, "acronym": "CF TIZI OUZOU", "code_wil": 15, "to_check": false }, "geometry": { "type": "Point", "coordinates": [ 4.053498, 36.709705 ] } },
{ "type": "Feature", "properties": { "num": 58, "name": "GGR", "address": null, "tel": null, "fax": null, "website": null, "lon": 4.047333, "lat": 36.716124, "acronym": "ERGR DJURDJURA ", "code_wil": 15, "to_check": false }, "geometry": { "type": "Point", "coordinates": [ 4.047333, 36.716124 ] } },
{ "type": "Feature", "properties": { "num": 59, "name": "Chambre d'Agriculture de Wilaya Tizi Ouzou", "address": "Cité 500logts geni sider krim belkacem résidence kahina", "tel": "026 20 05 08", "fax": "026 20 54 69", "website": null, "lon": 4.061132, "lat": 36.701018, "acronym": "CAW Tizi Ouzou", "code_wil": 15, "to_check": false }, "geometry": { "type": "Point", "coordinates": [ 4.061132, 36.701018 ] } },
{ "type": "Feature", "properties": { "num": 60, "name": "Centre National de Contrôle et de Certification des Semences et Plants", "address": "B.P 119 Hassan Badi 16200 – El Harrach – Alger", "tel": "021 52 12 13 \/ 51 64 19 ", "fax": "021 52 99 00", "website": "www.cncc.dz", "lon": 3.153277778, "lat": 36.72207222, "acronym": "CNCC", "code_wil": 16, "to_check": false }, "geometry": { "type": "Point", "coordinates": [ 3.153277778, 36.72207222 ] } },
{ "type": "Feature", "properties": { "num": 61, "name": "Institut national de la protection des végétaux", "address": "12, Avenue des Frères Ouadek Hacen Badi EL HARRACH - ALGER.", "tel": "023 82 88 85", "fax": "023 82 88 96", "website": "www.inpv.edu.dz", "lon": 3.155418, "lat": 36.722882, "acronym": "INPV", "code_wil": 16, "to_check": false }, "geometry": { "type": "Point", "coordinates": [ 3.155418, 36.722882 ] } },
{ "type": "Feature", "properties": { "num": 62, "name": "Institut deTechnologie Moyen Agricole Spécialisé Alger", "address": null, "tel": "021 86 82 36\/021 86 72 04", "fax": null, "website": null, "lon": 3.311358, "lat": 36.77996, "acronym": "ITMAS Alger", "code_wil": 16, "to_check": false }, "geometry": { "type": "Point", "coordinates": [ 3.311358, 36.77996 ] } },
{ "type": "Feature", "properties": { "num": 63, "name": "Institut Technique  des Grandes Cultures", "address": "01, Rue Hacene Badi Ex Avenue Pasteur. BP 16 El Harrach. Alger.", "tel": " 023 82 85 53 \/ 54", "fax": "0 23 82 85 53 \/ 54", "website": "www.itgc.dz", "lon": 3.152086111, "lat": 36.72100556, "acronym": "ITGC", "code_wil": 16, "to_check": false }, "geometry": { "type": "Point", "coordinates": [ 3.152086111, 36.72100556 ] } },
{ "type": "Feature", "properties": { "num": 64, "name": "Institut Technique de L'Elevage", "address": "BABA ALI, Alger.", "tel": "023 57 01 78", "fax": "(0) 23 57 01 81", "website": "www.itelv.dz", "lon": 3.051497222, "lat": 36.65361667, "acronym": "ITELV", "code_wil": 16, "to_check": false }, "geometry": { "type": "Point", "coordinates": [ 3.051497222, 36.65361667 ] } },
{ "type": "Feature", "properties": { "num": 65, "name": "Institut Technique des Cultures Maraichères et Industrielles", "address": "BP 50 Route de Morétti Staouéli . Alger.", "tel": "021 39 36 90 \/ 91 ", "fax": "021 39 36 92  ", "website": "www.itcmidz.org", "lon": 2.86565, "lat": 36.75578333, "acronym": "ITCMI", "code_wil": 16, "to_check": false }, "geometry": { "type": "Point", "coordinates": [ 2.86565, 36.75578333 ] } },
{ "type": "Feature", "properties": { "num": 66, "name": "Institut Technique de L'Arboriculture Fruitière et de la Vigne", "address": "Tessala El Merdja - Birtouta , Alger.", "tel": "023 58 38 60 \/ 61 \/ 66", "fax": "023 58 38 64 \/ 65", "website": "www.itafv.dz", "lon": 2.949945, "lat": 36.63317, "acronym": "ITAFV", "code_wil": 16, "to_check": false }, "geometry": { "type": "Point", "coordinates": [ 2.949945, 36.63317 ] } },
{ "type": "Feature", "properties": { "num": 67, "name": "Centre National de l'Insémination Artificielle et de l'Amélioration Génétique", "address": "Haouche Erroussi, Baba Ali, BP N°10- Birtouta, 16045, Alger", "tel": "023 40 00 12", "fax": "023 40 00 12", "website": "www.cniaag.dz", "lon": 3.024425, "lat": 36.65580556, "acronym": "CNIAAG", "code_wil": 16, "to_check": false }, "geometry": { "type": "Point", "coordinates": [ 3.024425, 36.65580556 ] } },
{ "type": "Feature", "properties": { "num": 68, "name": "Institut National de la Médecine Vétérinaire", "address": "Route Ouled Sidi Cheikh Mohammadia Alger.", "tel": "021 53 67 60 \/  85", "fax": " 021 53 67 20", "website": null, "lon": 3.15315, "lat": 36.725015, "acronym": "INMV", "code_wil": 16, "to_check": false }, "geometry": { "type": "Point", "coordinates": [ 3.15315, 36.725015 ] } },
{ "type": "Feature", "properties": { "num": 69, "name": "Institut National des Sols de L'Irrigation et du Drainage", "address": "BP 148 OUED SMAR EL HARRACH .ALGER", "tel": "021 82 54 57", "fax": "021 82 57 39", "website": "www.insid.dz", "lon": 3.155297, "lat": 36.718986, "acronym": "INSID", "code_wil": 16, "to_check": false }, "geometry": { "type": "Point", "coordinates": [ 3.155297, 36.718986 ] } },
{ "type": "Feature", "properties": { "num": 70, "name": "Ministère de l’Agriculture, du Développement Rural et de la Pêche", "address": "12 Boulevard Colonel Amirouche, Alger", "tel": "023 50 32 38 ", "fax": "023 50 31 17", "website": "madrp.gov.dz", "lon": 3.058677, "lat": 36.770581, "acronym": "MADR", "code_wil": 16, "to_check": false }, "geometry": { "type": "Point", "coordinates": [ 3.058677, 36.770581 ] } },
{ "type": "Feature", "properties": { "num": 71, "name": "OFFICE NATIONAL INTERPROFESSIONNEL DU LAIT ET DES PRODUITS LAITIERS", "address": "Zone industrielle, route nationale N° 01 Boufarik, Blida", "tel": "025 28 37 87\/ 025 28 37 88", "fax": "021 28 36 32", "website": "www.onab.dz", "lon": 2.915039, "lat": 36.58804, "acronym": "ONIL", "code_wil": 8, "to_check": false }, "geometry": { "type": "Point", "coordinates": [ 2.915039, 36.58804 ] } },
{ "type": "Feature", "properties": { "num": 72, "name": "Chambre d'Agriculture de Wilaya Alger", "address": "pins maritimes mohammadia", "tel": "\/", "fax": "021 21 04 83", "website": null, "lon": 3.156887, "lat": 36.732714, "acronym": "CAW Alger", "code_wil": 16, "to_check": false }, "geometry": { "type": "Point", "coordinates": [ 3.156887, 36.732714 ] } },
{ "type": "Feature", "properties": { "num": 73, "name": "Chambre Nationale de l'Agriculture", "address": "Pins Maritimes Palais des Expositions16058", "tel": "021 21 00 52\/021 21 93 96", "fax": "021 21 00 39", "website": null, "lon": 3.156887, "lat": 36.732714, "acronym": "C N A", "code_wil": 16, "to_check": false }, "geometry": { "type": "Point", "coordinates": [ 3.156887, 36.732714 ] } },
{ "type": "Feature", "properties": { "num": 74, "name": "AGROLOG", "address": null, "tel": null, "fax": null, "website": null, "lon": 3.060635, "lat": 36.774689, "acronym": "ENACT", "code_wil": 16, "to_check": false }, "geometry": { "type": "Point", "coordinates": [ 3.060635, 36.774689 ] } },
{ "type": "Feature", "properties": { "num": 75, "name": "AGROLOG", "address": null, "tel": null, "fax": null, "website": null, "lon": 3.004555, "lat": 36.64721, "acronym": "ALVIAR", "code_wil": 16, "to_check": false }, "geometry": { "type": "Point", "coordinates": [ 3.004555, 36.64721 ] } },
{ "type": "Feature", "properties": { "num": 76, "name": "AGROLOG", "address": null, "tel": null, "fax": null, "website": null, "lon": 3.277366, "lat": 36.740779, "acronym": "FRIGOMEDIT", "code_wil": 16, "to_check": false }, "geometry": { "type": "Point", "coordinates": [ 3.277366, 36.740779 ] } },
{ "type": "Feature", "properties": { "num": 77, "name": "AGROLOG", "address": null, "tel": null, "fax": null, "website": null, "lon": 3.094447, "lat": 36.710291, "acronym": "ONAB", "code_wil": 16, "to_check": false }, "geometry": { "type": "Point", "coordinates": [ 3.094447, 36.710291 ] } },
{ "type": "Feature", "properties": { "num": 78, "name": "GGR", "address": null, "tel": null, "fax": null, "website": null, "lon": 3.277, "lat": 36.717323, "acronym": "ERGR ZACCAR", "code_wil": 16, "to_check": false }, "geometry": { "type": "Point", "coordinates": [ 3.277, 36.717323 ] } },
{ "type": "Feature", "properties": { "num": 79, "name": "GVAPRO", "address": "112,Quai Sud ", "tel": "021737275\/79", "fax": "0 21 73 72 97", "website": null, "lon": 3.060539, "lat": 36.777503, "acronym": "Filiale SOTRAVIT", "code_wil": 16, "to_check": false }, "geometry": { "type": "Point", "coordinates": [ 3.060539, 36.777503 ] } },
{ "type": "Feature", "properties": { "num": 80, "name": "GVAPRO", "address": "8,Avenue Abderhmane Mira Bab El Oued", "tel": "0 21 96 67 99", "fax": "0 21 96 76 67", "website": null, "lon": 3.055642, "lat": 36.792653, "acronym": "Filiale SARBO", "code_wil": 16, "to_check": false }, "geometry": { "type": "Point", "coordinates": [ 3.055642, 36.792653 ] } },
{ "type": "Feature", "properties": { "num": 81, "name": "Groupe Lait", "address": "1, Place Slimane HAMMADOUCHI Hussein-Dey- ALGER", "tel": "023 77 12 41 \/ 47 \/ 58", "fax": "023 77 12 43\/44", "website": "www.giplait.dz", "lon": 3.098033, "lat": 36.743205, "acronym": "GIPLAIT", "code_wil": 16, "to_check": false }, "geometry": { "type": "Point", "coordinates": [ 3.098033, 36.743205 ] } },
{ "type": "Feature", "properties": { "num": 82, "name": "Institut National de la Recherche Forestière", "address": "Forêt BAINEM, Alger", "tel": "021 90 12 23\/32", "fax": "021 90 10 26", "website": "www.inrf.dz", "lon": 2.957135, "lat": 36.804431, "acronym": "INRF", "code_wil": 16, "to_check": false }, "geometry": { "type": "Point", "coordinates": [ 2.957135, 36.804431 ] } },
{ "type": "Feature", "properties": { "num": 83, "name": "Groupe Agro-Logistique", "address": "22 rue des fusillés du 17 mai 1957 - El Anasser ", "tel": "021 67 88 09", "fax": "021 67 40 14", "website": "www.agrolog.dz", "lon": 3.083979, "lat": 36.744429, "acronym": "AGROLOG", "code_wil": 16, "to_check": false }, "geometry": { "type": "Point", "coordinates": [ 3.083979, 36.744429 ] } },
{ "type": "Feature", "properties": { "num": 84, "name": "Groupe de Valorisation des PRoduits Agricoles ", "address": "22 Rue des fousillés du 17 mai 1957 El Anasser", "tel": "021-68-54-17\/021-67-64-44", "fax": "021-67-44-53", "website": "www.gvapro-dz.com", "lon": 3.083797, "lat": 36.744275, "acronym": "GVAPRO", "code_wil": 16, "to_check": false }, "geometry": { "type": "Point", "coordinates": [ 3.083797, 36.744275 ] } },
{ "type": "Feature", "properties": { "num": 85, "name": "OFFICE NATIONAL DES TERRES AGRICOLES", "address": "Déménagement vers Birtouta en mars 2018", "tel": "021 73 21 62", "fax": "021 74 73 97", "website": "www.onta.dz\/", "lon": 3.002914, "lat": 36.64943, "acronym": "ONTA", "code_wil": 16, "to_check": false }, "geometry": { "type": "Point", "coordinates": [ 3.002914, 36.64943 ] } },
{ "type": "Feature", "properties": { "num": 86, "name": "OFFICE NATIONAL INTERPROFFESIONNEL DES LÉGUMES ET DE LA VIANDE", "address": "Domaine TOURI H’Mida, route de Chéraga, Ain Benian, Alger.", "tel": "023 21 02 96\/93 ", "fax": "023 21 02 94", "website": "www.onilev.dz", "lon": 2.923407, "lat": 36.798957, "acronym": "ONILEV", "code_wil": 16, "to_check": false }, "geometry": { "type": "Point", "coordinates": [ 2.923407, 36.798957 ] } },
{ "type": "Feature", "properties": { "num": 87, "name": "OFFICE ALGÉRIEN INTERPROFESSIONNEL DES CÉRÉALES", "address": "05 RUE FERHAT BOUSSAD \/Alger centre", "tel": "021 23 73 04\/05\/06\/07", "fax": "021 23 73 13", "website": "www.oaic.dz", "lon": 3.051741, "lat": 36.765843, "acronym": "OAIC", "code_wil": 16, "to_check": false }, "geometry": { "type": "Point", "coordinates": [ 3.051741, 36.765843 ] } },
{ "type": "Feature", "properties": { "num": 88, "name": "Institut National De La Recherche Agronomique D’Algerie", "address": "02 rue des frères Ouaddek Hacen Badi, BP 200, EL-HARRACH, Alger.", "tel": "023 82 85 64 \/ 67 ", "fax": "023 82 85 63", "website": "www.inraa.dz", "lon": 3.152733333, "lat": 36.72231111, "acronym": "INRAA", "code_wil": 16, "to_check": false }, "geometry": { "type": "Point", "coordinates": [ 3.152733333, 36.72231111 ] } },
{ "type": "Feature", "properties": { "num": 89, "name": "Institut National de la Vulgarisation Agricole", "address": "BP 42- Said Hamdine   BIR-MOURAD-RAIS, ALGER.", "tel": "021 54 34 17", "fax": null, "website": "www.inva.dz", "lon": 3.028686, "lat": 36.733714, "acronym": "INVA", "code_wil": 16, "to_check": false }, "geometry": { "type": "Point", "coordinates": [ 3.028686, 36.733714 ] } },
{ "type": "Feature", "properties": { "num": 90, "name": "Conservation des Forêts ALGER", "address": "FERME PILOTE l'ALGEROISE EL MOHAMMADIA  ALGER", "tel": "021 51 44 98", "fax": "021 51 44 97", "website": null, "lon": 3.162689, "lat": 36.724332, "acronym": "CF ALGER", "code_wil": 16, "to_check": false }, "geometry": { "type": "Point", "coordinates": [ 3.162689, 36.724332 ] } },
{ "type": "Feature", "properties": { "num": 91, "name": "Direction Générale des Forêts", "address": "Chemin Doudou Mokhtar, BP N° 232, Ben Aknoun, Alger", "tel": "023 78 58 96", "fax": "023 78 54 56", "website": "madrp.gov.dz\/dgf", "lon": 3.012842, "lat": 36.75064, "acronym": "DGF", "code_wil": 16, "to_check": false }, "geometry": { "type": "Point", "coordinates": [ 3.012842, 36.75064 ] } },
{ "type": "Feature", "properties": { "num": 92, "name": "Direction des Services Agricole Alger", "address": "RTE NLE N°5 CINQ MAISON EN FACE CIMETIERE EL ALLIA", "tel": "021 52 27 45", "fax": "021 52 36 06", "website": null, "lon": 3.178766, "lat": 36.73168, "acronym": "DSA Alger", "code_wil": 16, "to_check": false }, "geometry": { "type": "Point", "coordinates": [ 3.178766, 36.73168 ] } },
{ "type": "Feature", "properties": { "num": 93, "name": "Haut Commissariat au Développement de la Steppe Siège Central", "address": "Rue de l'emir Abdelkader, Djelfa,17000", "tel": "027 87 53 04", "fax": "027.87.42.38\/027.87.51.12", "website": null, "lon": 3.256916667, "lat": 34.66916944, "acronym": "HCDS Siège Central Djelfa", "code_wil": 17, "to_check": false }, "geometry": { "type": "Point", "coordinates": [ 3.256916667, 34.66916944 ] } },
{ "type": "Feature", "properties": { "num": 94, "name": "Haut Commissariat au Développement de la Steppe Centre régional Djelfa", "address": " ", "tel": " ", "fax": null, "website": null, "lon": 3.255165556, "lat": 34.66790694, "acronym": "HCDS CR Djelfa", "code_wil": 17, "to_check": false }, "geometry": { "type": "Point", "coordinates": [ 3.255165556, 34.66790694 ] } },
{ "type": "Feature", "properties": { "num": 95, "name": "Chambre d'Agriculture de Wilaya Djelfa", "address": "place med boudiaf centre ville 17000 djelfa", "tel": "027 92 34 19", "fax": "027 92 31 55", "website": null, "lon": 3.250894, "lat": 34.676158, "acronym": "CAW Djelfa", "code_wil": 17, "to_check": false }, "geometry": { "type": "Point", "coordinates": [ 3.250894, 34.676158 ] } },
{ "type": "Feature", "properties": { "num": 96, "name": "Direction des Services Agricole Djelfa", "address": "Cité RAS EL AYOUN Route Laghouat djelfa", "tel": "027 92 18 57 ", "fax": "027 92 18 59", "website": null, "lon": 3.255901, "lat": 34.64864, "acronym": "DSA Djelfa", "code_wil": 17, "to_check": false }, "geometry": { "type": "Point", "coordinates": [ 3.255901, 34.64864 ] } },
{ "type": "Feature", "properties": { "num": 97, "name": "Haut Commissariat au Développement de la Steppe ", "address": "Rue de l'Emir Abdelkader, 17000, Djelfa", "tel": "027 87 53 04", "fax": null, "website": null, "lon": 3.255766, "lat": 34.668012, "acronym": "HCDS", "code_wil": 17, "to_check": false }, "geometry": { "type": "Point", "coordinates": [ 3.255766, 34.668012 ] } },
{ "type": "Feature", "properties": { "num": 98, "name": "Institut deTechnologie Moyen Agricole Spécialisé Djelfa", "address": null, "tel": "027 92 18 42\/027) 92 1843", "fax": null, "website": null, "lon": 3.255977, "lat": 34.647519, "acronym": "ITMAS Djelfa", "code_wil": 17, "to_check": false }, "geometry": { "type": "Point", "coordinates": [ 3.255977, 34.647519 ] } },
{ "type": "Feature", "properties": { "num": 99, "name": "GGR", "address": null, "tel": null, "fax": null, "website": null, "lon": 3.224828, "lat": 34.663076, "acronym": "ERGR ATLAS", "code_wil": 17, "to_check": false }, "geometry": { "type": "Point", "coordinates": [ 3.224828, 34.663076 ] } },
{ "type": "Feature", "properties": { "num": 100, "name": "Conservation des Forêts DJELFA", "address": "CITE 05 JUILLET (BNET BELAKEHAL)  DJELFA", "tel": "027 92 34 19", "fax": "027 87 38 98", "website": null, "lon": 3.263064, "lat": 34.658098, "acronym": "CF DJELFA", "code_wil": 17, "to_check": false }, "geometry": { "type": "Point", "coordinates": [ 3.263064, 34.658098 ] } },
{ "type": "Feature", "properties": { "num": 101, "name": "Stations d’expérimentation du HCDS Djelfa - Taadmit", "address": " ", "tel": " ", "fax": " ", "website": null, "lon": 3.037627778, "lat": 34.26854444, "acronym": "Station HCDS Djelfa - Taadmit", "code_wil": 17, "to_check": false }, "geometry": { "type": "Point", "coordinates": [ 3.037627778, 34.26854444 ] } },
{ "type": "Feature", "properties": { "num": 102, "name": "Conservation des Forêts JIJEL", "address": "ROUTE DE CONSTANTINE  JIJEL 18000", "tel": "034 47 17 36", "fax": "034 47 46 27", "website": null, "lon": 5.771968, "lat": 36.812201, "acronym": "CF JIJEL", "code_wil": 18, "to_check": false }, "geometry": { "type": "Point", "coordinates": [ 5.771968, 36.812201 ] } },
{ "type": "Feature", "properties": { "num": 103, "name": "Centre de Formation des Agents Techniques Spécialisés des Forêts Jijel", "address": "oued kissir bordj blida 18005 el aouana", "tel": "034 58 43 17\/(034) 58 43 19", "fax": null, "website": null, "lon": 5.673153, "lat": 36.793331, "acronym": "CFATSF Jijel", "code_wil": 18, "to_check": false }, "geometry": { "type": "Point", "coordinates": [ 5.673153, 36.793331 ] } },
{ "type": "Feature", "properties": { "num": 104, "name": "Chambre d'Agriculture de Wilaya Jijel", "address": "avenue 1er novembre centre ville 18000 jijel", "tel": "034 47 12 35", "fax": "034 49 75 76", "website": null, "lon": 5.767788, "lat": 36.824437, "acronym": "CAW Jijel", "code_wil": 18, "to_check": false }, "geometry": { "type": "Point", "coordinates": [ 5.767788, 36.824437 ] } },
{ "type": "Feature", "properties": { "num": 105, "name": "Direction des Services Agricole JIJEL ", "address": "CITE ADM OULED AISSA  JIJEL", "tel": "034 47 15 80", "fax": "034 49 59 80", "website": null, "lon": 5.749744, "lat": 36.807268, "acronym": "DSA JIJEL ", "code_wil": 18, "to_check": false }, "geometry": { "type": "Point", "coordinates": [ 5.749744, 36.807268 ] } },
{ "type": "Feature", "properties": { "num": 106, "name": "Conservation des Forêts SETIF", "address": "CITE AIN TBINET  SETIF", "tel": "036 62 10 03\/04", "fax": "036 62 10 06", "website": null, "lon": 5.432774, "lat": 36.188236, "acronym": "CF SETIF", "code_wil": 19, "to_check": false }, "geometry": { "type": "Point", "coordinates": [ 5.432774, 36.188236 ] } },
{ "type": "Feature", "properties": { "num": 107, "name": "Chambre d'Agriculture de Wilaya Sétif", "address": "Cité les tours ain tebinet 19000setif", "tel": "036 62 16 10  ", "fax": "036 62 16 29", "website": null, "lon": 5.432802, "lat": 36.188168, "acronym": "CAW Sétif", "code_wil": 19, "to_check": false }, "geometry": { "type": "Point", "coordinates": [ 5.432802, 36.188168 ] } },
{ "type": "Feature", "properties": { "num": 108, "name": "Institut deTechnologie Moyen Agricole Spécialisé Setif", "address": null, "tel": "030 61 92 51\/027 92 18 43", "fax": null, "website": null, "lon": 5.372216, "lat": 36.163866, "acronym": "ITMAS Setif", "code_wil": 19, "to_check": false }, "geometry": { "type": "Point", "coordinates": [ 5.372216, 36.163866 ] } },
{ "type": "Feature", "properties": { "num": 109, "name": "Direction des Services Agricole Sétif", "address": "CITE  AIN TEBINET  Sétif19000", "tel": "036 62 10 19 \/ 20", "fax": "036 62 10 17", "website": null, "lon": 5.432294, "lat": 36.188198, "acronym": "DSA Sétif", "code_wil": 19, "to_check": false }, "geometry": { "type": "Point", "coordinates": [ 5.432294, 36.188198 ] } },
{ "type": "Feature", "properties": { "num": 110, "name": "GVAPRO", "address": "BP 13 Guelal Daiar  d'Ain Oulmane ", "tel": "036589246-036589248", "fax": "036589246-036589248", "website": null, "lon": 5.331164, "lat": 36.0363, "acronym": "Filiale SAGRODEV", "code_wil": 19, "to_check": false }, "geometry": { "type": "Point", "coordinates": [ 5.331164, 36.0363 ] } },
{ "type": "Feature", "properties": { "num": 111, "name": "Conservation des Forêts SAIDA", "address": "RTE DE TIARET 20000 WILAYA DE SAIDA", "tel": "048 51 65 84", "fax": "048 41 03 13", "website": null, "lon": 0.14806, "lat": 34.83445, "acronym": "CF SAIDA", "code_wil": 20, "to_check": false }, "geometry": { "type": "Point", "coordinates": [ 0.14806, 34.83445 ] } },
{ "type": "Feature", "properties": { "num": 112, "name": "Haut Commissariat au Développement de la Steppe Centre régional Saida", "address": " ", "tel": " ", "fax": " ", "website": null, "lon": 0.1505083333, "lat": 34.84028333, "acronym": "HCDS CR Saida", "code_wil": 20, "to_check": false }, "geometry": { "type": "Point", "coordinates": [ 0.1505083333, 34.84028333 ] } },
{ "type": "Feature", "properties": { "num": 113, "name": "Chambre d'Agriculture de Wilaya Saïda", "address": "Route de tiaret sersour saida", "tel": "048 41 04 24", "fax": "048 41 04 17", "website": null, "lon": 0.149464, "lat": 34.841109, "acronym": "CAW Saïda", "code_wil": 20, "to_check": false }, "geometry": { "type": "Point", "coordinates": [ 0.149464, 34.841109 ] } },
{ "type": "Feature", "properties": { "num": 114, "name": "Direction des Services Agricole Saida", "address": "Cité Riade  saida", "tel": "048 37 41 23", "fax": "048 37 41 21", "website": null, "lon": 0.160177, "lat": 34.843835, "acronym": "DSA Saida", "code_wil": 20, "to_check": false }, "geometry": { "type": "Point", "coordinates": [ 0.160177, 34.843835 ] } },
{ "type": "Feature", "properties": { "num": 115, "name": "Conservation des Forêts SKIKDA", "address": "CITE BOUABAZ  SKIKDA", "tel": "038 75 43 78", "fax": "038 75 43 78", "website": null, "lon": 6.915203, "lat": 36.881544, "acronym": "CF SKIKDA", "code_wil": 21, "to_check": false }, "geometry": { "type": "Point", "coordinates": [ 6.915203, 36.881544 ] } },
{ "type": "Feature", "properties": { "num": 116, "name": "Chambre d'Agriculture de Wilaya Skikda", "address": "03 rue medaghi didouche mourad 21000 skikda", "tel": "038 75 23 10", "fax": "038 75 18 39\/038 57 39 16", "website": null, "lon": 6.910776, "lat": 36.88267, "acronym": "CAW Skikda", "code_wil": 21, "to_check": false }, "geometry": { "type": "Point", "coordinates": [ 6.910776, 36.88267 ] } },
{ "type": "Feature", "properties": { "num": 117, "name": "Direction des Services Agricole Skikda", "address": "CITE FRERES CHBEL EX SKI AUTO DIDOUCHE MOURAD 21000", "tel": "038 75 15 10", "fax": "038 75 39 16", "website": null, "lon": 6.909854, "lat": 36.87984, "acronym": "DSA Skikda", "code_wil": 21, "to_check": false }, "geometry": { "type": "Point", "coordinates": [ 6.909854, 36.87984 ] } },
{ "type": "Feature", "properties": { "num": 118, "name": "Direction des Services Agricole Sidi bel Abbes", "address": "RTE BOUKHANEFIS MOUSTACHFA 22000", "tel": "048 76 95 07\/08\/09", "fax": "048 76 95 12", "website": null, "lon": -0.650069, "lat": 35.178232, "acronym": "Sidi bel Abbes", "code_wil": 22, "to_check": false }, "geometry": { "type": "Point", "coordinates": [ -0.650069, 35.178232 ] } },
{ "type": "Feature", "properties": { "num": 119, "name": "Conservation des Forêts SIDI BEL ABBES", "address": "N°55 RUE KAISSAR BOUZIANE CITE ADIME FATIHA  SIDI BEL ABBAS", "tel": "048 68 47 38\/048 68 47 27", "fax": "048 65 23 58", "website": null, "lon": -0.645893, "lat": 35.200838, "acronym": "CF SIDI BEL ABBES", "code_wil": 22, "to_check": false }, "geometry": { "type": "Point", "coordinates": [ -0.645893, 35.200838 ] } },
{ "type": "Feature", "properties": { "num": 120, "name": "Chambre d'Agriculture de Wilaya SBA", "address": "Bd emir abdelkader centre ville SBA", "tel": "048 68 85 67", "fax": "048 68 85 68", "website": null, "lon": -0.635564, "lat": 35.193364, "acronym": "CAW SBA", "code_wil": 22, "to_check": false }, "geometry": { "type": "Point", "coordinates": [ -0.635564, 35.193364 ] } },
{ "type": "Feature", "properties": { "num": 121, "name": "Chambre d'Agriculture de Wilaya Annaba", "address": "Place Belouizdad MES Vieille Ville", "tel": "038 45 00 00", "fax": "038 45 01 01", "website": null, "lon": 7.761298, "lat": 36.898051, "acronym": "CAW Annaba", "code_wil": 23, "to_check": false }, "geometry": { "type": "Point", "coordinates": [ 7.761298, 36.898051 ] } },
{ "type": "Feature", "properties": { "num": 122, "name": "Conservation des Forêts ANNABA", "address": "CITE 05 JUILLET 1962 LES HANGROIS ANNABA", "tel": "038 42 30 03 ", "fax": "038 42 26 32\/33", "website": null, "lon": 7.712227, "lat": 36.885004, "acronym": "CF ANNABA", "code_wil": 23, "to_check": false }, "geometry": { "type": "Point", "coordinates": [ 7.712227, 36.885004 ] } },
{ "type": "Feature", "properties": { "num": 123, "name": "Direction des Services Agricole Annaba", "address": "7  COURS DE LA REVOLUTION 23000", "tel": "038 45 00 84", "fax": "038 45 00 79", "website": null, "lon": 7.759729, "lat": 36.900972, "acronym": "DSA Annaba", "code_wil": 23, "to_check": false }, "geometry": { "type": "Point", "coordinates": [ 7.759729, 36.900972 ] } },
{ "type": "Feature", "properties": { "num": 124, "name": "Direction des Services Agricole Guelma", "address": "CITE BARA LAKHDAR AGABI 24000 guelma ", "tel": "037 11 12 91\/037 11 12 92", "fax": "037 11 12 93", "website": null, "lon": 7.439997, "lat": 36.455379, "acronym": "DSA Guelma", "code_wil": 24, "to_check": false }, "geometry": { "type": "Point", "coordinates": [ 7.439997, 36.455379 ] } },
{ "type": "Feature", "properties": { "num": 125, "name": "Chambre d'Agriculture de Wilaya Guelma", "address": "Cité Bara Lakhdar Agabi", "tel": "037 16 14 21", "fax": "037 16 14 22", "website": null, "lon": 7.441156, "lat": 36.455599, "acronym": "CAW Guelma", "code_wil": 24, "to_check": false }, "geometry": { "type": "Point", "coordinates": [ 7.441156, 36.455599 ] } },
{ "type": "Feature", "properties": { "num": 126, "name": "Institut deTechnologie Moyen Agricole Spécialisé Guelma", "address": null, "tel": "037 11-16-97\/037) 11-13-87", "fax": null, "website": null, "lon": 7.440161, "lat": 36.458509, "acronym": "ITMAS Guelma", "code_wil": 24, "to_check": false }, "geometry": { "type": "Point", "coordinates": [ 7.440161, 36.458509 ] } },
{ "type": "Feature", "properties": { "num": 127, "name": "Conservation des Forêts GUELMA", "address": "CITE MEKHANCHA ABDELATIF  GUELMA ", "tel": "037 16 99 31 ", "fax": "037 14 55 57", "website": null, "lon": 7.436931, "lat": 36.472706, "acronym": "CF GUELMA", "code_wil": 24, "to_check": false }, "geometry": { "type": "Point", "coordinates": [ 7.436931, 36.472706 ] } },
{ "type": "Feature", "properties": { "num": 128, "name": "Conservation des Forêts CONSTANTINE", "address": "CITE BOUSSOUF  1er  Tranche  CONSTANTINE ", "tel": "031 60 08 08 \/ 031 60 08 63", "fax": "031 60 48 64", "website": null, "lon": 6.581437, "lat": 36.327659, "acronym": "CF CONSTANTINE", "code_wil": 25, "to_check": false }, "geometry": { "type": "Point", "coordinates": [ 6.581437, 36.327659 ] } },
{ "type": "Feature", "properties": { "num": 129, "name": "Direction des Services Agricole Constantine", "address": "PLACE DES MARTYRS CENTRE VILLE 25800 ", "tel": "031 87 28 04 \/ 05 \/ 06", "fax": "031 87 46 74\/031 87 32 19", "website": null, "lon": 6.609297, "lat": 36.363949, "acronym": "DSA Constantine", "code_wil": 25, "to_check": false }, "geometry": { "type": "Point", "coordinates": [ 6.609297, 36.363949 ] } },
{ "type": "Feature", "properties": { "num": 130, "name": "Chambre d'Agriculture de Wilaya Constantine", "address": "PlaceE DES Martyrs S Centre Ville", "tel": "031 87 24 67", "fax": "031 87 21 83 \/ 031 87 42 59", "website": null, "lon": 6.609235, "lat": 36.364, "acronym": "CAW Constantine", "code_wil": 25, "to_check": false }, "geometry": { "type": "Point", "coordinates": [ 6.609235, 36.364 ] } },
{ "type": "Feature", "properties": { "num": 131, "name": "Centre de Formation et de Vulgarisation Agricole Medea", "address": "hai takbou 26800 medea", "tel": "025 58 89 26\/025 58 91 61", "fax": null, "website": null, "lon": 2.771924, "lat": 36.26258, "acronym": "CFVA Medea", "code_wil": 26, "to_check": false }, "geometry": { "type": "Point", "coordinates": [ 2.771924, 36.26258 ] } },
{ "type": "Feature", "properties": { "num": 132, "name": "Centre de Formation des Agents Techniques Spécialisés des Forêts Medea", "address": "centre ville beni slimane", "tel": "025 71 58 19\/(025) 71 5712", "fax": null, "website": null, "lon": 3.30408, "lat": 36.22865, "acronym": "CFATSF Medea", "code_wil": 26, "to_check": false }, "geometry": { "type": "Point", "coordinates": [ 3.30408, 36.22865 ] } },
{ "type": "Feature", "properties": { "num": 133, "name": "Direction des Services Agricole Médéa", "address": "BD SALVADOR ALLENDEE M'SALLAH 26000", "tel": "025 79 36 85", "fax": "025 79 36 86", "website": null, "lon": 2.765699, "lat": 36.260921, "acronym": "DSA Médéa", "code_wil": 26, "to_check": false }, "geometry": { "type": "Point", "coordinates": [ 2.765699, 36.260921 ] } },
{ "type": "Feature", "properties": { "num": 134, "name": "Chambre d'Agriculture de Wilaya Médéa", "address": "Rue Medjechkir", "tel": "025 73 46 15", "fax": "025 73 46 13", "website": null, "lon": 2.762001, "lat": 36.280234, "acronym": "CAW Médéa", "code_wil": 26, "to_check": false }, "geometry": { "type": "Point", "coordinates": [ 2.762001, 36.280234 ] } },
{ "type": "Feature", "properties": { "num": 135, "name": "Conservation des Forêts MEDEA", "address": " RUE SAVADOR ALEND QUATIER  M'SALAH   MEDEA", "tel": "025 79 36 76", "fax": "025 58 14 63", "website": null, "lon": 2.760548, "lat": 36.260704, "acronym": "CF MEDEA", "code_wil": 26, "to_check": false }, "geometry": { "type": "Point", "coordinates": [ 2.760548, 36.260704 ] } },
{ "type": "Feature", "properties": { "num": 136, "name": "Direction des Services Agricole Mostaganem", "address": "LOT VALLEE DES JARDINS 27000 MOSTAGHANEM", "tel": "045 41 51 11", "fax": "045 41 51 13", "website": null, "lon": 0.110753, "lat": 35.913246, "acronym": "DSA Mostaganem", "code_wil": 27, "to_check": false }, "geometry": { "type": "Point", "coordinates": [ 0.110753, 35.913246 ] } },
{ "type": "Feature", "properties": { "num": 137, "name": "Chambre d'Agriculture de Wilaya Mostaganem", "address": "Route de Relizane.Vallée des Jardins.Bp 93", "tel": "045 41 51 05", "fax": "045 41 51 06", "website": null, "lon": 0.110886, "lat": 35.913353, "acronym": "CAW Mostaganem", "code_wil": 27, "to_check": false }, "geometry": { "type": "Point", "coordinates": [ 0.110886, 35.913353 ] } },
{ "type": "Feature", "properties": { "num": 138, "name": "Conservation des Forêts MOSTAGANEM", "address": "01 RUE MEZIANE MOKHTAR 27000  MOSTAGANEM", "tel": "045 41 74 68 \/64", "fax": "045 41 74 65", "website": null, "lon": 0.066769, "lat": 35.917974, "acronym": "CF MOSTAGANEM", "code_wil": 27, "to_check": false }, "geometry": { "type": "Point", "coordinates": [ 0.066769, 35.917974 ] } },
{ "type": "Feature", "properties": { "num": 139, "name": "Direction des Services Agricole M'sila", "address": "CITE ADM 28000", "tel": "035 35 06 69", "fax": "035 55 00 14", "website": null, "lon": 4.536575, "lat": 35.703837, "acronym": "DSA M'sila", "code_wil": 28, "to_check": false }, "geometry": { "type": "Point", "coordinates": [ 4.536575, 35.703837 ] } },
{ "type": "Feature", "properties": { "num": 140, "name": "Haut Commissariat au Développement de la Steppe Centre régional M'sila", "address": " ", "tel": " ", "fax": " ", "website": null, "lon": 4.536939167, "lat": 35.7077725, "acronym": "HCDS CR M'sila", "code_wil": 28, "to_check": false }, "geometry": { "type": "Point", "coordinates": [ 4.536939167, 35.7077725 ] } },
{ "type": "Feature", "properties": { "num": 141, "name": "Chambre d'Agriculture de Wilaya M’sila", "address": "Cité Administrative", "tel": "035 33 83 90", "fax": "035 55 15 75", "website": null, "lon": 4.54215, "lat": 35.713453, "acronym": "CAW M’sila", "code_wil": 28, "to_check": false }, "geometry": { "type": "Point", "coordinates": [ 4.54215, 35.713453 ] } },
{ "type": "Feature", "properties": { "num": 142, "name": "Conservation des Forêts M'SILA", "address": "ROUTE DE M'SILA 28000", "tel": "035 33 61 92 ", "fax": null, "website": null, "lon": 4.545297, "lat": 35.705166, "acronym": "CF M'SILA", "code_wil": 28, "to_check": false }, "geometry": { "type": "Point", "coordinates": [ 4.545297, 35.705166 ] } },
{ "type": "Feature", "properties": { "num": 143, "name": "Direction des Services Agricole Mascara", "address": "Rue SIDI SAHNOUN RACHIDIA ROUTE DE TIARET 29000  Mascara", "tel": "045 71 18 50", "fax": "045 71 18 53", "website": null, "lon": 0.149572, "lat": 35.394157, "acronym": "DSA Mascara", "code_wil": 29, "to_check": false }, "geometry": { "type": "Point", "coordinates": [ 0.149572, 35.394157 ] } },
{ "type": "Feature", "properties": { "num": 144, "name": "Chambre d'Agriculture de Wilaya Mascara", "address": "Rue  Merzoug Omar Place de La Palestine ", "tel": "045 71 59 91 ", "fax": "045 71 59 33", "website": null, "lon": 0.136887, "lat": 35.394171, "acronym": "CAW Mascara", "code_wil": 29, "to_check": false }, "geometry": { "type": "Point", "coordinates": [ 0.136887, 35.394171 ] } },
{ "type": "Feature", "properties": { "num": 145, "name": "Conservation des Forêts MASCARA", "address": "RUE EL MOUDJAHID EL MOUTAWAFI KHATIR HMED BEL MOKHTAR 29000  MASCARA", "tel": "045 71 88 34", "fax": "045 71 92 38", "website": null, "lon": 0.147403, "lat": 35.400197, "acronym": "CF MASCARA", "code_wil": 29, "to_check": false }, "geometry": { "type": "Point", "coordinates": [ 0.147403, 35.400197 ] } },
{ "type": "Feature", "properties": { "num": 146, "name": "Direction des Services Agricole Ouargla", "address": "AVENU d'EL QODS CODE POSTAL 30000  OUARGLA", "tel": "029 71 22 74\/ 78", "fax": "029 71 37 30", "website": null, "lon": 5.324527, "lat": 31.950914, "acronym": "DSA Ouargla", "code_wil": 30, "to_check": false }, "geometry": { "type": "Point", "coordinates": [ 5.324527, 31.950914 ] } },
{ "type": "Feature", "properties": { "num": 147, "name": "Conservation des Forêts OURGLA", "address": "ZONE D'ACTIVITEES 30000  WILAYA DE OUARGLA", "tel": "029 71 39 42", "fax": "029 71 30 05", "website": null, "lon": 5.319623, "lat": 31.940372, "acronym": "CF OURGLA", "code_wil": 30, "to_check": false }, "geometry": { "type": "Point", "coordinates": [ 5.319623, 31.940372 ] } },
{ "type": "Feature", "properties": { "num": 148, "name": "Commissariat au Développement de l'Agriculture des Régions Sahariennes ", "address": "Ave 1er Novembre 1954, Ouargla", "tel": "029 71 30 39", "fax": "029 71 36 89", "website": null, "lon": 5.324003, "lat": 31.946472, "acronym": "CDARS", "code_wil": 30, "to_check": false }, "geometry": { "type": "Point", "coordinates": [ 5.324003, 31.946472 ] } },
{ "type": "Feature", "properties": { "num": 149, "name": "Centre de Formation et de Vulgarisation Agricole-Touggourt", "address": "sidi mahdi bp 04 30001 nezla", "tel": "029 69 31 74\/(029) 69 32 79", "fax": null, "website": null, "lon": 6.1001740892153169, "lat": 33.076010971482184, "acronym": "CFVA Touggourt", "code_wil": 30, "to_check": false }, "geometry": { "type": "Point", "coordinates": [ 6.100174089215317, 33.076010971482184 ] } },
{ "type": "Feature", "properties": { "num": 150, "name": "Chambre d'Agriculture de Wilaya Ouargla", "address": null, "tel": null, "fax": "029 71 29 06", "website": null, "lon": 5.324481, "lat": 31.950995, "acronym": "CAW Ouargla", "code_wil": 30, "to_check": false }, "geometry": { "type": "Point", "coordinates": [ 5.324481, 31.950995 ] } },
{ "type": "Feature", "properties": { "num": 151, "name": "Commissariat au Développement de l'Agriculture des Régions Sahariennes", "address": "Ave 1 er November 1954", "tel": "029 71 30 39", "fax": "029.71.30.39\/029.71.29.24", "website": null, "lon": 5.324002778, "lat": 31.94647222, "acronym": "CDARS Siège Central Ouargla", "code_wil": 30, "to_check": false }, "geometry": { "type": "Point", "coordinates": [ 5.324002778, 31.94647222 ] } },
{ "type": "Feature", "properties": { "num": 152, "name": "Direction des Services Agricole Oran", "address": "02  Maitre Abed M'hamed - Plateau a ,ORAN ", "tel": "041 30 10 11 \/ 12", "fax": "041 30 10 31", "website": null, "lon": -0.656722, "lat": 35.688379, "acronym": "DSA Oran", "code_wil": 31, "to_check": false }, "geometry": { "type": "Point", "coordinates": [ -0.656722, 35.688379 ] } },
{ "type": "Feature", "properties": { "num": 153, "name": "GVAPRO", "address": "Avenue des Martyres de la Révolution-Zone Industrielle ESSANIA ", "tel": "0 41 51 37 83", "fax": "0 41 51 37 83", "website": null, "lon": -0.624792, "lat": 35.671308, "acronym": "Filiale SAO", "code_wil": 31, "to_check": false }, "geometry": { "type": "Point", "coordinates": [ -0.624792, 35.671308 ] } },
{ "type": "Feature", "properties": { "num": 154, "name": "Conservation des Forêts ORAN", "address": "RUE FRANGE MARTINS,CANASTEL  ORAN", "tel": "041 62 20 62", "fax": "041 62 20 63", "website": null, "lon": -0.582208, "lat": 35.73215, "acronym": "CF ORAN", "code_wil": 31, "to_check": false }, "geometry": { "type": "Point", "coordinates": [ -0.582208, 35.73215 ] } },
{ "type": "Feature", "properties": { "num": 155, "name": "GGR", "address": null, "tel": null, "fax": null, "website": null, "lon": -0.60931, "lat": 35.6966, "acronym": "ERGR DHAHRA", "code_wil": 31, "to_check": false }, "geometry": { "type": "Point", "coordinates": [ -0.60931, 35.6966 ] } },
{ "type": "Feature", "properties": { "num": 156, "name": "Chambre d'Agriculture de Wilaya Oran", "address": "Rue de la  Gare Messeghrine ", "tel": "040 23 82 83", "fax": "040 91 45 41", "website": null, "lon": -0.734557, "lat": 35.610772, "acronym": "CAW Oran", "code_wil": 31, "to_check": false }, "geometry": { "type": "Point", "coordinates": [ -0.734557, 35.610772 ] } },
{ "type": "Feature", "properties": { "num": 157, "name": "Haut Commissariat au Développement de la Steppe Centre régional El Bayadh", "address": " ", "tel": " ", "fax": " ", "website": null, "lon": 1.013066667, "lat": 33.67884444, "acronym": "HCDS CR El Bayadh", "code_wil": 32, "to_check": false }, "geometry": { "type": "Point", "coordinates": [ 1.013066667, 33.67884444 ] } },
{ "type": "Feature", "properties": { "num": 158, "name": "Conservation des Forêts El Bayadh", "address": "cite admin BP N°127 Rp-EL-Bayadh", "tel": " 049 613 981", "fax": "49,613,982", "website": null, "lon": 1.01374, "lat": 33.68112, "acronym": "CF El Bayadh", "code_wil": 32, "to_check": false }, "geometry": { "type": "Point", "coordinates": [ 1.01374, 33.68112 ] } },
{ "type": "Feature", "properties": { "num": 159, "name": "Chambre d'Agriculture de Wilaya El Bayadh", "address": "B atoire Ancien  Siège", "tel": "049 60 98 24", "fax": "049 60 98 23", "website": null, "lon": 1.003696, "lat": 33.688358, "acronym": "CAW El Bayadh", "code_wil": 32, "to_check": false }, "geometry": { "type": "Point", "coordinates": [ 1.003696, 33.688358 ] } },
{ "type": "Feature", "properties": { "num": 160, "name": "Direction des Services Agricole El Bayadh", "address": "CENTRE VILLE 32000 EL BAYADH", "tel": "496113950", "fax": "049 61 14 19", "website": null, "lon": 1.01387, "lat": 33.68154, "acronym": "DSA El Bayadh", "code_wil": 32, "to_check": false }, "geometry": { "type": "Point", "coordinates": [ 1.01387, 33.68154 ] } },
{ "type": "Feature", "properties": { "num": 161, "name": "Chambre d'Agriculture de Wilaya Illizi", "address": "62 Rue Mustapha Ben Boulaid BEN BOULAID Centre Ville", "tel": "029 41 15 37", "fax": "029 41 15 37", "website": null, "lon": 8.474414, "lat": 26.496902, "acronym": "CAW Illizi", "code_wil": 33, "to_check": false }, "geometry": { "type": "Point", "coordinates": [ 8.474414, 26.496902 ] } },
{ "type": "Feature", "properties": { "num": 162, "name": "Conservation des Forêts ILLIZI", "address": "CITE ADMINISTRATIVE  ILLIZI", "tel": "029 42 18 19\/ 029 42 20 87", "fax": "029 40 40 24\/28", "website": null, "lon": 8.47012, "lat": 26.509331, "acronym": "CF ILLIZI", "code_wil": 33, "to_check": false }, "geometry": { "type": "Point", "coordinates": [ 8.47012, 26.509331 ] } },
{ "type": "Feature", "properties": { "num": 163, "name": "Direction des Services Agricole Illizi", "address": "RUE MUSTAPHA BEN BOULAID CENTRE VILLE 33000 ILLIZI", "tel": "29402861", "fax": "029 40 28 60", "website": null, "lon": 8.475074, "lat": 26.503022, "acronym": "DSA Illizi", "code_wil": 33, "to_check": false }, "geometry": { "type": "Point", "coordinates": [ 8.475074, 26.503022 ] } },
{ "type": "Feature", "properties": { "num": 164, "name": "Conservation des Forêts Bordj Bou Arreridj", "address": "17 Rue Rameche Aisa, fg des jardins, Bordj Bou Aréridj", "tel": "35733098", "fax": "35733100", "website": null, "lon": 4.771682, "lat": 36.075455, "acronym": "CF Bordj Bou Arreridj", "code_wil": 34, "to_check": false }, "geometry": { "type": "Point", "coordinates": [ 4.771682, 36.075455 ] } },
{ "type": "Feature", "properties": { "num": 165, "name": "Direction des Services Agricole Bordj Bou Arreridj", "address": "BD  HAOUARI BOUMEDIENE  BORDJ BOU ARRERIDJ", "tel": "035 73 31 34", "fax": "035 73 31 30", "website": null, "lon": 4.770908, "lat": 36.074055, "acronym": "DSA Bordj Bou Arreridj", "code_wil": 34, "to_check": false }, "geometry": { "type": "Point", "coordinates": [ 4.770908, 36.074055 ] } },
{ "type": "Feature", "properties": { "num": 166, "name": "Chambre d'Agriculture de Wilaya BBA", "address": "Rue Mebarkia  Smail", "tel": "035 74 81 20", "fax": "035 74 83 45", "website": null, "lon": 4.762996, "lat": 36.078071, "acronym": "CAW BBA", "code_wil": 34, "to_check": false }, "geometry": { "type": "Point", "coordinates": [ 4.762996, 36.078071 ] } },
{ "type": "Feature", "properties": { "num": 167, "name": "Conservation des Forêts BOUMERDES", "address": "CITE IBN KHELDOUNE (1200 logts)  BOUMERDES", "tel": "024 79 13 42", "fax": "024 81 15 70", "website": null, "lon": 3.465371, "lat": 36.750364, "acronym": "CF BOUMERDES", "code_wil": 35, "to_check": false }, "geometry": { "type": "Point", "coordinates": [ 3.465371, 36.750364 ] } },
{ "type": "Feature", "properties": { "num": 168, "name": "Direction des Services Agricole Boumerdes", "address": "NOUVEAU SIEGE SIS AUX ORANGERS 35000 BOUMERDES", "tel": "024 79 50 14", "fax": "024 79 50 14", "website": null, "lon": 3.486425, "lat": 36.763604, "acronym": "DSA Boumerdes", "code_wil": 35, "to_check": false }, "geometry": { "type": "Point", "coordinates": [ 3.486425, 36.763604 ] } },
{ "type": "Feature", "properties": { "num": 169, "name": "Chambre d'Agriculture de Wilaya Boumerdès", "address": "Bt 11 DEC Bt AGF Bloc ANDI 1ere Etage  BMR", "tel": "024 91 47 58", "fax": "024 79 98 26", "website": null, "lon": 3.456217, "lat": 36.754554, "acronym": "CAW Boumerdès", "code_wil": 35, "to_check": false }, "geometry": { "type": "Point", "coordinates": [ 3.456217, 36.754554 ] } },
{ "type": "Feature", "properties": { "num": 170, "name": "Chambre d'Agriculture de Wilaya El Tarf", "address": "Place 20 Aout 56", "tel": "\/", "fax": "038 30 01 82", "website": null, "lon": 8.316977, "lat": 36.767242, "acronym": "CAW El Tarf", "code_wil": 36, "to_check": false }, "geometry": { "type": "Point", "coordinates": [ 8.316977, 36.767242 ] } },
{ "type": "Feature", "properties": { "num": 171, "name": "Direction des Services Agricole EL Tarf", "address": "CITE bouhdjar EL TAREF", "tel": "038 60 16 14  ", "fax": "038 60 16 13", "website": null, "lon": 8.310108, "lat": 36.758056, "acronym": "DSA EL Tarf", "code_wil": 36, "to_check": false }, "geometry": { "type": "Point", "coordinates": [ 8.310108, 36.758056 ] } },
{ "type": "Feature", "properties": { "num": 172, "name": "Conservation des Forêts EL TARF", "address": "Nouvelle cité administrative route de zitouna - El Tarf", "tel": "046 55 11 19 ", "fax": "046 55 11 19", "website": null, "lon": 8.311596, "lat": 36.758118, "acronym": "CF EL TARF", "code_wil": 36, "to_check": false }, "geometry": { "type": "Point", "coordinates": [ 8.311596, 36.758118 ] } },
{ "type": "Feature", "properties": { "num": 173, "name": "Direction des Services Agricole Tindouf", "address": "RUE DE LA REVOLUTION AGRAIRE - CITE KSABI  - TINDOUF 37000", "tel": "049 92 20 29", "fax": "049 37 67 56", "website": null, "lon": -8.1352109962209429, "lat": 27.672706473746253, "acronym": "DSA Tindouf", "code_wil": 37, "to_check": false }, "geometry": { "type": "Point", "coordinates": [ -8.135210996220943, 27.672706473746253 ] } },
{ "type": "Feature", "properties": { "num": 174, "name": "Direction des Services Agricole Tissemssilt", "address": "Cité Ain El Bordj, TISSEMSILT", "tel": "046 47 79 70", "fax": "046 56 72 09", "website": null, "lon": 1.8170497, "lat": 35.6093465, "acronym": "DSATissemssilt", "code_wil": 38, "to_check": false }, "geometry": { "type": "Point", "coordinates": [ 1.8170497, 35.6093465 ] } },
{ "type": "Feature", "properties": { "num": 175, "name": "Conservation des Forêts TISSEMSILT", "address": "Route de Sidi Khelifa-Tissemsilt", "tel": "038 60 10 23", "fax": "038 60 18 73", "website": null, "lon": 1.820421, "lat": 35.611014, "acronym": "CF TISSEMSILT", "code_wil": 38, "to_check": false }, "geometry": { "type": "Point", "coordinates": [ 1.820421, 35.611014 ] } },
{ "type": "Feature", "properties": { "num": 176, "name": "Chambre d'Agriculture de Wilaya Tissemsilt", "address": "Rue 1 ER Novembre  Tissemsilt ", "tel": "046 47 69 18", "fax": "046 57 45 58", "website": null, "lon": 1.807483, "lat": 35.605127, "acronym": "CAW Tissemsilt", "code_wil": 38, "to_check": false }, "geometry": { "type": "Point", "coordinates": [ 1.807483, 35.605127 ] } },
{ "type": "Feature", "properties": { "num": 177, "name": "Commissariat au Développement de l'Agriculture des Régions Sahariennes", "address": " ", "tel": " ", "fax": " ", "website": null, "lon": 5.978102778, "lat": 33.54041111, "acronym": "CDARS  Antenne Djamaa", "code_wil": 39, "to_check": false }, "geometry": { "type": "Point", "coordinates": [ 5.978102778, 33.54041111 ] } },
{ "type": "Feature", "properties": { "num": 178, "name": "Direction des Services Agricole EL OUED", "address": "Rue Mohamed  KHEMISTI El OUED", "tel": "032 14 00 83", "fax": "03214 00 80\/82", "website": null, "lon": 6.858382, "lat": 33.362822, "acronym": "DSA EL OUED", "code_wil": 39, "to_check": false }, "geometry": { "type": "Point", "coordinates": [ 6.858382, 33.362822 ] } },
{ "type": "Feature", "properties": { "num": 179, "name": "Chambre d'Agriculture de Wilaya El Oued", "address": "Cité Taouba EL Asnam Près Palais de  Justice", "tel": "032 11 56 20", "fax": "032 11 56 36", "website": null, "lon": 6.855609, "lat": 33.362393, "acronym": "CAW El Oued", "code_wil": 39, "to_check": false }, "geometry": { "type": "Point", "coordinates": [ 6.855609, 33.362393 ] } },
{ "type": "Feature", "properties": { "num": 180, "name": "Direction des Services Agricole Khenchela", "address": "KHENCHELA 40000", "tel": "032 74 67 13", "fax": "032 74 69 91\/032 74 68 53", "website": null, "lon": 7.1336994, "lat": 35.2940393, "acronym": "DSA Khenchela", "code_wil": 40, "to_check": false }, "geometry": { "type": "Point", "coordinates": [ 7.1336994, 35.2940393 ] } },
{ "type": "Feature", "properties": { "num": 181, "name": "Conservation des Forêts Khenchela", "address": "Allées Abdellah Ben Ahmed Khellaf-Khenchela", "tel": "32746858", "fax": " 032 746 745", "website": null, "lon": 7.138362, "lat": 35.432671, "acronym": "CF Khenchela", "code_wil": 40, "to_check": false }, "geometry": { "type": "Point", "coordinates": [ 7.138362, 35.432671 ] } },
{ "type": "Feature", "properties": { "num": 182, "name": "Stations d’expérimentation du HCDS Khenchela - El Mahmal", "address": " ", "tel": " ", "fax": " ", "website": null, "lon": 7.254166667, "lat": 35.28638889, "acronym": "Station HCDS Khenchela - El Mahmal", "code_wil": 40, "to_check": false }, "geometry": { "type": "Point", "coordinates": [ 7.254166667, 35.28638889 ] } },
{ "type": "Feature", "properties": { "num": 183, "name": "Chambre d'Agriculture de Wilaya Souk Ahras", "address": "Cité 100 Bureaux Centre  Ville", "tel": "037 31 09 01 ", "fax": "037 71 00 13 \/ 037 71 00 15", "website": null, "lon": 7.953117, "lat": 36.286804, "acronym": "CAW Souk Ahras", "code_wil": 41, "to_check": false }, "geometry": { "type": "Point", "coordinates": [ 7.953117, 36.286804 ] } },
{ "type": "Feature", "properties": { "num": 184, "name": "Direction des Services Agricole Souk Ahras", "address": "CITE 80 BUREAUX CENTRE VILLE 41000", "tel": "037 75 40 90", "fax": "037 75 40 92", "website": null, "lon": 7.953117, "lat": 36.286804, "acronym": "DSA Souk Ahras", "code_wil": 41, "to_check": false }, "geometry": { "type": "Point", "coordinates": [ 7.953117, 36.286804 ] } },
{ "type": "Feature", "properties": { "num": 185, "name": "Conservation des Forêts SOUK AHRAS", "address": "CITE GUETTAR EL ZAIDI BAOULOU 01  SOUK AHRAS", "tel": "037 75 11 89 ", "fax": "037 75 11 85", "website": null, "lon": 7.93939, "lat": 36.291309, "acronym": "CF SOUK AHRAS", "code_wil": 41, "to_check": false }, "geometry": { "type": "Point", "coordinates": [ 7.93939, 36.291309 ] } },
{ "type": "Feature", "properties": { "num": 186, "name": "Chambre d'Agriculture de Wilaya Tipaza", "address": "RN 11, Aïn Tagourait, Daïra Bou Ismaïl, Tipaza", "tel": "024 40 92 92", "fax": "024 47 93 58", "website": null, "lon": 2.520825, "lat": 36.587854, "acronym": "CAW Tipaza", "code_wil": 42, "to_check": false }, "geometry": { "type": "Point", "coordinates": [ 2.520825, 36.587854 ] } },
{ "type": "Feature", "properties": { "num": 187, "name": "Conservation des Forêts TIPAZA", "address": "NOUVELLE CITE ADMINISTRATIVE   TIPAZA  ", "tel": "024 37 62 86", "fax": "024 37 62 85", "website": null, "lon": 2.45757, "lat": 36.589421, "acronym": "CF TIPAZA", "code_wil": 42, "to_check": false }, "geometry": { "type": "Point", "coordinates": [ 2.45757, 36.589421 ] } },
{ "type": "Feature", "properties": { "num": 188, "name": "Direction des Services Agricole Tipaza", "address": "CITE 50LOGTS 42038 NADOR", "tel": "024 47 69 33", "fax": "024 37 69 81", "website": null, "lon": 2.46049, "lat": 36.586377, "acronym": "DSA Tipaza", "code_wil": 42, "to_check": false }, "geometry": { "type": "Point", "coordinates": [ 2.46049, 36.586377 ] } },
{ "type": "Feature", "properties": { "num": 189, "name": "Direction des Services Agricole Mila ", "address": "RUE BEN KERBA LAKHEDAR 43000 MILA", "tel": "031 48 02 33\/34", "fax": "031 48 02 35", "website": null, "lon": 6.266537, "lat": 36.449476, "acronym": "DSA Mila ", "code_wil": 43, "to_check": false }, "geometry": { "type": "Point", "coordinates": [ 6.266537, 36.449476 ] } },
{ "type": "Feature", "properties": { "num": 190, "name": "Conservation des Forêts MILA", "address": "ROUTE DE LA GARE LOT 500 LOGTS MILA 43000", "tel": "031 47 39 44", "fax": "031 47 39 45", "website": null, "lon": 6.25939, "lat": 36.452659, "acronym": "CF MILA", "code_wil": 43, "to_check": false }, "geometry": { "type": "Point", "coordinates": [ 6.25939, 36.452659 ] } },
{ "type": "Feature", "properties": { "num": 191, "name": "Chambre d'Agriculture de Wilaya Mila", "address": "Route de  Zeghia Zone  d'Activité", "tel": "031 47 32 20 \/ 031 47 32 21", "fax": "031 47 32 22", "website": null, "lon": 6.25994, "lat": 36.45203, "acronym": "CAW Mila", "code_wil": 43, "to_check": false }, "geometry": { "type": "Point", "coordinates": [ 6.25994, 36.45203 ] } },
{ "type": "Feature", "properties": { "num": 192, "name": "Direction des Services Agricole Ain Defla", "address": "BOULEVARD 19 MARS  AIN DEFLA", "tel": "027 50 45 32\/027 50 45 33\/39", "fax": "027 50 45 34", "website": null, "lon": 1.956543, "lat": 36.26068, "acronym": "DSA Ain Defla", "code_wil": 44, "to_check": false }, "geometry": { "type": "Point", "coordinates": [ 1.956543, 36.26068 ] } },
{ "type": "Feature", "properties": { "num": 193, "name": "Chambre d'Agriculture de Wilaya Aïn Defla", "address": "Cité 160 Logts Menad Hadj Kaddour N65", "tel": "027 50 30 67", "fax": "027 50 30 76", "website": null, "lon": 1.957211, "lat": 36.256265, "acronym": "CAW Aïn Defla", "code_wil": 44, "to_check": false }, "geometry": { "type": "Point", "coordinates": [ 1.957211, 36.256265 ] } },
{ "type": "Feature", "properties": { "num": 194, "name": "Conservation des Forêts AIN DEFLA", "address": " RUE 18 FEVRIER   AIN DEFLA", "tel": "027 50 53 38", "fax": "028 50 53 39", "website": null, "lon": 1.950493, "lat": 36.260917, "acronym": "CF AIN DEFLA", "code_wil": 44, "to_check": false }, "geometry": { "type": "Point", "coordinates": [ 1.950493, 36.260917 ] } },
{ "type": "Feature", "properties": { "num": 195, "name": "Direction des Services Agricole Naâma ", "address": "CITE 164 LOGTS 45000 NAAMA", "tel": "049 59 52 94", "fax": "049 59 53 27", "website": null, "lon": -0.311129, "lat": 33.266959, "acronym": "DSA Naâma ", "code_wil": 45, "to_check": false }, "geometry": { "type": "Point", "coordinates": [ -0.311129, 33.266959 ] } },
{ "type": "Feature", "properties": { "num": 196, "name": "Chambre d'Agriculture de Wilaya Naâma", "address": "ZI Mecheria BP 270 45100 Mecheria Algérie.", "tel": "049 78 75 33", "fax": "049 58 74 08", "website": null, "lon": -0.276014, "lat": 33.544059, "acronym": "CAW Naâma", "code_wil": 45, "to_check": false }, "geometry": { "type": "Point", "coordinates": [ -0.276014, 33.544059 ] } },
{ "type": "Feature", "properties": { "num": 197, "name": "Haut Commissariat au Développement de la Steppe Centre régional Naama", "address": " ", "tel": " ", "fax": " ", "website": null, "lon": -0.3124419444, "lat": 33.26851, "acronym": "HCDS CR Naama", "code_wil": 45, "to_check": false }, "geometry": { "type": "Point", "coordinates": [ -0.3124419444, 33.26851 ] } },
{ "type": "Feature", "properties": { "num": 198, "name": "Conservation des Forêts NAAMA", "address": "NOUVEAU SIEGE A COTE DE L'HOPITAL BP 65 NAAMA ", "tel": "049 59 34 86 \/ 049 59 33 69 ", "fax": "049 59 33 10", "website": null, "lon": -0.305024, "lat": 33.2765587, "acronym": "CF NAAMA", "code_wil": 45, "to_check": false }, "geometry": { "type": "Point", "coordinates": [ -0.305024, 33.2765587 ] } },
{ "type": "Feature", "properties": { "num": 199, "name": "Direction des Services Agricole Ain témouchent", "address": "HAI ZEITOUN 46000 AIN TEMOUCHENT", "tel": "043 77 97 96 \/043 77 98 01", "fax": "043 77 97 99", "website": null, "lon": -1.146897, "lat": 35.30731, "acronym": "DSA Ain témouchent", "code_wil": 46, "to_check": false }, "geometry": { "type": "Point", "coordinates": [ -1.146897, 35.30731 ] } },
{ "type": "Feature", "properties": { "num": 200, "name": "Chambre d'Agriculture de Wilaya Ain Témouchent", "address": "Cité Akid  Othmane CASTORS Ain Témouchent ", "tel": "043 79 68 00", "fax": "043 79 18 52", "website": null, "lon": -1.140093, "lat": 35.303438, "acronym": "CAW Ain Témouchent", "code_wil": 46, "to_check": false }, "geometry": { "type": "Point", "coordinates": [ -1.140093, 35.303438 ] } },
{ "type": "Feature", "properties": { "num": 201, "name": "Institut deTechnologie Moyen Agricole Spécialisé Ain Temouchent", "address": null, "tel": "043 79 83 66\/043) 79 83 68", "fax": null, "website": null, "lon": -1.116214, "lat": 35.283269, "acronym": "ITMAS Ain Temouchent", "code_wil": 46, "to_check": false }, "geometry": { "type": "Point", "coordinates": [ -1.116214, 35.283269 ] } },
{ "type": "Feature", "properties": { "num": 202, "name": "Chambre d'Agriculture de Wilaya Ghardaia", "address": "Bp 117 sidi abaz. Ghardaia Algerie ", "tel": "029 25 50 59", "fax": "029 25 55 99", "website": null, "lon": 3.698006, "lat": 32.486291, "acronym": "CAW Ghardaia", "code_wil": 47, "to_check": false }, "geometry": { "type": "Point", "coordinates": [ 3.698006, 32.486291 ] } },
{ "type": "Feature", "properties": { "num": 203, "name": "Direction des Services Agricole Ghardaia", "address": "40 RUE EMIR ABDELKADER", "tel": "029 28 50 99", "fax": "029 29 54 11", "website": null, "lon": 3.675671, "lat": 32.486046, "acronym": "DSA Ghardaia", "code_wil": 47, "to_check": false }, "geometry": { "type": "Point", "coordinates": [ 3.675671, 32.486046 ] } },
{ "type": "Feature", "properties": { "num": 204, "name": "Direction des Services Agricole Rélizane", "address": "Cité des 24 Logts Dallas Tob Relizane", "tel": "046 71 63 88", "fax": "046 71 63 79", "website": null, "lon": 0.561703, "lat": 35.73353, "acronym": "DSA Rélizane", "code_wil": 48, "to_check": false }, "geometry": { "type": "Point", "coordinates": [ 0.561703, 35.73353 ] } },
{ "type": "Feature", "properties": { "num": 205, "name": "Conservation des Forêts RELIZANE", "address": "CITE EL OUAFI ROUTE DE L'UNIVERSITE RELIZANE 48000", "tel": "046 72 50 14 \/046 72 50 15 ", "fax": "046 72 50 16", "website": null, "lon": 0.544492, "lat": 35.740021, "acronym": "CF RELIZANE", "code_wil": 48, "to_check": false }, "geometry": { "type": "Point", "coordinates": [ 0.544492, 35.740021 ] } },
{ "type": "Feature", "properties": { "num": 206, "name": "Chambre d'Agriculture de Wilaya Relizane", "address": "07 Cité Feghoul  Allem", "tel": "046 76 60 03", "fax": "046 76 60 04", "website": null, "lon": 0.546984, "lat": 35.746907, "acronym": "CAW Relizane", "code_wil": 48, "to_check": false }, "geometry": { "type": "Point", "coordinates": [ 0.546984, 35.746907 ] } }
]
}
