[
    {
        "id": 1,
        "name": "Ouled Hamla SPA Tikouyavic",
        "address": "CITE GOUADJLIA RABAH PROJET 160 LOG BT 09",
        "phone_number": "0798 22 14 13",
        "category": "pv",
        "organization": "AGROLOG",
        "latitude": "36.027295",
        "longitude": "6.56382",
        "commune_name": "AIN MLILA",
        "wilaya_name": "OUM EL BOUAGHI",
        "type_name": "Viandes",
        "type_id": 1
    },
    {
        "id": 2,
        "name": "Point de vente UPD Ain Kercha SPA Thagavic",
        "address": "cite Mohamed m'gena nord ouest  Commune Ain Kercha",
        "phone_number": "0561 65 30 18",
        "category": "pv",
        "organization": "AGROLOG",
        "latitude": "35.928594",
        "longitude": "6.684329",
        "commune_name": "AIN KERCHA",
        "wilaya_name": "OUM EL BOUAGHI",
        "type_name": "Viandes",
        "type_id": 1
    },
    {
        "id": 3,
        "name": "Point de vente kaous SPA TAHAGAVIC",
        "address": "cité stade Commune de Kaous",
        "phone_number": "0661 33 60 29",
        "category": "pv",
        "organization": "AGROLOG",
        "latitude": "36.3774255",
        "longitude": "5.814824",
        "commune_name": "KAOUS",
        "wilaya_name": "JIJEL",
        "type_name": "Viandes",
        "type_id": 1
    },
    {
        "id": 4,
        "name": "POINT DE VENTE DAWADJEN SITIFIS",
        "address": "RUE DES ABATTOIRS CITE LAID DHAOUI Sétif",
        "phone_number": "0661 31 60 90",
        "category": "pv",
        "organization": "AGROLOG",
        "latitude": "36.17096",
        "longitude": "5.40674",
        "commune_name": "SETIF",
        "wilaya_name": "SETIF",
        "type_name": "Viandes",
        "type_id": 1
    },
    {
        "id": 5,
        "name": "POINT DE VENTE DAWADJEN SITIFIS",
        "address": "CITE BIR EN NSA AADL 3000 LOGTS LOCAL Num 124125",
        "phone_number": "0770 80 45 32 ",
        "category": "pv",
        "organization": "AGROLOG",
        "latitude": "36.17687",
        "longitude": "5.47641",
        "commune_name": "SETIF",
        "wilaya_name": "SETIF",
        "type_name": "Viandes",
        "type_id": 1
    },
    {
        "id": 6,
        "name": "POINT DE VENTE DAWADJEN SITIFIS",
        "address": "ZI KECHIDA COMMUNE DE BATNA",
        "phone_number": "0770 80 44 97",
        "category": "pv",
        "organization": "AGROLOG",
        "latitude": "35.56802",
        "longitude": "6.15798",
        "commune_name": "BATNA",
        "wilaya_name": "BATNA",
        "type_name": "Viandes",
        "type_id": 1
    },
    {
        "id": 7,
        "name": "POINT DE VENTE DAWADJEN SITIFIS",
        "address": "CITE BOUZZOURANE AADL 1000 LOGTS LOCAL Num 05/A/02/C/02",
        "phone_number": "0663 13 45 80",
        "category": "pv",
        "organization": "AGROLOG",
        "latitude": "35.56009",
        "longitude": "6.19289",
        "commune_name": "BATNA",
        "wilaya_name": "BATNA",
        "type_name": "Viandes",
        "type_id": 1
    },
    {
        "id": 8,
        "name": "POINT DE VENTE DAWADJEN SITIFIS",
        "address": "RUE EMIR ABDELKADER COMMUNE ILLIZI",
        "phone_number": "0793 77 10 00",
        "category": "pv",
        "organization": "AGROLOG",
        "latitude": "26.49818",
        "longitude": "8.47531",
        "commune_name": "ILLIZI",
        "wilaya_name": "ILLIZI",
        "type_name": "Viandes",
        "type_id": 1
    },
    {
        "id": 9,
        "name": "POINT DE VENTE DAWADJEN SITIFIS",
        "address": "CITE 1ER NOVEMEBRE Num  14 COMMUNE TADJENANT",
        "phone_number": "0778 74 83 26",
        "category": "pv",
        "organization": "AGROLOG",
        "latitude": "36.12143",
        "longitude": "5.97721",
        "commune_name": "TADJENANET",
        "wilaya_name": "MILA",
        "type_name": "Viandes",
        "type_id": 1
    },
    {
        "id": 10,
        "name": "POINT DE VENTE DAWADJEN SITIFIS",
        "address": "CENTRE Num  03 ZANA EL BEIDA",
        "phone_number": "0770 80 44 90",
        "category": "pv",
        "organization": "AGROLOG",
        "latitude": "35.81206",
        "longitude": "6.12406",
        "commune_name": "ZANET BEIDA",
        "wilaya_name": "BATNA",
        "type_name": "Viandes",
        "type_id": 1
    },
    {
        "id": 11,
        "name": "POINT DE VENTE DAWADJEN SITIFIS",
        "address": "COMMUNE DE SERIANA LOCAL APC SERIANA",
        "phone_number": "0799 92 59 73",
        "category": "pv",
        "organization": "AGROLOG",
        "latitude": "35.690659",
        "longitude": "6.188254",
        "commune_name": "SERIANA",
        "wilaya_name": "BATNA",
        "type_name": "Viandes",
        "type_id": 1
    },
    {
        "id": 12,
        "name": "PV 02 UPC BENBOULAID",
        "address": "VSA Mostagha benboulaid Ouad Seguene",
        "phone_number": "0676 64 44 02",
        "category": "pv",
        "organization": "AGROLOG",
        "latitude": "36.222812",
        "longitude": "6.517688",
        "commune_name": "AIN SMARA",
        "wilaya_name": "CONSTANTINE",
        "type_name": "Viandes",
        "type_id": 1
    },
    {
        "id": 13,
        "name": "PV 03 EL HADJAR",
        "address": "BD colonel Amirouche el Hadjar",
        "phone_number": "0666 27 71 53",
        "category": "pv",
        "organization": "AGROLOG",
        "latitude": "36.80726",
        "longitude": "7.738762",
        "commune_name": "EL HADJAR",
        "wilaya_name": "ANNABA",
        "type_name": "Viandes",
        "type_id": 1
    },
    {
        "id": 14,
        "name": "PV 01 ABT SKIKDA",
        "address": "Zone d'activité Hamadi Krouma",
        "phone_number": "0660 36 31 92",
        "category": "pv",
        "organization": "AGROLOG",
        "latitude": "36.846263",
        "longitude": "6.929475",
        "commune_name": "HAMADI KROUMA",
        "wilaya_name": "SKIKDA",
        "type_name": "Viandes",
        "type_id": 1
    },
    {
        "id": 15,
        "name": "PV 01 ABT ECHATT",
        "address": "ROUTE DE L AIROPORT ECHATT EL TAREF",
        "phone_number": "0655 27 71 53",
        "category": "pv",
        "organization": "AGROLOG",
        "latitude": "36.808441",
        "longitude": "7.820576",
        "commune_name": "BENI AMAR_ECHATT",
        "wilaya_name": "EL TARF",
        "type_name": "Viandes",
        "type_id": 1
    },
    {
        "id": 16,
        "name": "PV 02 UPC EL KARMA",
        "address": "UPC EL KARMA EL HADJAR ROUTE DE AIN BARDA",
        "phone_number": "0655 27 71 53",
        "category": "pv",
        "organization": "AGROLOG",
        "latitude": "36.742859",
        "longitude": "7.663806",
        "commune_name": "EL HADJAR",
        "wilaya_name": "ANNABA",
        "type_name": "Viandes",
        "type_id": 1
    },
    {
        "id": 17,
        "name": "PV 03 TINE KHATMA",
        "address": "MARCHE COUVERT TINE KHATMA DJANET",
        "phone_number": "0697 88 34 08 ",
        "category": "pv",
        "organization": "AGROLOG",
        "latitude": "24.552975",
        "longitude": "9.487394",
        "commune_name": "DJANET",
        "wilaya_name": "ILLIZI",
        "type_name": "Viandes",
        "type_id": 1
    },
    {
        "id": 18,
        "name": "PV 04 DJANET",
        "address": "ROUTE DE LA GAR TADJENANET",
        "phone_number": "0669 24 80 46",
        "category": "pv",
        "organization": "AGROLOG",
        "latitude": "36.107077",
        "longitude": "5.974846",
        "commune_name": "TADJENANET",
        "wilaya_name": "MILA",
        "type_name": "Viandes",
        "type_id": 1
    },
    {
        "id": 66,
        "name": "BRAKNI",
        "address": "CITE BRAKNI BLIDA",
        "phone_number": "05 61 61 45 76",
        "category": "pv",
        "organization": "AGROLOG",
        "latitude": "36.4725631",
        "longitude": "2.828075",
        "commune_name": "BLIDA",
        "wilaya_name": "BLIDA",
        "type_name": "Viandes",
        "type_id": 1
    },
    {
        "id": 67,
        "name": "OUELD YAICH",
        "address": "CITE 1240 OULED YAICH BLIDA",
        "phone_number": "05 57 86 59 76",
        "category": "pv",
        "organization": "AGROLOG",
        "latitude": "36.4972258",
        "longitude": "2.8669099",
        "commune_name": "CHEBLI",
        "wilaya_name": "BLIDA",
        "type_name": "Viandes",
        "type_id": 1
    },
    {
        "id": 68,
        "name": "EL BIAR",
        "address": "157 RUE ALI KHOUDJA EL BIAR ALGER",
        "phone_number": "05 61 99 65 45",
        "category": "pv",
        "organization": "AGROLOG",
        "latitude": "36.768863",
        "longitude": "3.019841",
        "commune_name": "ALGER CENTRE",
        "wilaya_name": "ALGER",
        "type_name": "Viandes",
        "type_id": 1
    },
    {
        "id": 69,
        "name": "BAB EZZOUAR",
        "address": "BAB EZZOUR",
        "phone_number": "06 61 53 04 41",
        "category": "pv",
        "organization": "AGROLOG",
        "latitude": "36.7163849",
        "longitude": "3.1923785",
        "commune_name": "SIDI MHAMED",
        "wilaya_name": "ALGER",
        "type_name": "Viandes",
        "type_id": 1
    },
    {
        "id": 70,
        "name": "HASSIBA",
        "address": "45 RUE HASSUBA BEN BOUALI",
        "phone_number": "05 61 10 30 64",
        "category": "pv",
        "organization": "AGROLOG",
        "latitude": "36.7642136",
        "longitude": "3.056211",
        "commune_name": "EL MADANIA",
        "wilaya_name": "ALGER",
        "type_name": "Viandes",
        "type_id": 1
    },
    {
        "id": 2045,
        "name": "Ferme Ibrahim",
        "address": "Sidi Rached",
        "phone_number": null,
        "category": "pv",
        "organization": "CNA",
        "latitude": "36.56868738",
        "longitude": "2.562233082",
        "commune_name": "SIDI RACHED",
        "wilaya_name": "TIPAZA",
        "type_name": "Produits laitiers",
        "type_id": 3
    },
    {
        "id": 2046,
        "name": "TIPAZA",
        "address": "Ex marché Rabta à proximité de la direction de la formation professionnelle",
        "phone_number": null,
        "category": "pv",
        "organization": "CNA",
        "latitude": "36.5900321",
        "longitude": "2.4585078",
        "commune_name": "TIPAZA",
        "wilaya_name": "TIPAZA",
        "type_name": "Fruits et légumes",
        "type_id": 2
    },
    {
        "id": 2047,
        "name": "TIPAZA",
        "address": "Etage sous terrain ex centre commercial Djawhara",
        "phone_number": null,
        "category": "pv",
        "organization": "CNA",
        "latitude": "36.5914882",
        "longitude": "2.4463527",
        "commune_name": "TIPAZA",
        "wilaya_name": "TIPAZA",
        "type_name": "Fruits et légumes",
        "type_id": 2
    },
    {
        "id": 2048,
        "name": "CHERCHEL",
        "address": "Zone industrielle oued Belaa",
        "phone_number": null,
        "category": "pv",
        "organization": "CNA",
        "latitude": "36.5976582",
        "longitude": "2.2457459",
        "commune_name": "CHERCHEL",
        "wilaya_name": "TIPAZA",
        "type_name": "Fruits et légumes",
        "type_id": 2
    },
    {
        "id": 2049,
        "name": "CHERCHEL",
        "address": "Cité 450 logements region ouest",
        "phone_number": null,
        "category": "pv",
        "organization": "CNA",
        "latitude": "36.59597",
        "longitude": "2.164108",
        "commune_name": "CHERCHEL",
        "wilaya_name": "TIPAZA",
        "type_name": "Fruits et légumes",
        "type_id": 2
    },
    {
        "id": 2050,
        "name": "CHERCHEL",
        "address": "Route nationale ferme boumaza",
        "phone_number": null,
        "category": "pv",
        "organization": "CNA",
        "latitude": "36.5767494",
        "longitude": "2.286144",
        "commune_name": "CHERCHEL",
        "wilaya_name": "TIPAZA",
        "type_name": "Fruits et légumes",
        "type_id": 2
    },
    {
        "id": 2051,
        "name": "Hadjret Ennous",
        "address": "Entrée ouest de la ville",
        "phone_number": null,
        "category": "pv",
        "organization": "CNA",
        "latitude": "36.5733999",
        "longitude": "2.0497002",
        "commune_name": "HADJERAT ENNOUS",
        "wilaya_name": "TIPAZA",
        "type_name": "Fruits et légumes",
        "type_id": 2
    },
    {
        "id": 2052,
        "name": "Hadjret Ennous",
        "address": "Place du marché hebdomadaire à proximité du stade communal",
        "phone_number": null,
        "category": "pv",
        "organization": "CNA",
        "latitude": "36.5751224",
        "longitude": "2.0549479",
        "commune_name": "HADJERAT ENNOUS",
        "wilaya_name": "TIPAZA",
        "type_name": "Fruits et légumes",
        "type_id": 2
    },
    {
        "id": 2053,
        "name": "MENACEUR",
        "address": "Ex souk el fellah",
        "phone_number": null,
        "category": "pv",
        "organization": "CNA",
        "latitude": "36.492378",
        "longitude": "2.242126",
        "commune_name": "MENACEUR",
        "wilaya_name": "TIPAZA",
        "type_name": "Fruits et légumes",
        "type_id": 2
    },
    {
        "id": 2054,
        "name": "NADOR",
        "address": "Place coté ouest",
        "phone_number": null,
        "category": "pv",
        "organization": "CNA",
        "latitude": "36.568337",
        "longitude": "2.3888426",
        "commune_name": "NADOR",
        "wilaya_name": "TIPAZA",
        "type_name": "Fruits et légumes",
        "type_id": 2
    },
    {
        "id": 2055,
        "name": "Gouraya ",
        "address": "Quartier ",
        "phone_number": null,
        "category": "pv",
        "organization": "CNA",
        "latitude": "36.568933",
        "longitude": "1.891308",
        "commune_name": "GOURAYA",
        "wilaya_name": "TIPAZA",
        "type_name": "Fruits et légumes",
        "type_id": 2
    },
    {
        "id": 2056,
        "name": "Gouraya ",
        "address": "à proximité de la mosquée",
        "phone_number": null,
        "category": "pv",
        "organization": "CNA",
        "latitude": "36.569185",
        "longitude": "1.892661",
        "commune_name": "GOURAYA",
        "wilaya_name": "TIPAZA",
        "type_name": "Fruits et légumes",
        "type_id": 2
    },
    {
        "id": 2057,
        "name": "Gouraya ",
        "address": "à proximité de la route saadouna",
        "phone_number": null,
        "category": "pv",
        "organization": "CNA",
        "latitude": "36.567215",
        "longitude": "1.894452",
        "commune_name": "GOURAYA",
        "wilaya_name": "TIPAZA",
        "type_name": "Fruits et légumes",
        "type_id": 2
    },
    {
        "id": 2058,
        "name": "Gouraya ",
        "address": "à proximité du marché couvert",
        "phone_number": null,
        "category": "pv",
        "organization": "CNA",
        "latitude": "36.568183",
        "longitude": "1.900355",
        "commune_name": "GOURAYA",
        "wilaya_name": "TIPAZA",
        "type_name": "Fruits et légumes",
        "type_id": 2
    },
    {
        "id": 2059,
        "name": "Gouraya ",
        "address": "marché couvert",
        "phone_number": null,
        "category": "pv",
        "organization": "CNA",
        "latitude": "36.568314",
        "longitude": "1.900669",
        "commune_name": "GOURAYA",
        "wilaya_name": "TIPAZA",
        "type_name": "Fruits et légumes",
        "type_id": 2
    },
    {
        "id": 117,
        "name": "CALMANT",
        "address": "ROUTE DES DUNES BP 77 CALMANT CHERAGA ",
        "phone_number": "0665 525 727",
        "category": "pv",
        "organization": "AGROLOG",
        "latitude": "36.7579770626045",
        "longitude": "2.9270245224883",
        "commune_name": "CHERAGA",
        "wilaya_name": "ALGER",
        "type_name": "Viandes",
        "type_id": 1
    },
    {
        "id": 118,
        "name": "H-DEY ",
        "address": "06 RUE IDRISI ARKOUB HUSSEIN DEY ALGER ",
        "phone_number": "0556 757 084",
        "category": "pv",
        "organization": "AGROLOG",
        "latitude": "36.7416667",
        "longitude": "3.0922222222222224",
        "commune_name": "HUSSEIN DEY",
        "wilaya_name": "ALGER",
        "type_name": "Viandes",
        "type_id": 1
    },
    {
        "id": 119,
        "name": "REGHAIA",
        "address": "HAI EL OUANCHARISSE EX DNC MARCHE COUVER REGHAIA ",
        "phone_number": "0561 206 023",
        "category": "pv",
        "organization": "AGROLOG",
        "latitude": "36.7497222",
        "longitude": "3.347777777777778",
        "commune_name": "REGHAIA",
        "wilaya_name": "ALGER",
        "type_name": "Viandes",
        "type_id": 1
    },
    {
        "id": 120,
        "name": "DOMAINE TOURI HMIDA ",
        "address": "DOMAINE TOURI HMIDA ROUTE DE CHERAGA AIN BENIAN",
        "phone_number": "0559 956 768",
        "category": "pv",
        "organization": "AGROLOG",
        "latitude": "36.7986111",
        "longitude": "2.9233333333333333",
        "commune_name": "AIN BENIAN",
        "wilaya_name": "ALGER",
        "type_name": "Viandes",
        "type_id": 1
    },
    {
        "id": 121,
        "name": "OUED DJER ",
        "address": "ROUTE NATIONAL Num 04 OUED DJER ",
        "phone_number": "0782 466 656",
        "category": "pv",
        "organization": "AGROLOG",
        "latitude": "36.4197222",
        "longitude": "2.3963888888888887",
        "commune_name": "OUEDDJER",
        "wilaya_name": "BLIDA",
        "type_name": "Viandes",
        "type_id": 1
    },
    {
        "id": 122,
        "name": "BENZIOUECH",
        "address": "BENZIOUECHE ",
        "phone_number": "0657 109 714",
        "category": "pv",
        "organization": "AGROLOG",
        "latitude": "36.2694444",
        "longitude": "2.7591666666666668",
        "commune_name": "MEDEA",
        "wilaya_name": "MEDEA",
        "type_name": "Viandes",
        "type_id": 1
    },
    {
        "id": 123,
        "name": "CENTRE VILLE ",
        "address": "Berrouaghia à l'intérieur des boutiques en face du centre culturel",
        "phone_number": "0778 75 96 06",
        "category": "pv",
        "organization": "AGROLOG",
        "latitude": "36.1308333",
        "longitude": "2.938888888888889",
        "commune_name": "BERROUAGHIA",
        "wilaya_name": "MEDEA",
        "type_name": "Viandes",
        "type_id": 1
    },
    {
        "id": 124,
        "name": "nouveau marché GROS",
        "address": "EN FACE DE LA BANQUE CPA BOUIRA",
        "phone_number": "0558 27 47 81",
        "category": "pv",
        "organization": "AGROLOG",
        "latitude": "36.3741667",
        "longitude": "3.868055555555556",
        "commune_name": "BOUIRA",
        "wilaya_name": "BOUIRA",
        "type_name": "Viandes",
        "type_id": 1
    },
    {
        "id": 125,
        "name": "marché couvert oued edhous",
        "address": "ain graouche en face polyclinique etatique bouira",
        "phone_number": "0791 92 61 31",
        "category": "pv",
        "organization": "AGROLOG",
        "latitude": "36.3691667",
        "longitude": "3.9008333333333334",
        "commune_name": "BOUIRA",
        "wilaya_name": "BOUIRA",
        "type_name": "Viandes",
        "type_id": 1
    },
    {
        "id": 126,
        "name": "ain bessam centre ",
        "address": "ain bessam centre",
        "phone_number": "0656 67 59 46",
        "category": "pv",
        "organization": "AGROLOG",
        "latitude": "36.2911111",
        "longitude": "3.673611111111111",
        "commune_name": "AIN BESSAM",
        "wilaya_name": "BOUIRA",
        "type_name": "Viandes",
        "type_id": 1
    },
    {
        "id": 127,
        "name": "el esnam",
        "address": "en face mosqué el esnam",
        "phone_number": "0699 19 95 78",
        "category": "pv",
        "organization": "AGROLOG",
        "latitude": "36.2533333",
        "longitude": "4.035",
        "commune_name": "EL ASNAM",
        "wilaya_name": "BOUIRA",
        "type_name": "Viandes",
        "type_id": 1
    },
    {
        "id": 128,
        "name": "abattoir taboukert",
        "address": "en face usine de transformation du bois",
        "phone_number": "0555 88 24 91",
        "category": "pv",
        "organization": "AGROLOG",
        "latitude": "36.7355556",
        "longitude": "3.9744444444444444",
        "commune_name": "DRAA BEN KHEDA",
        "wilaya_name": "TIZI OUZOU",
        "type_name": "Viandes",
        "type_id": 1
    },
    {
        "id": 129,
        "name": "unité DBK",
        "address": "a proximité du GPLAIT DE DBK",
        "phone_number": "0559 33 78 69",
        "category": "pv",
        "organization": "AGROLOG",
        "latitude": "36.7338889",
        "longitude": "3.961388888888889",
        "commune_name": "DRAA BEN KHEDA",
        "wilaya_name": "TIZI OUZOU",
        "type_name": "Viandes",
        "type_id": 1
    },
    {
        "id": 130,
        "name": "centre ville dbk",
        "address": "a proximité de marché des légume de DBK",
        "phone_number": "0553 48 66 18",
        "category": "pv",
        "organization": "AGROLOG",
        "latitude": "36.7363889",
        "longitude": "3.9722222222222223",
        "commune_name": "DRAA BEN KHEDA",
        "wilaya_name": "TIZI OUZOU",
        "type_name": "Viandes",
        "type_id": 1
    },
    {
        "id": 131,
        "name": "POINT de vente abattoir zahana",
        "address": "zehanna Mascara",
        "phone_number": null,
        "category": "pv",
        "organization": "AGROLOG",
        "latitude": "35.50517306131886",
        "longitude": "-0.4025341442487081",
        "commune_name": "ZEHANA",
        "wilaya_name": "MASCARA",
        "type_name": "Viandes",
        "type_id": 1
    },
    {
        "id": 132,
        "name": "point de vente ville zahana",
        "address": "Boulevard Brahimi Abdelkader Zahanna Mascara",
        "phone_number": null,
        "category": "pv",
        "organization": "AGROLOG",
        "latitude": "35.518291358682085",
        "longitude": "-0.41175438842479967",
        "commune_name": "ZEHANA",
        "wilaya_name": "MASCARA",
        "type_name": "Viandes",
        "type_id": 1
    },
    {
        "id": 133,
        "name": "point de vente oued tlilat en cours",
        "address": "oued Tlilet Oran",
        "phone_number": null,
        "category": "pv",
        "organization": "AGROLOG",
        "latitude": "35.55523166489323",
        "longitude": "-0.4364103595887186",
        "commune_name": "OUED TLELAT",
        "wilaya_name": "ORAN",
        "type_name": "Viandes",
        "type_id": 1
    },
    {
        "id": 134,
        "name": "PV plateau oran",
        "address": "3rue pierre smard plateau oran",
        "phone_number": null,
        "category": "pv",
        "organization": "AGROLOG",
        "latitude": "35.698940001154824",
        "longitude": "-0.6407714595855698",
        "commune_name": "ORAN",
        "wilaya_name": "ORAN",
        "type_name": "Viandes",
        "type_id": 1
    },
    {
        "id": 135,
        "name": "PV hassi bounif",
        "address": " Hassi Bounif oran",
        "phone_number": null,
        "category": "pv",
        "organization": "AGROLOG",
        "latitude": "35.712849129991646",
        "longitude": "-0.49068105260001926",
        "commune_name": "HASSI BOUNIF",
        "wilaya_name": "ORAN",
        "type_name": "Viandes",
        "type_id": 1
    },
    {
        "id": 136,
        "name": "Point vente SIG",
        "address": "COMMUNE EL Hachem mascara",
        "phone_number": null,
        "category": "pv",
        "organization": "AGROLOG",
        "latitude": "35.530680122284636",
        "longitude": "-0.19467743075399233",
        "commune_name": "SIG",
        "wilaya_name": "MASCARA",
        "type_name": "Viandes",
        "type_id": 1
    },
    {
        "id": 137,
        "name": "siège EPE Spa SARBO",
        "address": "08 avenue Abderrahman Mira",
        "phone_number": "0550 42 07 47  / 0660 83 99 45",
        "category": "pv",
        "organization": "GVAPRO",
        "latitude": "36.79231584217548",
        "longitude": "3.0563316127021447",
        "commune_name": "BAB EL OUED",
        "wilaya_name": "ALGER",
        "type_name": "Fruits et légumes",
        "type_id": 2
    },
    {
        "id": 138,
        "name": "Siège ONILEV",
        "address": "AIN BENIAN ONILEV",
        "phone_number": "0661 93 24 21",
        "category": "pv",
        "organization": "GVAPRO",
        "latitude": "36.79885362623037",
        "longitude": "2.923518740280755",
        "commune_name": "AIN BENIAN",
        "wilaya_name": "ALGER",
        "type_name": "Fruits et légumes",
        "type_id": 2
    },
    {
        "id": 139,
        "name": "Foire d'Alger",
        "address": "Foire d'Alger",
        "phone_number": "0661 93 24 21",
        "category": "pv",
        "organization": "GVAPRO",
        "latitude": "36.73387237528331",
        "longitude": "3.1542756407035424",
        "commune_name": "MOHAMMADIA",
        "wilaya_name": "ALGER",
        "type_name": "Fruits et légumes",
        "type_id": 2
    },
    {
        "id": 140,
        "name": "Siège EPE Spa SOA",
        "address": "Avenue des Martyres de la Révolution",
        "phone_number": "0667 87 32 62",
        "category": "pv",
        "organization": "GVAPRO",
        "latitude": "35.66352891519191",
        "longitude": "-0.6221757907548573",
        "commune_name": "ES SENIA",
        "wilaya_name": "ORAN",
        "type_name": "Fruits et légumes",
        "type_id": 2
    },
    {
        "id": 2060,
        "name": "Gouraya ",
        "address": "Parling quartier oued sebt",
        "phone_number": null,
        "category": "pv",
        "organization": "CNA",
        "latitude": "36.564628",
        "longitude": "1.966848",
        "commune_name": "GOURAYA",
        "wilaya_name": "TIPAZA",
        "type_name": "Fruits et légumes",
        "type_id": 2
    },
    {
        "id": 2061,
        "name": "Messelmoun ",
        "address": "route nationale Num 11 à proximité de la place",
        "phone_number": null,
        "category": "pv",
        "organization": "CNA",
        "latitude": "36.564799",
        "longitude": "2.000565",
        "commune_name": "MESSELMOUN",
        "wilaya_name": "TIPAZA",
        "type_name": "Fruits et légumes",
        "type_id": 2
    },
    {
        "id": 2062,
        "name": "Messelmoun ",
        "address": "Route nationale Num 11 cité des 200 logements",
        "phone_number": null,
        "category": "pv",
        "organization": "CNA",
        "latitude": "36.565108",
        "longitude": "1.992555",
        "commune_name": "MESSELMOUN",
        "wilaya_name": "TIPAZA",
        "type_name": "Fruits et légumes",
        "type_id": 2
    },
    {
        "id": 2063,
        "name": "DAMOUS",
        "address": "route de Hamadia",
        "phone_number": null,
        "category": "pv",
        "organization": "CNA",
        "latitude": "36.547928",
        "longitude": "1.70398",
        "commune_name": "DAMOUS",
        "wilaya_name": "TIPAZA",
        "type_name": "Fruits et légumes",
        "type_id": 2
    },
    {
        "id": 2064,
        "name": "LARHAT",
        "address": "à proximité du bureau de poste",
        "phone_number": null,
        "category": "pv",
        "organization": "CNA",
        "latitude": "36.557425",
        "longitude": "1.805912",
        "commune_name": "LARHAT",
        "wilaya_name": "TIPAZA",
        "type_name": "Fruits et légumes",
        "type_id": 2
    },
    {
        "id": 2065,
        "name": "HADJOUT",
        "address": "Rue fetaka Ali",
        "phone_number": null,
        "category": "pv",
        "organization": "CNA",
        "latitude": "36.51252",
        "longitude": "2.4171",
        "commune_name": "HADJOUT",
        "wilaya_name": "TIPAZA",
        "type_name": "Fruits et légumes",
        "type_id": 2
    },
    {
        "id": 2066,
        "name": "HADJOUT",
        "address": "entrée est près de l'OAIC",
        "phone_number": null,
        "category": "pv",
        "organization": "CNA",
        "latitude": "36.512405",
        "longitude": "2.419583",
        "commune_name": "HADJOUT",
        "wilaya_name": "TIPAZA",
        "type_name": "Fruits et légumes",
        "type_id": 2
    },
    {
        "id": 2067,
        "name": "MERAD",
        "address": "Place derrière siège APC",
        "phone_number": null,
        "category": "pv",
        "organization": "CNA",
        "latitude": "36.47268",
        "longitude": "2.427586",
        "commune_name": "MERAD",
        "wilaya_name": "TIPAZA",
        "type_name": "Fruits et légumes",
        "type_id": 2
    },
    {
        "id": 2068,
        "name": "Ahmer El Ain",
        "address": "Rue Belarbi Amer près de la mosquée",
        "phone_number": null,
        "category": "pv",
        "organization": "CNA",
        "latitude": "36.47515",
        "longitude": "2.564814",
        "commune_name": "AHMAR EL AIN",
        "wilaya_name": "TIPAZA",
        "type_name": "Fruits et légumes",
        "type_id": 2
    },
    {
        "id": 2069,
        "name": "Bourkika",
        "address": "près du centre commercial entrée ouest de la ville",
        "phone_number": null,
        "category": "pv",
        "organization": "CNA",
        "latitude": "36.495566",
        "longitude": "2.472909",
        "commune_name": "BOURKIKA",
        "wilaya_name": "TIPAZA",
        "type_name": "Fruits et légumes",
        "type_id": 2
    },
    {
        "id": 2070,
        "name": "SIDI RACHED",
        "address": "à proximité du stade communal",
        "phone_number": null,
        "category": "pv",
        "organization": "CNA",
        "latitude": "36.559911",
        "longitude": "2.532394",
        "commune_name": "SIDI RACHED",
        "wilaya_name": "TIPAZA",
        "type_name": "Fruits et légumes",
        "type_id": 2
    },
    {
        "id": 2071,
        "name": "BOU ISMAIL",
        "address": "Marché de proximité ex quartier Bailili",
        "phone_number": null,
        "category": "pv",
        "organization": "CNA",
        "latitude": "36.634126",
        "longitude": "2.6886466",
        "commune_name": "BOU ISMAIL",
        "wilaya_name": "TIPAZA",
        "type_name": "Fruits et légumes",
        "type_id": 2
    },
    {
        "id": 2072,
        "name": "BOU ISMAIL",
        "address": "Place près de l'UDES",
        "phone_number": null,
        "category": "pv",
        "organization": "CNA",
        "latitude": "36.657264",
        "longitude": "2.714216",
        "commune_name": "BOU ISMAIL",
        "wilaya_name": "TIPAZA",
        "type_name": "Fruits et légumes",
        "type_id": 2
    },
    {
        "id": 2073,
        "name": "BOU ISMAIL",
        "address": "Marché couvert",
        "phone_number": null,
        "category": "pv",
        "organization": "CNA",
        "latitude": "36.6424865",
        "longitude": "2.6905312",
        "commune_name": "BOU ISMAIL",
        "wilaya_name": "TIPAZA",
        "type_name": "Fruits et légumes",
        "type_id": 2
    },
    {
        "id": 2074,
        "name": "AIN TAGOURAIT",
        "address": "Place du marché hebdomadaire",
        "phone_number": null,
        "category": "pv",
        "organization": "CNA",
        "latitude": "36.600615",
        "longitude": "2.600611",
        "commune_name": "AIN TAGOURAIT",
        "wilaya_name": "TIPAZA",
        "type_name": "Fruits et légumes",
        "type_id": 2
    },
    {
        "id": 2075,
        "name": "OFLA",
        "address": "Ex CCLS OFLA",
        "phone_number": null,
        "category": "pv",
        "organization": "CNA",
        "latitude": "36.661188",
        "longitude": "2.739692",
        "commune_name": "FOUKA",
        "wilaya_name": "TIPAZA",
        "type_name": "Fruits et légumes",
        "type_id": 2
    },
    {
        "id": 2076,
        "name": "Haloula",
        "address": "cité Haloula",
        "phone_number": null,
        "category": "pv",
        "organization": "CNA",
        "latitude": "36.569752",
        "longitude": "2.666477",
        "commune_name": "ATTATBA",
        "wilaya_name": "TIPAZA",
        "type_name": "Fruits et légumes",
        "type_id": 2
    },
    {
        "id": 2077,
        "name": "Chaik",
        "address": "Quartier Chaik près de la mosquée",
        "phone_number": null,
        "category": "pv",
        "organization": "CNA",
        "latitude": "36.637566",
        "longitude": "2.738408",
        "commune_name": "CHAIBA",
        "wilaya_name": "TIPAZA",
        "type_name": "Fruits et légumes",
        "type_id": 2
    },
    {
        "id": 2082,
        "name": "marché de gros des fruits et légumes",
        "address": "Dhayet Bendhahoua",
        "phone_number": null,
        "category": "pv",
        "organization": "CNA",
        "latitude": "32.53099021696226",
        "longitude": "3.6072591582279134",
        "commune_name": "DHAYET BENDHAHOUA",
        "wilaya_name": "GHARDAIA",
        "type_name": "Fruits et légumes",
        "type_id": 2
    },
    {
        "id": 2083,
        "name": "Ighoza",
        "address": "W147 Ghardaia",
        "phone_number": null,
        "category": "pv",
        "organization": "CNA",
        "latitude": "32.49327714145468",
        "longitude": "3.6481430704960918",
        "commune_name": "GHARDAIA",
        "wilaya_name": "GHARDAIA",
        "type_name": "Fruits et légumes",
        "type_id": 2
    },
    {
        "id": 2084,
        "name": "Karkoura",
        "address": "Ghardaia",
        "phone_number": null,
        "category": "pv",
        "organization": "CNA",
        "latitude": "32.49606218070015",
        "longitude": "3.6461193895648414",
        "commune_name": "GHARDAIA",
        "wilaya_name": "GHARDAIA",
        "type_name": "Fruits et légumes",
        "type_id": 2
    },
    {
        "id": 2085,
        "name": "mermed",
        "address": "Ghardaia",
        "phone_number": null,
        "category": "pv",
        "organization": "CNA",
        "latitude": "32.496784296167824",
        "longitude": "3.6728593939749006",
        "commune_name": "GHARDAIA",
        "wilaya_name": "GHARDAIA",
        "type_name": "Fruits et légumes",
        "type_id": 2
    },
    {
        "id": 2086,
        "name": "Merakchi",
        "address": "Avenue du 1er Novembre Ghardaia",
        "phone_number": null,
        "category": "pv",
        "organization": "CNA",
        "latitude": "32.47765270516082",
        "longitude": "3.6880075112685686",
        "commune_name": "GHARDAIA",
        "wilaya_name": "GHARDAIA",
        "type_name": "Fruits et légumes",
        "type_id": 2
    },
    {
        "id": 2087,
        "name": "Porte Occidentale Beni Isguen",
        "address": "Porte Occidentale  Ghardaia",
        "phone_number": null,
        "category": "pv",
        "organization": "CNA",
        "latitude": "32.47216230978029",
        "longitude": "3.6935372704405034",
        "commune_name": "BOUNOURA",
        "wilaya_name": "GHARDAIA",
        "type_name": "Fruits et légumes",
        "type_id": 2
    },
    {
        "id": 2088,
        "name": " Ksar de BOUNOURA",
        "address": "Bounoura Ghardaia",
        "phone_number": null,
        "category": "pv",
        "organization": "CNA",
        "latitude": "32.48364462237872",
        "longitude": "3.7024237109552485",
        "commune_name": "BOUNOURA",
        "wilaya_name": "GHARDAIA",
        "type_name": "Fruits et légumes",
        "type_id": 2
    },
    {
        "id": 2089,
        "name": "centre ville",
        "address": "El Atteuf",
        "phone_number": null,
        "category": "pv",
        "organization": "CNA",
        "latitude": "32.476528578944006",
        "longitude": "3.7469175347600783",
        "commune_name": "EL ATTEUF",
        "wilaya_name": "GHARDAIA",
        "type_name": "Fruits et légumes",
        "type_id": 2
    },
    {
        "id": 2090,
        "name": "oued Metlili",
        "address": "Metlili",
        "phone_number": null,
        "category": "pv",
        "organization": "CNA",
        "latitude": "32.26979173421458",
        "longitude": "3.6332448907024704",
        "commune_name": "METLILI",
        "wilaya_name": "GHARDAIA",
        "type_name": "Fruits et légumes",
        "type_id": 2
    },
    {
        "id": 2091,
        "name": "école primaire Lahreche Moubarak",
        "address": "Zelfana",
        "phone_number": null,
        "category": "pv",
        "organization": "CNA",
        "latitude": "32.39746011994938",
        "longitude": "4.224681854904355",
        "commune_name": "ZELFANA",
        "wilaya_name": "GHARDAIA",
        "type_name": "Fruits et légumes",
        "type_id": 2
    },
    {
        "id": 2092,
        "name": "SOUK EL KHEMIS",
        "address": "Daira de Guerrara  El Guerrara",
        "phone_number": null,
        "category": "pv",
        "organization": "CNA",
        "latitude": "32.79568402570313",
        "longitude": "4.501397838498586",
        "commune_name": "EL GUERRARA",
        "wilaya_name": "GHARDAIA",
        "type_name": "Fruits et légumes",
        "type_id": 2
    },
    {
        "id": 2093,
        "name": "centre ville",
        "address": "Berriane",
        "phone_number": null,
        "category": "pv",
        "organization": "CNA",
        "latitude": "32.8257183290102",
        "longitude": "3.7638425240784485",
        "commune_name": "BERRIANE",
        "wilaya_name": "GHARDAIA",
        "type_name": "Fruits et légumes",
        "type_id": 2
    },
    {
        "id": 2094,
        "name": "centre ville",
        "address": "El Menia",
        "phone_number": null,
        "category": "pv",
        "organization": "CNA",
        "latitude": "30.580451963515994",
        "longitude": "2.881754272118527",
        "commune_name": "EL MENIAA",
        "wilaya_name": "GHARDAIA",
        "type_name": "Fruits et légumes",
        "type_id": 2
    },
    {
        "id": 2095,
        "name": "Arret Meftah",
        "address": "Route de l'Unité Africaine Hassi el Gara",
        "phone_number": null,
        "category": "pv",
        "organization": "CNA",
        "latitude": "30.55965416868778",
        "longitude": "2.8973346329124343",
        "commune_name": "HASSI GARA",
        "wilaya_name": "GHARDAIA",
        "type_name": "Fruits et légumes",
        "type_id": 2
    },
    {
        "id": 661,
        "name": "Salle Omnisport",
        "address": "Ain-El-Hammam",
        "phone_number": null,
        "category": "pv",
        "organization": "CNA",
        "latitude": "36.56932",
        "longitude": "4.31657",
        "commune_name": "AIN EL HAMMAM",
        "wilaya_name": "TIZI OUZOU",
        "type_name": "Fruits et légumes",
        "type_id": 2
    },
    {
        "id": 662,
        "name": "Auberge de jeunesses Djurdjura",
        "address": "Ain-El-Hammam",
        "phone_number": null,
        "category": "pv",
        "organization": "CNA",
        "latitude": "36.57086",
        "longitude": "4.31835",
        "commune_name": "AIN EL HAMMAM",
        "wilaya_name": "TIZI OUZOU",
        "type_name": "Fruits et légumes",
        "type_id": 2
    },
    {
        "id": 663,
        "name": "Marché de proximité Couvert",
        "address": "à la cité Tirmitine",
        "phone_number": null,
        "category": "pv",
        "organization": "CNA",
        "latitude": "36.54447",
        "longitude": "3.95217",
        "commune_name": "BOGHNI",
        "wilaya_name": "TIZI OUZOU",
        "type_name": "Fruits et légumes",
        "type_id": 2
    },
    {
        "id": 664,
        "name": "Placette sise à 200 logements",
        "address": "Boghni",
        "phone_number": null,
        "category": "pv",
        "organization": "CNA",
        "latitude": "36.54562",
        "longitude": "3.95556",
        "commune_name": "BOGHNI",
        "wilaya_name": "TIZI OUZOU",
        "type_name": "Fruits et légumes",
        "type_id": 2
    },
    {
        "id": 665,
        "name": "Ex-parc Communal ",
        "address": "Ouadhias Centre",
        "phone_number": null,
        "category": "pv",
        "organization": "CNA",
        "latitude": "36.55217",
        "longitude": "4.07797",
        "commune_name": "OUADHIA",
        "wilaya_name": "TIZI OUZOU",
        "type_name": "Fruits et légumes",
        "type_id": 2
    },
    {
        "id": 666,
        "name": "Taboukert",
        "address": "Tizi-Rached Centre",
        "phone_number": null,
        "category": "pv",
        "organization": "CNA",
        "latitude": "36.69955",
        "longitude": "4.21414",
        "commune_name": "TIZI RACHED",
        "wilaya_name": "TIZI OUZOU",
        "type_name": "Fruits et légumes",
        "type_id": 2
    },
    {
        "id": 667,
        "name": "Beni-Douala Centre",
        "address": "Beni-Douala centre",
        "phone_number": null,
        "category": "pv",
        "organization": "CNA",
        "latitude": "36.62144",
        "longitude": "4.08204",
        "commune_name": "BENI DOUALA",
        "wilaya_name": "TIZI OUZOU",
        "type_name": "Fruits et légumes",
        "type_id": 2
    },
    {
        "id": 668,
        "name": "Marché Couvert",
        "address": "Lotissement Amyoud",
        "phone_number": null,
        "category": "pv",
        "organization": "CNA",
        "latitude": "36.71332",
        "longitude": "4.04586",
        "commune_name": "TIZI OUZOU",
        "wilaya_name": "TIZI OUZOU",
        "type_name": "Fruits et légumes",
        "type_id": 2
    },
    {
        "id": 669,
        "name": "Marché Chabane",
        "address": "Tizi-Ouzou",
        "phone_number": null,
        "category": "pv",
        "organization": "CNA",
        "latitude": "36.70955",
        "longitude": "4.07028",
        "commune_name": "TIZI OUZOU",
        "wilaya_name": "TIZI OUZOU",
        "type_name": "Fruits et légumes",
        "type_id": 2
    },
    {
        "id": 670,
        "name": "Marché Tala-Athmane",
        "address": "Tala-Athmane",
        "phone_number": null,
        "category": "pv",
        "organization": "CNA",
        "latitude": "36.7297",
        "longitude": "4.14854",
        "commune_name": "TIZI OUZOU",
        "wilaya_name": "TIZI OUZOU",
        "type_name": "Fruits et légumes",
        "type_id": 2
    },
    {
        "id": 671,
        "name": "Djemaa-Saharidj",
        "address": "Mekla ",
        "phone_number": null,
        "category": "pv",
        "organization": "CNA",
        "latitude": "36.68875",
        "longitude": "4.289",
        "commune_name": "MEKLA",
        "wilaya_name": "TIZI OUZOU",
        "type_name": "Fruits et légumes",
        "type_id": 2
    },
    {
        "id": 672,
        "name": "Chaieb",
        "address": "Mekla ",
        "phone_number": null,
        "category": "pv",
        "organization": "CNA",
        "latitude": "36.70553",
        "longitude": "4.23911",
        "commune_name": "MEKLA",
        "wilaya_name": "TIZI OUZOU",
        "type_name": "Fruits et légumes",
        "type_id": 2
    },
    {
        "id": 673,
        "name": "El-Kahra",
        "address": "Freha",
        "phone_number": null,
        "category": "pv",
        "organization": "CNA",
        "latitude": "36.72986",
        "longitude": "4.26697",
        "commune_name": "FREHA",
        "wilaya_name": "TIZI OUZOU",
        "type_name": "Fruits et légumes",
        "type_id": 2
    },
    {
        "id": 674,
        "name": "Ait-Mehend",
        "address": "Freha",
        "phone_number": null,
        "category": "pv",
        "organization": "CNA",
        "latitude": "36.73027",
        "longitude": "4.26427",
        "commune_name": "FREHA",
        "wilaya_name": "TIZI OUZOU",
        "type_name": "Fruits et légumes",
        "type_id": 2
    },
    {
        "id": 675,
        "name": "Souk El Had",
        "address": "Timizart",
        "phone_number": null,
        "category": "pv",
        "organization": "CNA",
        "latitude": "36.79338",
        "longitude": "4.2465",
        "commune_name": "TIMIZART",
        "wilaya_name": "TIZI OUZOU",
        "type_name": "Fruits et légumes",
        "type_id": 2
    },
    {
        "id": 676,
        "name": "Agouni Oucharki",
        "address": "Aghribs",
        "phone_number": null,
        "category": "pv",
        "organization": "CNA",
        "latitude": "36.80888",
        "longitude": "4.31814",
        "commune_name": "AGHRIB",
        "wilaya_name": "TIZI OUZOU",
        "type_name": "Fruits et légumes",
        "type_id": 2
    },
    {
        "id": 677,
        "name": "Marché  centre",
        "address": "Azzefoun",
        "phone_number": null,
        "category": "pv",
        "organization": "CNA",
        "latitude": "36.88976",
        "longitude": "4.42096",
        "commune_name": "AZZEFOUN",
        "wilaya_name": "TIZI OUZOU",
        "type_name": "Fruits et légumes",
        "type_id": 2
    },
    {
        "id": 678,
        "name": "Marché couvert centre",
        "address": "Azazga Centre",
        "phone_number": null,
        "category": "pv",
        "organization": "CNA",
        "latitude": "36.7491",
        "longitude": "4.36567",
        "commune_name": "AZAZGA",
        "wilaya_name": "TIZI OUZOU",
        "type_name": "Fruits et légumes",
        "type_id": 2
    },
    {
        "id": 679,
        "name": "Marché centre",
        "address": "Yakouren Centre",
        "phone_number": null,
        "category": "pv",
        "organization": "CNA",
        "latitude": "36.73662",
        "longitude": "4.43854",
        "commune_name": "YAKOUREN",
        "wilaya_name": "TIZI OUZOU",
        "type_name": "Fruits et légumes",
        "type_id": 2
    },
    {
        "id": 680,
        "name": "Marché",
        "address": "Tizagharine",
        "phone_number": null,
        "category": "pv",
        "organization": "CNA",
        "latitude": "36.59676",
        "longitude": "4.00878",
        "commune_name": "SOUK EL TENINE",
        "wilaya_name": "TIZI OUZOU",
        "type_name": "Fruits et légumes",
        "type_id": 2
    },
    {
        "id": 681,
        "name": "Marché",
        "address": "Azemour Oumeriem",
        "phone_number": null,
        "category": "pv",
        "organization": "CNA",
        "latitude": "36.67663",
        "longitude": "3.95852",
        "commune_name": "TIRMITINE",
        "wilaya_name": "TIZI OUZOU",
        "type_name": "Fruits et légumes",
        "type_id": 2
    },
    {
        "id": 682,
        "name": "Marché",
        "address": "Alma centre",
        "phone_number": null,
        "category": "pv",
        "organization": "CNA",
        "latitude": "36.63412",
        "longitude": "4.04229",
        "commune_name": "BENI ZMENZER",
        "wilaya_name": "TIZI OUZOU",
        "type_name": "Fruits et légumes",
        "type_id": 2
    },
    {
        "id": 683,
        "name": "Marché centre",
        "address": "Chef Lieu Maatkas",
        "phone_number": null,
        "category": "pv",
        "organization": "CNA",
        "latitude": "36.60416",
        "longitude": "3.98446",
        "commune_name": "MAATKA",
        "wilaya_name": "TIZI OUZOU",
        "type_name": "Fruits et légumes",
        "type_id": 2
    },
    {
        "id": 684,
        "name": "Marché centre",
        "address": "Chef lieu Ouacifs",
        "phone_number": null,
        "category": "pv",
        "organization": "CNA",
        "latitude": "36.52641",
        "longitude": "4.20813",
        "commune_name": "OUACIF",
        "wilaya_name": "TIZI OUZOU",
        "type_name": "Fruits et légumes",
        "type_id": 2
    },
    {
        "id": 685,
        "name": "EX SEMPAC",
        "address": "Larbaa-Nath-Irathen",
        "phone_number": null,
        "category": "pv",
        "organization": "CNA",
        "latitude": "36.64272",
        "longitude": "4.19965",
        "commune_name": "LARBA NAIT IRATHEN",
        "wilaya_name": "TIZI OUZOU",
        "type_name": "Fruits et légumes",
        "type_id": 2
    },
    {
        "id": 686,
        "name": "Souk Thimamarth",
        "address": "Ait-Aggouacha Centre",
        "phone_number": null,
        "category": "pv",
        "organization": "CNA",
        "latitude": "36.61744",
        "longitude": "4.2341",
        "commune_name": "AIT AGGOUACHA",
        "wilaya_name": "TIZI OUZOU",
        "type_name": "Fruits et légumes",
        "type_id": 2
    },
    {
        "id": 687,
        "name": "Marché",
        "address": "Taourirt Mimoun",
        "phone_number": null,
        "category": "pv",
        "organization": "CNA",
        "latitude": "36.58315",
        "longitude": "4.1946",
        "commune_name": "BENI YENNI",
        "wilaya_name": "TIZI OUZOU",
        "type_name": "Fruits et légumes",
        "type_id": 2
    },
    {
        "id": 688,
        "name": "Souk El Had",
        "address": "Yatafene centre",
        "phone_number": null,
        "category": "pv",
        "organization": "CNA",
        "latitude": "36.52818",
        "longitude": "4.27919",
        "commune_name": "YATAFENE",
        "wilaya_name": "TIZI OUZOU",
        "type_name": "Fruits et légumes",
        "type_id": 2
    },
    {
        "id": 689,
        "name": "Tassafet",
        "address": "Tassafet",
        "phone_number": null,
        "category": "pv",
        "organization": "CNA",
        "latitude": "36.50205",
        "longitude": "4.25042",
        "commune_name": "IBOUDRAREN",
        "wilaya_name": "TIZI OUZOU",
        "type_name": "Fruits et légumes",
        "type_id": 2
    },
    {
        "id": 690,
        "name": "02 Points de vente",
        "address": "Tizi-Nteleta centre",
        "phone_number": null,
        "category": "pv",
        "organization": "CNA",
        "latitude": "36.5754",
        "longitude": "4.04036",
        "commune_name": "TIZI N?THLATA",
        "wilaya_name": "TIZI OUZOU",
        "type_name": "Fruits et légumes",
        "type_id": 2
    },
    {
        "id": 691,
        "name": "Marché centre",
        "address": "Route de At-Bu-Addu Ait Bouaddou",
        "phone_number": null,
        "category": "pv",
        "organization": "CNA",
        "latitude": "36.5069",
        "longitude": "4.05692",
        "commune_name": "AIT BOUADOU",
        "wilaya_name": "TIZI OUZOU",
        "type_name": "Fruits et légumes",
        "type_id": 2
    },
    {
        "id": 692,
        "name": "Marché centre",
        "address": "Ait El Mannsour Iferhounène",
        "phone_number": null,
        "category": "pv",
        "organization": "CNA",
        "latitude": "36.53302",
        "longitude": "4.37236",
        "commune_name": "IFERHOUNENE",
        "wilaya_name": "TIZI OUZOU",
        "type_name": "Fruits et légumes",
        "type_id": 2
    },
    {
        "id": 693,
        "name": "Marché centre",
        "address": "Rue 1er Novembre Tizi Ghennif 15480",
        "phone_number": null,
        "category": "pv",
        "organization": "CNA",
        "latitude": "36.58768",
        "longitude": "3.77395",
        "commune_name": "TIZI GHENIF",
        "wilaya_name": "TIZI OUZOU",
        "type_name": "Fruits et légumes",
        "type_id": 2
    },
    {
        "id": 694,
        "name": "Marché centre",
        "address": "Thachtiouine Ait Yahia Moussa",
        "phone_number": null,
        "category": "pv",
        "organization": "CNA",
        "latitude": "36.65918",
        "longitude": "3.88824",
        "commune_name": "AIT YAHIA MOUSSA",
        "wilaya_name": "TIZI OUZOU",
        "type_name": "Fruits et légumes",
        "type_id": 2
    },
    {
        "id": 695,
        "name": "Tighilt Bougni",
        "address": "M'kira",
        "phone_number": null,
        "category": "pv",
        "organization": "CNA",
        "latitude": "36.62494",
        "longitude": "3.7917",
        "commune_name": "M?KIRA",
        "wilaya_name": "TIZI OUZOU",
        "type_name": "Fruits et légumes",
        "type_id": 2
    },
    {
        "id": 696,
        "name": "Marché Centre",
        "address": "Draa El Mizan",
        "phone_number": null,
        "category": "pv",
        "organization": "CNA",
        "latitude": "36.53673",
        "longitude": "3.82789",
        "commune_name": "DRAA EL MIZAN",
        "wilaya_name": "TIZI OUZOU",
        "type_name": "Fruits et légumes",
        "type_id": 2
    },
    {
        "id": 697,
        "name": "Marché centre",
        "address": "Tigzirt",
        "phone_number": null,
        "category": "pv",
        "organization": "CNA",
        "latitude": "36.89175",
        "longitude": "4.13109",
        "commune_name": "TIGZIRT",
        "wilaya_name": "TIZI OUZOU",
        "type_name": "Fruits et légumes",
        "type_id": 2
    },
    {
        "id": 698,
        "name": "Marché centre",
        "address": "Boudjima",
        "phone_number": null,
        "category": "pv",
        "organization": "CNA",
        "latitude": "36.80823",
        "longitude": "4.15789",
        "commune_name": "BOUDJIMA",
        "wilaya_name": "TIZI OUZOU",
        "type_name": "Fruits et légumes",
        "type_id": 2
    },
    {
        "id": 699,
        "name": "Marché couvert",
        "address": "Cité Kaper La DNC Draa Ben Khedda",
        "phone_number": null,
        "category": "pv",
        "organization": "CNA",
        "latitude": "36.73134",
        "longitude": "3.95854",
        "commune_name": "DRAA BEN KHEDA",
        "wilaya_name": "TIZI OUZOU",
        "type_name": "Fruits et légumes",
        "type_id": 2
    },
    {
        "id": 700,
        "name": "Marché",
        "address": "Cité Mahmoudi Boulevard Larbaoui Mohamed Draa Ben Khedda 15100",
        "phone_number": null,
        "category": "pv",
        "organization": "CNA",
        "latitude": "36.72888",
        "longitude": "3.95832",
        "commune_name": "DRAA BEN KHEDA",
        "wilaya_name": "TIZI OUZOU",
        "type_name": "Fruits et légumes",
        "type_id": 2
    },
    {
        "id": 701,
        "name": "Marché de la gare",
        "address": "Tadmait",
        "phone_number": null,
        "category": "pv",
        "organization": "CNA",
        "latitude": "36.74376",
        "longitude": "3.9053",
        "commune_name": "TADMAIT",
        "wilaya_name": "TIZI OUZOU",
        "type_name": "Fruits et légumes",
        "type_id": 2
    },
    {
        "id": 702,
        "name": "Marché centre",
        "address": "N12A Sidi Naamane",
        "phone_number": null,
        "category": "pv",
        "organization": "CNA",
        "latitude": "36.75872",
        "longitude": "3.98012",
        "commune_name": "SIDI NAAMANE",
        "wilaya_name": "TIZI OUZOU",
        "type_name": "Fruits et légumes",
        "type_id": 2
    },
    {
        "id": 2328,
        "name": "LAITERIE FROMAGERIE TESSALA",
        "address": "ROUTE TENIRA PROLONGEE BP 157 SBA",
        "phone_number": null,
        "category": "pv",
        "organization": "GIPLAIT",
        "latitude": "35.1897222",
        "longitude": "-0.6308333",
        "commune_name": "SIDI BEL ABBES",
        "wilaya_name": "SIDI BEL ABBES",
        "type_name": "Produits laitiers",
        "type_id": 3
    },
    {
        "id": 2329,
        "name": "LAITERIE FROMAGERIE TESSALA",
        "address": "Rue El-Djamhouria Centre-Ville Sidi-Bel-Abbès",
        "phone_number": null,
        "category": "pv",
        "organization": "GIPLAIT",
        "latitude": "35.1897222",
        "longitude": "-0.6308333",
        "commune_name": "SIDI BEL ABBES",
        "wilaya_name": "SIDI BEL ABBES",
        "type_name": "Produits laitiers",
        "type_id": 3
    },
    {
        "id": 2330,
        "name": "LAITERIE FROMAGERIE TESSALA",
        "address": "Local E103 Cité HIRECHE AEK 2000 logements",
        "phone_number": null,
        "category": "pv",
        "organization": "GIPLAIT",
        "latitude": "35.1741667",
        "longitude": "-0.5486111",
        "commune_name": "TILMOUNI",
        "wilaya_name": "SIDI BEL ABBES",
        "type_name": "Produits laitiers",
        "type_id": 3
    },
    {
        "id": 2331,
        "name": "LAITERIE FROMAGERIE TESSALA",
        "address": "Local 01 Cité 1000 logements",
        "phone_number": null,
        "category": "pv",
        "organization": "GIPLAIT",
        "latitude": "35.1633333",
        "longitude": "-0.6958333",
        "commune_name": "SIDI LAHCENE",
        "wilaya_name": "SIDI BEL ABBES",
        "type_name": "Produits laitiers",
        "type_id": 3
    },
    {
        "id": 2332,
        "name": "LAITERIE FROMAGERIE TESSALA",
        "address": "Locaux 01 et 02 Marché de proximité  le Defunt Modjahid Si MESSAOUDI AEK",
        "phone_number": null,
        "category": "pv",
        "organization": "GIPLAIT",
        "latitude": "34.4461111",
        "longitude": "-0.195",
        "commune_name": "MARHOUM",
        "wilaya_name": "SIDI BEL ABBES",
        "type_name": "Produits laitiers",
        "type_id": 3
    },
    {
        "id": 708,
        "name": "marché couvert",
        "address": "Tamanrasset",
        "phone_number": null,
        "category": "pv",
        "organization": "CNA",
        "latitude": "22.797089",
        "longitude": "5.518692",
        "commune_name": "TAMENGHASSET",
        "wilaya_name": "TAMENGHASSET",
        "type_name": "Fruits et légumes",
        "type_id": 2
    },
    {
        "id": 2333,
        "name": "LAITERIE  ARIB ",
        "address": "REU 19 MARS EN FACE LE STADE ECHAHID SI HAMDANE MEDEA",
        "phone_number": null,
        "category": "pv",
        "organization": "GIPLAIT",
        "latitude": "36.26",
        "longitude": "2.7547222",
        "commune_name": "MEDEA",
        "wilaya_name": "MEDEA",
        "type_name": "Produits laitiers",
        "type_id": 3
    },
    {
        "id": 821,
        "name": "SOUK RAMADAN",
        "address": "Chambre d'Artisanat route El-Anasser",
        "phone_number": "035874277",
        "category": "pv",
        "organization": "CNA",
        "latitude": "36.05995398707717",
        "longitude": "4.7846050094595025",
        "commune_name": "BORDJ BOU ARRERIDJ",
        "wilaya_name": "BORDJ BOU ARRERIDJ",
        "type_name": "Fruits et légumes",
        "type_id": 2
    },
    {
        "id": 822,
        "name": "SOUK RAMADAN",
        "address": "Ouled KHELIFA commue DJAAFRA",
        "phone_number": "035759181",
        "category": "pv",
        "organization": "CNA",
        "latitude": "36.26567079710961",
        "longitude": "4.700673580474861",
        "commune_name": "DJAAFRA",
        "wilaya_name": "BORDJ BOU ARRERIDJ",
        "type_name": "Fruits et légumes",
        "type_id": 2
    },
    {
        "id": 823,
        "name": "SOUK RAMADAN",
        "address": "commue DJAAFRA Centre",
        "phone_number": "035759181",
        "category": "pv",
        "organization": "CNA",
        "latitude": "36.29283727479461",
        "longitude": "4.661101358399855",
        "commune_name": "DJAAFRA",
        "wilaya_name": "BORDJ BOU ARRERIDJ",
        "type_name": "Fruits et légumes",
        "type_id": 2
    },
    {
        "id": 2334,
        "name": "LAITERIE  ARIB ",
        "address": "HAY EMIR ABDELKADER -ARIB-",
        "phone_number": null,
        "category": "pv",
        "organization": "GIPLAIT",
        "latitude": "36.2838889",
        "longitude": "2.0733333",
        "commune_name": "ARIB",
        "wilaya_name": "AIN DEFLA",
        "type_name": "Produits laitiers",
        "type_id": 3
    },
    {
        "id": 825,
        "name": "SOUK RAMADAN",
        "address": "Pose Num 10 El -Hamadia",
        "phone_number": "035710168",
        "category": "pv",
        "organization": "CNA",
        "latitude": "35.9770071157214",
        "longitude": "4.748634700777328",
        "commune_name": "HAMADIA",
        "wilaya_name": "TIARET",
        "type_name": "Fruits et légumes",
        "type_id": 2
    },
    {
        "id": 826,
        "name": "SOUK RAMADAN",
        "address": "Commune Belimour Centre",
        "phone_number": "035790192",
        "category": "pv",
        "organization": "CNA",
        "latitude": "35.98225649522177",
        "longitude": "4.876863559697184",
        "commune_name": "BELIMOUR",
        "wilaya_name": "BORDJ BOU ARRERIDJ",
        "type_name": "Fruits et légumes",
        "type_id": 2
    },
    {
        "id": 827,
        "name": "SOUK RAMADAN",
        "address": "Marché Hebdomadaire MEDJANA",
        "phone_number": "035705062",
        "category": "pv",
        "organization": "CNA",
        "latitude": "36.13352510155805",
        "longitude": "4.668277064322526",
        "commune_name": "MEDJANA",
        "wilaya_name": "BORDJ BOU ARRERIDJ",
        "type_name": "Fruits et légumes",
        "type_id": 2
    },
    {
        "id": 828,
        "name": "ORAVIE EST",
        "address": " ORAVIE Cente (03)",
        "phone_number": "035853016",
        "category": "pv",
        "organization": "CNA",
        "latitude": "36.12039864655856",
        "longitude": "5.073458495930178",
        "commune_name": "AIN TAGHROUT",
        "wilaya_name": "BORDJ BOU ARRERIDJ",
        "type_name": "Viandes",
        "type_id": 1
    },
    {
        "id": 829,
        "name": "Marché",
        "address": "cité hama loulou souk-ahras",
        "phone_number": null,
        "category": "pv",
        "organization": "CNA",
        "latitude": "36.28894",
        "longitude": "7.97789",
        "commune_name": "SOUK AHRAS",
        "wilaya_name": "SOUK AHRAS",
        "type_name": "Fruits et légumes",
        "type_id": 2
    },
    {
        "id": 830,
        "name": "Marché",
        "address": "centre ville souk-ahras",
        "phone_number": null,
        "category": "pv",
        "organization": "CNA",
        "latitude": "36.28375",
        "longitude": "7.955663",
        "commune_name": "SOUK AHRAS",
        "wilaya_name": "SOUK AHRAS",
        "type_name": "Fruits et légumes",
        "type_id": 2
    },
    {
        "id": 831,
        "name": "Marché d'approximité",
        "address": "cité camp d'avion souk-ahras",
        "phone_number": null,
        "category": "pv",
        "organization": "CNA",
        "latitude": "36.27031",
        "longitude": "7.942471",
        "commune_name": "SOUK AHRAS",
        "wilaya_name": "SOUK AHRAS",
        "type_name": "Viandes",
        "type_id": 1
    },
    {
        "id": 832,
        "name": "Marché",
        "address": "cité 26 avril souk-ahras",
        "phone_number": null,
        "category": "pv",
        "organization": "CNA",
        "latitude": "36.29115",
        "longitude": "7.943294",
        "commune_name": "SOUK AHRAS",
        "wilaya_name": "SOUK AHRAS",
        "type_name": "Fruits et légumes",
        "type_id": 2
    },
    {
        "id": 833,
        "name": "Marché Num 02",
        "address": "cité omar ibn elkhattab souk-ahras",
        "phone_number": null,
        "category": "pv",
        "organization": "CNA",
        "latitude": "36.284824",
        "longitude": "7.950835",
        "commune_name": "SOUK AHRAS",
        "wilaya_name": "SOUK AHRAS",
        "type_name": "Fruits et légumes",
        "type_id": 2
    },
    {
        "id": 834,
        "name": "Marché Num 02",
        "address": "cité omar ibn elkhattab souk-ahras",
        "phone_number": null,
        "category": "pv",
        "organization": "CNA",
        "latitude": "36.284824",
        "longitude": "7.950835",
        "commune_name": "SOUK AHRAS",
        "wilaya_name": "SOUK AHRAS",
        "type_name": "Viandes",
        "type_id": 1
    },
    {
        "id": 835,
        "name": "Marché",
        "address": "amiria sedrata",
        "phone_number": null,
        "category": "pv",
        "organization": "CNA",
        "latitude": "36.13512",
        "longitude": "7.530102",
        "commune_name": "SEDRATA",
        "wilaya_name": "SOUK AHRAS",
        "type_name": "Fruits et légumes",
        "type_id": 2
    },
    {
        "id": 836,
        "name": "Marché",
        "address": "amiria sedrata",
        "phone_number": null,
        "category": "pv",
        "organization": "CNA",
        "latitude": "36.13512",
        "longitude": "7.530102",
        "commune_name": "SEDRATA",
        "wilaya_name": "SOUK AHRAS",
        "type_name": "Viandes",
        "type_id": 1
    },
    {
        "id": 837,
        "name": "Marché d'approximité",
        "address": "centre ville Bir Bou Haouch",
        "phone_number": null,
        "category": "pv",
        "organization": "CNA",
        "latitude": "36.014847",
        "longitude": "7.430266",
        "commune_name": "BIR BOUHOUCHE",
        "wilaya_name": "SOUK AHRAS",
        "type_name": "Fruits et légumes",
        "type_id": 2
    },
    {
        "id": 838,
        "name": "Marché d'approximité",
        "address": "centre ville Bir Bou Haouch",
        "phone_number": null,
        "category": "pv",
        "organization": "CNA",
        "latitude": "36.014847",
        "longitude": "7.430266",
        "commune_name": "BIR BOUHOUCHE",
        "wilaya_name": "SOUK AHRAS",
        "type_name": "Viandes",
        "type_id": 1
    },
    {
        "id": 839,
        "name": "Marché d'approximité",
        "address": "cité bouras laarbi Merahna",
        "phone_number": null,
        "category": "pv",
        "organization": "CNA",
        "latitude": "36.199635",
        "longitude": "8.157994",
        "commune_name": "MERAHNA",
        "wilaya_name": "SOUK AHRAS",
        "type_name": "Fruits et légumes",
        "type_id": 2
    },
    {
        "id": 840,
        "name": "Marché d'approximité",
        "address": "cité bouras laarbi Merahna",
        "phone_number": null,
        "category": "pv",
        "organization": "CNA",
        "latitude": "36.199635",
        "longitude": "8.157994",
        "commune_name": "MERAHNA",
        "wilaya_name": "SOUK AHRAS",
        "type_name": "Viandes",
        "type_id": 1
    },
    {
        "id": 841,
        "name": "Marché",
        "address": "centre ville merahna",
        "phone_number": null,
        "category": "pv",
        "organization": "CNA",
        "latitude": "36.194861",
        "longitude": "8.154443",
        "commune_name": "MERAHNA",
        "wilaya_name": "SOUK AHRAS",
        "type_name": "Fruits et légumes",
        "type_id": 2
    },
    {
        "id": 842,
        "name": "Marché d'approximité",
        "address": "cité aataitia amor heddada",
        "phone_number": null,
        "category": "pv",
        "organization": "CNA",
        "latitude": "36.234033",
        "longitude": "8.335586",
        "commune_name": "HADDADA",
        "wilaya_name": "SOUK AHRAS",
        "type_name": "Fruits et légumes",
        "type_id": 2
    },
    {
        "id": 843,
        "name": "Marché d'approximité",
        "address": "cité aataitia amor heddada",
        "phone_number": null,
        "category": "pv",
        "organization": "CNA",
        "latitude": "36.234033",
        "longitude": "8.335586",
        "commune_name": "HADDADA",
        "wilaya_name": "SOUK AHRAS",
        "type_name": "Viandes",
        "type_id": 1
    },
    {
        "id": 844,
        "name": "Marché d'approximité",
        "address": "centre ville Ouled Driss",
        "phone_number": null,
        "category": "pv",
        "organization": "CNA",
        "latitude": "36.357258",
        "longitude": "8.026797",
        "commune_name": "OULED DRISS",
        "wilaya_name": "SOUK AHRAS",
        "type_name": "Fruits et légumes",
        "type_id": 2
    },
    {
        "id": 845,
        "name": "Marché",
        "address": "centre ville Ouled Driss",
        "phone_number": null,
        "category": "pv",
        "organization": "CNA",
        "latitude": "36.357258",
        "longitude": "8.026797",
        "commune_name": "OULED DRISS",
        "wilaya_name": "SOUK AHRAS",
        "type_name": "Viandes",
        "type_id": 1
    },
    {
        "id": 846,
        "name": "Marché",
        "address": "centre ville Mechroha",
        "phone_number": null,
        "category": "pv",
        "organization": "CNA",
        "latitude": "36.357931",
        "longitude": "7.837695",
        "commune_name": "MECHROHA",
        "wilaya_name": "SOUK AHRAS",
        "type_name": "Fruits et légumes",
        "type_id": 2
    },
    {
        "id": 847,
        "name": "Marché",
        "address": "centre ville Mechroha",
        "phone_number": null,
        "category": "pv",
        "organization": "CNA",
        "latitude": "36.357931",
        "longitude": "7.837695",
        "commune_name": "MECHROHA",
        "wilaya_name": "SOUK AHRAS",
        "type_name": "Viandes",
        "type_id": 1
    },
    {
        "id": 848,
        "name": "Marché d'approximité",
        "address": "el fidh Ouled Moumene",
        "phone_number": null,
        "category": "pv",
        "organization": "CNA",
        "latitude": "36.424057",
        "longitude": "8.356881",
        "commune_name": "OULED MOUMEN",
        "wilaya_name": "SOUK AHRAS",
        "type_name": "Fruits et légumes",
        "type_id": 2
    },
    {
        "id": 849,
        "name": "Marché d'approximité",
        "address": "el fidh Ouled Moumene",
        "phone_number": null,
        "category": "pv",
        "organization": "CNA",
        "latitude": "36.424057",
        "longitude": "8.356881",
        "commune_name": "OULED MOUMEN",
        "wilaya_name": "SOUK AHRAS",
        "type_name": "Viandes",
        "type_id": 1
    },
    {
        "id": 850,
        "name": "Rond point Medjnich",
        "address": "Rue Reouina Mohamed",
        "phone_number": null,
        "category": "pv",
        "organization": "CNA",
        "latitude": "34.832191",
        "longitude": "5.723822",
        "commune_name": "BISKRA",
        "wilaya_name": "BISKRA",
        "type_name": "Fruits et légumes",
        "type_id": 2
    },
    {
        "id": 851,
        "name": "Rond point route du sahara",
        "address": "Hai Remaiche",
        "phone_number": null,
        "category": "pv",
        "organization": "CNA",
        "latitude": "34.835765",
        "longitude": "5.708989",
        "commune_name": "BISKRA",
        "wilaya_name": "BISKRA",
        "type_name": "Fruits et légumes",
        "type_id": 2
    },
    {
        "id": 852,
        "name": "Rond point sidi Okba",
        "address": "Biskra",
        "phone_number": null,
        "category": "pv",
        "organization": "CNA",
        "latitude": "34.830373",
        "longitude": "5.764151",
        "commune_name": "BISKRA",
        "wilaya_name": "BISKRA",
        "type_name": "Fruits et légumes",
        "type_id": 2
    },
    {
        "id": 853,
        "name": "cité 726 logts",
        "address": "Allee Mohamed Seddik Ben Yahia",
        "phone_number": null,
        "category": "pv",
        "organization": "CNA",
        "latitude": "34.852409",
        "longitude": "5.706727",
        "commune_name": "BISKRA",
        "wilaya_name": "BISKRA",
        "type_name": "Fruits et légumes",
        "type_id": 2
    },
    {
        "id": 854,
        "name": "l'entrée Ben Taleb",
        "address": "Hai El Amel",
        "phone_number": null,
        "category": "pv",
        "organization": "CNA",
        "latitude": "34.84107",
        "longitude": "5.709528",
        "commune_name": "BISKRA",
        "wilaya_name": "BISKRA",
        "type_name": "Fruits et légumes",
        "type_id": 2
    },
    {
        "id": 855,
        "name": "Rond point cimetière El Boukhari",
        "address": "Hai El Boukhari",
        "phone_number": null,
        "category": "pv",
        "organization": "CNA",
        "latitude": "34.844574",
        "longitude": "5.717255",
        "commune_name": "BISKRA",
        "wilaya_name": "BISKRA",
        "type_name": "Fruits et légumes",
        "type_id": 2
    },
    {
        "id": 856,
        "name": "cité 400 logts El alia",
        "address": "Rue N 2",
        "phone_number": null,
        "category": "pv",
        "organization": "CNA",
        "latitude": "34.856907",
        "longitude": "5.749811",
        "commune_name": "BISKRA",
        "wilaya_name": "BISKRA",
        "type_name": "Fruits et légumes",
        "type_id": 2
    },
    {
        "id": 857,
        "name": "cité 300 logts elalia",
        "address": "Rue Bouadjadja Belkacem",
        "phone_number": null,
        "category": "pv",
        "organization": "CNA",
        "latitude": "34.853196",
        "longitude": "5.75583",
        "commune_name": "BISKRA",
        "wilaya_name": "BISKRA",
        "type_name": "Fruits et légumes",
        "type_id": 2
    },
    {
        "id": 858,
        "name": "Ancienne cité El alia",
        "address": "Arret Terminus ElAlia",
        "phone_number": null,
        "category": "pv",
        "organization": "CNA",
        "latitude": "34.867107",
        "longitude": "5.739713",
        "commune_name": "BISKRA",
        "wilaya_name": "BISKRA",
        "type_name": "Fruits et légumes",
        "type_id": 2
    },
    {
        "id": 859,
        "name": "cité lemsid",
        "address": "Hai El Messid",
        "phone_number": null,
        "category": "pv",
        "organization": "CNA",
        "latitude": "34.835533",
        "longitude": "5.73094",
        "commune_name": "BISKRA",
        "wilaya_name": "BISKRA",
        "type_name": "Fruits et légumes",
        "type_id": 2
    },
    {
        "id": 860,
        "name": "route de chetma en face l'université",
        "address": "N31",
        "phone_number": null,
        "category": "pv",
        "organization": "CNA",
        "latitude": "34.849078",
        "longitude": "5.776641",
        "commune_name": "BISKRA",
        "wilaya_name": "BISKRA",
        "type_name": "Fruits et légumes",
        "type_id": 2
    },
    {
        "id": 861,
        "name": "cité soug El asser El alia",
        "address": "Rue Mimoune H'Mida",
        "phone_number": null,
        "category": "pv",
        "organization": "CNA",
        "latitude": "34.858598",
        "longitude": "5.743008",
        "commune_name": "BISKRA",
        "wilaya_name": "BISKRA",
        "type_name": "Fruits et légumes",
        "type_id": 2
    },
    {
        "id": 862,
        "name": "entrée du marché berramdane",
        "address": "Rue Badi Mohamed",
        "phone_number": null,
        "category": "pv",
        "organization": "CNA",
        "latitude": "34.853025",
        "longitude": "5.727143",
        "commune_name": "BISKRA",
        "wilaya_name": "BISKRA",
        "type_name": "Produits laitiers",
        "type_id": 3
    },
    {
        "id": 863,
        "name": "entrée du marché couvert",
        "address": "Boulevard de La République",
        "phone_number": null,
        "category": "pv",
        "organization": "CNA",
        "latitude": "34.854284",
        "longitude": "5.730803",
        "commune_name": "BISKRA",
        "wilaya_name": "BISKRA",
        "type_name": "Produits laitiers",
        "type_id": 3
    },
    {
        "id": 864,
        "name": "entrée de  Sidi Okba",
        "address": "1-N83 sidi okba",
        "phone_number": null,
        "category": "pv",
        "organization": "CNA",
        "latitude": "34.767241",
        "longitude": "5.868818",
        "commune_name": "SIDI OKBA",
        "wilaya_name": "BISKRA",
        "type_name": "Fruits et légumes",
        "type_id": 2
    },
    {
        "id": 865,
        "name": "sortie de  Sidi Okba",
        "address": "N83 sidi okba",
        "phone_number": null,
        "category": "pv",
        "organization": "CNA",
        "latitude": "34.737895",
        "longitude": "5.923584",
        "commune_name": "SIDI OKBA",
        "wilaya_name": "BISKRA",
        "type_name": "Fruits et légumes",
        "type_id": 2
    },
    {
        "id": 866,
        "name": "entrée ain naga",
        "address": "N83 ain naga",
        "phone_number": null,
        "category": "pv",
        "organization": "CNA",
        "latitude": "34.717706",
        "longitude": "5.964688",
        "commune_name": "AIN NAGA",
        "wilaya_name": "BISKRA",
        "type_name": "Fruits et légumes",
        "type_id": 2
    },
    {
        "id": 867,
        "name": "Entrée de Tolga",
        "address": "N46 Tolga",
        "phone_number": null,
        "category": "pv",
        "organization": "CNA",
        "latitude": "34.737249",
        "longitude": "5.403056",
        "commune_name": "TOLGA",
        "wilaya_name": "BISKRA",
        "type_name": "Produits laitiers",
        "type_id": 3
    },
    {
        "id": 868,
        "name": "Entrée de Tolga",
        "address": "N46 Tolga",
        "phone_number": null,
        "category": "pv",
        "organization": "CNA",
        "latitude": "34.745877",
        "longitude": "5.377138",
        "commune_name": "TOLGA",
        "wilaya_name": "BISKRA",
        "type_name": "Fruits et légumes",
        "type_id": 2
    },
    {
        "id": 869,
        "name": "intersection vers Ourlel",
        "address": "N46B Tolga",
        "phone_number": null,
        "category": "pv",
        "organization": "CNA",
        "latitude": "34.724713",
        "longitude": "5.396821",
        "commune_name": "TOLGA",
        "wilaya_name": "BISKRA",
        "type_name": "Fruits et légumes",
        "type_id": 2
    },
    {
        "id": 870,
        "name": "entre tolga et foughala",
        "address": "N46 Tolga",
        "phone_number": null,
        "category": "pv",
        "organization": "CNA",
        "latitude": "34.745751",
        "longitude": "5.374274",
        "commune_name": "TOLGA",
        "wilaya_name": "BISKRA",
        "type_name": "Fruits et légumes",
        "type_id": 2
    },
    {
        "id": 871,
        "name": "Lioua centre",
        "address": "lioua",
        "phone_number": null,
        "category": "pv",
        "organization": "CNA",
        "latitude": "34.635586",
        "longitude": "5.396861",
        "commune_name": "LIOUA",
        "wilaya_name": "BISKRA",
        "type_name": "Viandes",
        "type_id": 1
    },
    {
        "id": 872,
        "name": "Lioua centre",
        "address": "lioua",
        "phone_number": null,
        "category": "pv",
        "organization": "CNA",
        "latitude": "34.63811",
        "longitude": "5.400903",
        "commune_name": "LIOUA",
        "wilaya_name": "BISKRA",
        "type_name": "Fruits et légumes",
        "type_id": 2
    },
    {
        "id": 873,
        "name": "Placette ",
        "address": "Oumache",
        "phone_number": null,
        "category": "pv",
        "organization": "CNA",
        "latitude": "34.693104",
        "longitude": "5.697912",
        "commune_name": "OUMACHE",
        "wilaya_name": "BISKRA",
        "type_name": "Fruits et légumes",
        "type_id": 2
    },
    {
        "id": 874,
        "name": "Rahba ",
        "address": "W61 ourelal",
        "phone_number": null,
        "category": "pv",
        "organization": "CNA",
        "latitude": "34.6558",
        "longitude": "5.513569",
        "commune_name": "OURLAL",
        "wilaya_name": "BISKRA",
        "type_name": "Fruits et légumes",
        "type_id": 2
    },
    {
        "id": 875,
        "name": "Rahba ",
        "address": "ourelal",
        "phone_number": null,
        "category": "pv",
        "organization": "CNA",
        "latitude": "34.657319",
        "longitude": "5.518721",
        "commune_name": "OURLAL",
        "wilaya_name": "BISKRA",
        "type_name": "Viandes",
        "type_id": 1
    },
    {
        "id": 876,
        "name": "Dachra",
        "address": "El Ghrous",
        "phone_number": null,
        "category": "pv",
        "organization": "CNA",
        "latitude": "34.705761",
        "longitude": "5.284497",
        "commune_name": "EL GHROUS",
        "wilaya_name": "BISKRA",
        "type_name": "Fruits et légumes",
        "type_id": 2
    },
    {
        "id": 877,
        "name": "entrée Leghrous",
        "address": "N46 foughala",
        "phone_number": null,
        "category": "pv",
        "organization": "CNA",
        "latitude": "34.733295",
        "longitude": "5.285551",
        "commune_name": "EL GHROUS",
        "wilaya_name": "BISKRA",
        "type_name": "Produits laitiers",
        "type_id": 3
    },
    {
        "id": 878,
        "name": "Rahba ",
        "address": "Doucen",
        "phone_number": null,
        "category": "pv",
        "organization": "CNA",
        "latitude": "34.603639",
        "longitude": "5.106546",
        "commune_name": "DOUCEN",
        "wilaya_name": "BISKRA",
        "type_name": "Fruits et légumes",
        "type_id": 2
    },
    {
        "id": 879,
        "name": "centre ville",
        "address": "Doucen",
        "phone_number": null,
        "category": "pv",
        "organization": "CNA",
        "latitude": "34.604651",
        "longitude": "5.106884",
        "commune_name": "DOUCEN",
        "wilaya_name": "BISKRA",
        "type_name": "Produits du Terroir",
        "type_id": 4
    },
    {
        "id": 880,
        "name": "centre ville",
        "address": "Doucen",
        "phone_number": null,
        "category": "pv",
        "organization": "CNA",
        "latitude": "34.604651",
        "longitude": "5.106884",
        "commune_name": "DOUCEN",
        "wilaya_name": "BISKRA",
        "type_name": "Produits laitiers",
        "type_id": 3
    },
    {
        "id": 881,
        "name": "Rahba ",
        "address": "Ouled Djellal",
        "phone_number": null,
        "category": "pv",
        "organization": "CNA",
        "latitude": "34.426556",
        "longitude": "5.064987",
        "commune_name": "OULED DJELLAL",
        "wilaya_name": "BISKRA",
        "type_name": "Viandes",
        "type_id": 1
    },
    {
        "id": 882,
        "name": "Dachra",
        "address": "Ouled Djellal",
        "phone_number": null,
        "category": "pv",
        "organization": "CNA",
        "latitude": "34.426556",
        "longitude": "5.064987",
        "commune_name": "OULED DJELLAL",
        "wilaya_name": "BISKRA",
        "type_name": "Produits du Terroir",
        "type_id": 4
    },
    {
        "id": 883,
        "name": "en face de la station",
        "address": "El outaya",
        "phone_number": null,
        "category": "pv",
        "organization": "CNA",
        "latitude": "34.971059",
        "longitude": "5.629966",
        "commune_name": "EL OUTAYA",
        "wilaya_name": "BISKRA",
        "type_name": "Produits du Terroir",
        "type_id": 4
    },
    {
        "id": 884,
        "name": "en face de la station",
        "address": "El outaya",
        "phone_number": null,
        "category": "pv",
        "organization": "CNA",
        "latitude": "34.971059",
        "longitude": "5.629966",
        "commune_name": "EL OUTAYA",
        "wilaya_name": "BISKRA",
        "type_name": "Fruits et légumes",
        "type_id": 2
    },
    {
        "id": 885,
        "name": "centre ville",
        "address": "El outaya",
        "phone_number": null,
        "category": "pv",
        "organization": "CNA",
        "latitude": "35.030549",
        "longitude": "5.591294",
        "commune_name": "EL OUTAYA",
        "wilaya_name": "BISKRA",
        "type_name": "Produits laitiers",
        "type_id": 3
    },
    {
        "id": 886,
        "name": "Ain Bennaoui",
        "address": "N46 El hadjeb",
        "phone_number": null,
        "category": "pv",
        "organization": "CNA",
        "latitude": "34.807357",
        "longitude": "5.649574",
        "commune_name": "EL HADJAB",
        "wilaya_name": "BISKRA",
        "type_name": "Fruits et légumes",
        "type_id": 2
    },
    {
        "id": 2335,
        "name": "LAITERIE  ARIB ",
        "address": "TAHARI BELHADJ : Arib centre",
        "phone_number": null,
        "category": "pv",
        "organization": "GIPLAIT",
        "latitude": "36.2902778",
        "longitude": "2.0683333",
        "commune_name": "ARIB",
        "wilaya_name": "AIN DEFLA",
        "type_name": "Produits laitiers",
        "type_id": 3
    },
    {
        "id": 2336,
        "name": "LAITERIE  ARIB ",
        "address": "KHELOUF FETHI : LOT Num 06 DIVISION 18 COLLECTION EXCLUSIVE Num 28 SIDI LAKHDAR",
        "phone_number": null,
        "category": "pv",
        "organization": "GIPLAIT",
        "latitude": "36.2658333",
        "longitude": "2.1688889",
        "commune_name": "SIDI LAKHDAR",
        "wilaya_name": "AIN DEFLA",
        "type_name": "Produits laitiers",
        "type_id": 3
    },
    {
        "id": 2337,
        "name": "LAITERIE  ARIB ",
        "address": "MAAS RAFIK : CITE 30 LOGEMENTS BOUTANE KHEMIS MILIANA ",
        "phone_number": null,
        "category": "pv",
        "organization": "GIPLAIT",
        "latitude": "36.2536111",
        "longitude": "2.2227778",
        "commune_name": "KHEMIS MILIANA",
        "wilaya_name": "AIN DEFLA",
        "type_name": "Produits laitiers",
        "type_id": 3
    },
    {
        "id": 2338,
        "name": "LAITERIE  ARIB ",
        "address": "RAHMOUN RAFIK : HAY SOUFAY KHEMIS MILIANA",
        "phone_number": null,
        "category": "pv",
        "organization": "GIPLAIT",
        "latitude": "36.2630556",
        "longitude": "2.2361111",
        "commune_name": "KHEMIS MILIANA",
        "wilaya_name": "AIN DEFLA",
        "type_name": "Produits laitiers",
        "type_id": 3
    },
    {
        "id": 2339,
        "name": "LAITERIE  ARIB ",
        "address": "DJAADI MAAMAR : RUE GOUASMI MOHAMMED DJENDEL",
        "phone_number": null,
        "category": "pv",
        "organization": "GIPLAIT",
        "latitude": "36.2197222",
        "longitude": "2.41",
        "commune_name": "DJENDEL",
        "wilaya_name": "AIN DEFLA",
        "type_name": "Produits laitiers",
        "type_id": 3
    },
    {
        "id": 2340,
        "name": "LAITERIE  ARIB ",
        "address": "HASSANI RABAH : RUE FRERES DELLOUSSI  MILIANA",
        "phone_number": null,
        "category": "pv",
        "organization": "GIPLAIT",
        "latitude": "36.3041667",
        "longitude": "2.2252778",
        "commune_name": "MILIANA",
        "wilaya_name": "AIN DEFLA",
        "type_name": "Produits laitiers",
        "type_id": 3
    },
    {
        "id": 2341,
        "name": "LAITERIE  ARIB ",
        "address": "TAKHRIST AEK : CITE 05 JUILLET 1962 MILIANA",
        "phone_number": null,
        "category": "pv",
        "organization": "GIPLAIT",
        "latitude": "36.3069444",
        "longitude": "2.2186111",
        "commune_name": "MILIANA",
        "wilaya_name": "AIN DEFLA",
        "type_name": "Produits laitiers",
        "type_id": 3
    },
    {
        "id": 2342,
        "name": "LAITERIE  ARIB ",
        "address": "AKOUCHI AHMED : CITE 50 LOGEMENTS BAT A Num 04 EL AMRA",
        "phone_number": null,
        "category": "pv",
        "organization": "GIPLAIT",
        "latitude": "36.3058333",
        "longitude": "1.8477778",
        "commune_name": "EL AMRA",
        "wilaya_name": "AIN DEFLA",
        "type_name": "Produits laitiers",
        "type_id": 3
    },
    {
        "id": 2343,
        "name": "LAITERIE EL MANSOURAH",
        "address": "Batiment Cité SIDI LAHCEN",
        "phone_number": null,
        "category": "pv",
        "organization": "GIPLAIT",
        "latitude": "34.887888",
        "longitude": "-1.305031",
        "commune_name": "TLEMCEN",
        "wilaya_name": "TLEMCEN",
        "type_name": "Produits laitiers",
        "type_id": 3
    },
    {
        "id": 2344,
        "name": "LAITERIE EL MANSOURAH",
        "address": "Bd exterieur Zone 32 HENNAYA",
        "phone_number": null,
        "category": "pv",
        "organization": "GIPLAIT",
        "latitude": "35.001723",
        "longitude": "-1.3998",
        "commune_name": "TLEMCEN",
        "wilaya_name": "TLEMCEN",
        "type_name": "Produits laitiers",
        "type_id": 3
    },
    {
        "id": 2345,
        "name": "LAITERIE EL MANSOURAH",
        "address": "Zone Semi Industrielle ABOU TECHFINE",
        "phone_number": null,
        "category": "pv",
        "organization": "GIPLAIT",
        "latitude": "34.902514",
        "longitude": "-1.3288558",
        "commune_name": "TLEMCEN",
        "wilaya_name": "TLEMCEN",
        "type_name": "Produits laitiers",
        "type_id": 3
    },
    {
        "id": 2346,
        "name": "LAITERIE EL MANSOURAH",
        "address": "Marché Fruits et Légume Zone de CHETOUANE",
        "phone_number": null,
        "category": "pv",
        "organization": "GIPLAIT",
        "latitude": "34.922135",
        "longitude": "-1.292106",
        "commune_name": "CHETOUANE",
        "wilaya_name": "TLEMCEN",
        "type_name": "Produits laitiers",
        "type_id": 3
    },
    {
        "id": 2347,
        "name": "LAITERIE EL MANSOURAH",
        "address": "PALAI D'EXPOSITION KOUDIA",
        "phone_number": null,
        "category": "pv",
        "organization": "GIPLAIT",
        "latitude": "34.916274",
        "longitude": "-1.351844",
        "commune_name": "TLEMCEN",
        "wilaya_name": "TLEMCEN",
        "type_name": "Produits laitiers",
        "type_id": 3
    },
    {
        "id": 2348,
        "name": "LAITERIE D'AMIZOUR",
        "address": "CITE 200 500 LOGEMENTS SIDI LEBHAR BLOC C10 Num 25",
        "phone_number": null,
        "category": "pv",
        "organization": "GIPLAIT",
        "latitude": "36.73",
        "longitude": "5.07",
        "commune_name": "BEJAIA",
        "wilaya_name": "BEJAIA",
        "type_name": "Produits laitiers",
        "type_id": 3
    },
    {
        "id": 2349,
        "name": "LAITERIE D'AMIZOUR",
        "address": "DOMAINE MAOUCHI AHMED AMIZOUR",
        "phone_number": null,
        "category": "pv",
        "organization": "GIPLAIT",
        "latitude": "36.64",
        "longitude": "4.9011111",
        "commune_name": "AMIZOUR",
        "wilaya_name": "BEJAIA",
        "type_name": "Produits laitiers",
        "type_id": 3
    },
    {
        "id": 2350,
        "name": "LAITERIE D'AMIZOUR",
        "address": "FILIALES CEREALES HAUTS PLATEAUX ROUTE DE LA GARE 06000 SIDI AICH",
        "phone_number": null,
        "category": "pv",
        "organization": "GIPLAIT",
        "latitude": "36.6129",
        "longitude": "4.6883",
        "commune_name": "SIDI AICH",
        "wilaya_name": "BEJAIA",
        "type_name": "Produits laitiers",
        "type_id": 3
    },
    {
        "id": 2351,
        "name": "LAITERIE D'AMIZOUR",
        "address": "FILIALES CEREALES HAUTS PLATEAUX ROUTE DOASLA 06000 KHERRATA",
        "phone_number": null,
        "category": "pv",
        "organization": "GIPLAIT",
        "latitude": "36.4851278",
        "longitude": "5.2684056",
        "commune_name": "KHERRATA",
        "wilaya_name": "BEJAIA",
        "type_name": "Produits laitiers",
        "type_id": 3
    },
    {
        "id": 2352,
        "name": "LAITERIE D'AMIZOUR",
        "address": "04 BOULVARD KRIM BELKACEM BEJAIA",
        "phone_number": null,
        "category": "pv",
        "organization": "GIPLAIT",
        "latitude": "36.64",
        "longitude": "4.9016778",
        "commune_name": "BEJAIA",
        "wilaya_name": "BEJAIA",
        "type_name": "Produits laitiers",
        "type_id": 3
    },
    {
        "id": 2353,
        "name": "LAITERIE COLAITAL",
        "address": "Site de la laiterie les vergers Birkhadem Alger",
        "phone_number": null,
        "category": "pv",
        "organization": "GIPLAIT",
        "latitude": "36.72571",
        "longitude": "3.04972",
        "commune_name": "BIRKHADEM",
        "wilaya_name": "ALGER",
        "type_name": "Produits laitiers",
        "type_id": 3
    },
    {
        "id": 2354,
        "name": "LAITERIE COLAITAL",
        "address": "Vieux marché communal Draria Alger",
        "phone_number": null,
        "category": "pv",
        "organization": "GIPLAIT",
        "latitude": "36.7138889",
        "longitude": "2.9991667",
        "commune_name": "DRARIA",
        "wilaya_name": "ALGER",
        "type_name": "Produits laitiers",
        "type_id": 3
    },
    {
        "id": 2355,
        "name": "LAITERIE COLAITAL",
        "address": "Place Athmani Ali Ex Voctor Hugo Boufarik Blida",
        "phone_number": null,
        "category": "pv",
        "organization": "GIPLAIT",
        "latitude": "36.5733333",
        "longitude": "2.9097222",
        "commune_name": "BOUFARIK",
        "wilaya_name": "BLIDA",
        "type_name": "Produits laitiers",
        "type_id": 3
    },
    {
        "id": 2356,
        "name": "LAITERIE COLAITAL",
        "address": "cité 1600 logements APC CNEP Karkouba Koléa Tipaza",
        "phone_number": null,
        "category": "pv",
        "organization": "GIPLAIT",
        "latitude": "36.6475",
        "longitude": "2.7613889",
        "commune_name": "KOLEA",
        "wilaya_name": "TIPAZA",
        "type_name": "Produits laitiers",
        "type_id": 3
    },
    {
        "id": 2357,
        "name": "LAITERIE COLAITAL",
        "address": "Boulevard Mustapha Ferroukhi Alger centre",
        "phone_number": null,
        "category": "pv",
        "organization": "GIPLAIT",
        "latitude": "36.7686111",
        "longitude": "3.0547222",
        "commune_name": "ALGER CENTRE",
        "wilaya_name": "ALGER",
        "type_name": "Produits laitiers",
        "type_id": 3
    },
    {
        "id": 2358,
        "name": "LAITERIE COLAITAL",
        "address": "Cité Mesbah Hamidou Saoula Alger",
        "phone_number": null,
        "category": "pv",
        "organization": "GIPLAIT",
        "latitude": "36.7033333",
        "longitude": "3.0213889",
        "commune_name": "SAOULA",
        "wilaya_name": "ALGER",
        "type_name": "Produits laitiers",
        "type_id": 3
    },
    {
        "id": 2359,
        "name": "LAITERIE COLAITAL",
        "address": "Boulevard Aisset Idir Sidi M'Hamed Alger",
        "phone_number": null,
        "category": "pv",
        "organization": "GIPLAIT",
        "latitude": "36.7597222",
        "longitude": "3.0575",
        "commune_name": "SIDI MHAMED",
        "wilaya_name": "ALGER",
        "type_name": "Produits laitiers",
        "type_id": 3
    },
    {
        "id": 2360,
        "name": "LAITERIE COLAITAL",
        "address": "Route 117 de Bougara  Sidi Moussa Alger",
        "phone_number": null,
        "category": "pv",
        "organization": "GIPLAIT",
        "latitude": "36.6025",
        "longitude": "3.0886111",
        "commune_name": "SIDI MOUSSA",
        "wilaya_name": "ALGER",
        "type_name": "Produits laitiers",
        "type_id": 3
    },
    {
        "id": 2361,
        "name": "LAITERIE COLAITAL",
        "address": "Cité 5 juillet 1962 Bab Ezzour Alger",
        "phone_number": null,
        "category": "pv",
        "organization": "GIPLAIT",
        "latitude": "36.7233333",
        "longitude": "3.1786111",
        "commune_name": "BAB AZZOUAR",
        "wilaya_name": "ALGER",
        "type_name": "Produits laitiers",
        "type_id": 3
    },
    {
        "id": 2362,
        "name": "LAITERIE COLAITAL",
        "address": "Marché Djalmani El Harrach Alger",
        "phone_number": null,
        "category": "pv",
        "organization": "GIPLAIT",
        "latitude": "36.7219444",
        "longitude": "3.1366667",
        "commune_name": "EL HARRACH",
        "wilaya_name": "ALGER",
        "type_name": "Produits laitiers",
        "type_id": 3
    },
    {
        "id": 2363,
        "name": "LAITERIE COLAITAL",
        "address": "Rue Mahfoud Saadallah cité El Fida  Bourouba Alger",
        "phone_number": null,
        "category": "pv",
        "organization": "GIPLAIT",
        "latitude": "36.7225",
        "longitude": "3.1227778",
        "commune_name": "BOUROUBA",
        "wilaya_name": "ALGER",
        "type_name": "Produits laitiers",
        "type_id": 3
    },
    {
        "id": 2364,
        "name": "LAITERIE COLAITAL",
        "address": "Rue Aissani Douera Alger",
        "phone_number": null,
        "category": "pv",
        "organization": "GIPLAIT",
        "latitude": "36.6686111",
        "longitude": "2.9408333",
        "commune_name": "DOUERA",
        "wilaya_name": "ALGER",
        "type_name": "Produits laitiers",
        "type_id": 3
    },
    {
        "id": 2365,
        "name": "LAITERIE COLAITAL",
        "address": "Rue Sebai Mohamed hussein Dey Alger",
        "phone_number": null,
        "category": "pv",
        "organization": "GIPLAIT",
        "latitude": "36.7363889",
        "longitude": "3.1011111",
        "commune_name": "HUSSEIN DEY",
        "wilaya_name": "ALGER",
        "type_name": "Produits laitiers",
        "type_id": 3
    },
    {
        "id": 2366,
        "name": "LAITERIE COLAITAL",
        "address": "Place Ketani Bab El Oued Alger",
        "phone_number": null,
        "category": "pv",
        "organization": "GIPLAIT",
        "latitude": "36.7919444",
        "longitude": "3.0577778",
        "commune_name": "BAB EL OUED",
        "wilaya_name": "ALGER",
        "type_name": "Produits laitiers",
        "type_id": 3
    },
    {
        "id": 2367,
        "name": "LAITERIE COLAITAL",
        "address": "Rue Marzouk Mustapha Ben ali Maalma Alger",
        "phone_number": null,
        "category": "pv",
        "organization": "GIPLAIT",
        "latitude": "36.68",
        "longitude": "2.8752778",
        "commune_name": "MAHELMA",
        "wilaya_name": "ALGER",
        "type_name": "Produits laitiers",
        "type_id": 3
    },
    {
        "id": 2368,
        "name": "LAITERIE COLAITAL",
        "address": "148 rue Ali Bouhadja Birtouta Alger",
        "phone_number": null,
        "category": "pv",
        "organization": "GIPLAIT",
        "latitude": "36.6441667",
        "longitude": "2.9919444",
        "commune_name": "BIRTOUTA",
        "wilaya_name": "ALGER",
        "type_name": "Produits laitiers",
        "type_id": 3
    },
    {
        "id": 2369,
        "name": "LAITERIE COLAITAL",
        "address": "Cité des grands vents Dely Brahim a proximite d'OOREDO",
        "phone_number": null,
        "category": "pv",
        "organization": "GIPLAIT",
        "latitude": "36.7441667",
        "longitude": "2.9530556",
        "commune_name": "DELY IBRAHIM",
        "wilaya_name": "ALGER",
        "type_name": "Produits laitiers",
        "type_id": 3
    },
    {
        "id": 2370,
        "name": "LAITERIE COLAITAL",
        "address": "ENTRE DU MARCHE COMMUNAL",
        "phone_number": null,
        "category": "pv",
        "organization": "GIPLAIT",
        "latitude": "36.7638889",
        "longitude": "2.9577778",
        "commune_name": "CHERAGA",
        "wilaya_name": "ALGER",
        "type_name": "Produits laitiers",
        "type_id": 3
    },
    {
        "id": 2371,
        "name": "LAITERIE COLAITAL",
        "address": "Boulvard HOUCINE AIT AHMED",
        "phone_number": null,
        "category": "pv",
        "organization": "GIPLAIT",
        "latitude": "36.6869444",
        "longitude": "2.8569444",
        "commune_name": "MAHELMA",
        "wilaya_name": "ALGER",
        "type_name": "Produits laitiers",
        "type_id": 3
    },
    {
        "id": 2372,
        "name": "LAITERIE COLAITAL",
        "address": "MOHAMADIA En fa DAR EL IMAM",
        "phone_number": null,
        "category": "pv",
        "organization": "GIPLAIT",
        "latitude": "36.7197222",
        "longitude": "3.1494444",
        "commune_name": "EL HARRACH",
        "wilaya_name": "ALGER",
        "type_name": "Produits laitiers",
        "type_id": 3
    },
    {
        "id": 2373,
        "name": "LAITERIELE LITTORAL",
        "address": "Site de la laiterie Salamandre ",
        "phone_number": null,
        "category": "pv",
        "organization": "GIPLAIT",
        "latitude": "35.1",
        "longitude": "0.069",
        "commune_name": "MOSTAGANEM",
        "wilaya_name": "MOSTAGANEM",
        "type_name": "Produits laitiers",
        "type_id": 3
    },
    {
        "id": 2374,
        "name": "LAITERIELE LITTORAL",
        "address": "Marché couvert cité du 05 juillet Mostaganem",
        "phone_number": null,
        "category": "pv",
        "organization": "GIPLAIT",
        "latitude": "35.92",
        "longitude": "0.09",
        "commune_name": "MOSTAGANEM",
        "wilaya_name": "MOSTAGANEM",
        "type_name": "Produits laitiers",
        "type_id": 3
    },
    {
        "id": 2375,
        "name": "LAITERIELE LITTORAL",
        "address": "Marché Ain Sefra Mostaganem Centre",
        "phone_number": null,
        "category": "pv",
        "organization": "GIPLAIT",
        "latitude": "35.95",
        "longitude": "0.099",
        "commune_name": "MOSTAGANEM",
        "wilaya_name": "MOSTAGANEM",
        "type_name": "Produits laitiers",
        "type_id": 3
    },
    {
        "id": 2376,
        "name": "LAITERIE FROMAGERIE BOUDOUAOU",
        "address": "Place Abdelhamid Ben Badis (Placette centre-ville)",
        "phone_number": null,
        "category": "pv",
        "organization": "GIPLAIT",
        "latitude": "36.736616",
        "longitude": "3.2829934",
        "commune_name": "ROUIBA",
        "wilaya_name": "ALGER",
        "type_name": "Produits laitiers",
        "type_id": 3
    },
    {
        "id": 2377,
        "name": "LAITERIE FROMAGERIE BOUDOUAOU",
        "address": "Zone Industrielle  (usine LFB)",
        "phone_number": null,
        "category": "pv",
        "organization": "GIPLAIT",
        "latitude": "36.7209973",
        "longitude": "3.3078333",
        "commune_name": "ROUIBA",
        "wilaya_name": "ALGER",
        "type_name": "Produits laitiers",
        "type_id": 3
    },
    {
        "id": 2378,
        "name": "LAITERIE FROMAGERIE BOUDOUAOU",
        "address": "Marche de Proximité (BATIMETAL) cité EL Ouancharis",
        "phone_number": null,
        "category": "pv",
        "organization": "GIPLAIT",
        "latitude": "36.7494735",
        "longitude": "3.34667",
        "commune_name": "REGHAIA",
        "wilaya_name": "ALGER",
        "type_name": "Produits laitiers",
        "type_id": 3
    },
    {
        "id": 2379,
        "name": "LAITERIE FROMAGERIE BOUDOUAOU",
        "address": "Cité 392 Logements Avenue de L'ALN (coté d'aira de Boumerdes)",
        "phone_number": null,
        "category": "pv",
        "organization": "GIPLAIT",
        "latitude": "36.7558817",
        "longitude": "3.4753835",
        "commune_name": "BOUMERDES",
        "wilaya_name": "BOUMERDES",
        "type_name": "Produits laitiers",
        "type_id": 3
    },
    {
        "id": 2380,
        "name": "LAITERIE FROMAGERIE BOUDOUAOU",
        "address": "Num  83 Avenue  Mekerkeb Benyoucef ",
        "phone_number": null,
        "category": "pv",
        "organization": "GIPLAIT",
        "latitude": "36.471289",
        "longitude": "2.8118041",
        "commune_name": "BLIDA",
        "wilaya_name": "BLIDA",
        "type_name": "Produits laitiers",
        "type_id": 3
    },
    {
        "id": 2381,
        "name": "LAITERIE FROMAGERIE BOUDOUAOU",
        "address": "Salle de sport Lasbar Ismail",
        "phone_number": null,
        "category": "pv",
        "organization": "GIPLAIT",
        "latitude": "36.2950838",
        "longitude": "3.6746066",
        "commune_name": "BOUIRA",
        "wilaya_name": "BOUIRA",
        "type_name": "Produits laitiers",
        "type_id": 3
    },
    {
        "id": 2382,
        "name": "LAITERIE FROMAGERIE BOUDOUAOU",
        "address": "Rue Rabah Dermouche ( Ex ERIADH)",
        "phone_number": null,
        "category": "pv",
        "organization": "GIPLAIT",
        "latitude": "36.3801533",
        "longitude": "3.9024082",
        "commune_name": "AIN BESSAM",
        "wilaya_name": "BOUIRA",
        "type_name": "Produits laitiers",
        "type_id": 3
    },
    {
        "id": 2383,
        "name": "LAITERIE FROMAGERIE BOUDOUAOU",
        "address": "Cité Benadjel ",
        "phone_number": null,
        "category": "pv",
        "organization": "GIPLAIT",
        "latitude": "36.7278828",
        "longitude": "3.397055",
        "commune_name": "BOUDOUAOU",
        "wilaya_name": "BOUMERDES",
        "type_name": "Produits laitiers",
        "type_id": 3
    },
    {
        "id": 2384,
        "name": "LAITERIE TELL",
        "address": "RUE BAHRI KHEIR SETIF",
        "phone_number": null,
        "category": "pv",
        "organization": "GIPLAIT",
        "latitude": "36.181372",
        "longitude": "5.408612",
        "commune_name": "SETIF",
        "wilaya_name": "SETIF",
        "type_name": "Produits laitiers",
        "type_id": 3
    },
    {
        "id": 2385,
        "name": "LAITERIE TELL",
        "address": "BP 71  ZONE  D'ACTIVITE   MEZLOUG SETIF",
        "phone_number": null,
        "category": "pv",
        "organization": "GIPLAIT",
        "latitude": "36.10328",
        "longitude": "5.33705",
        "commune_name": "MEZLOUG",
        "wilaya_name": "SETIF",
        "type_name": "Produits laitiers",
        "type_id": 3
    },
    {
        "id": 2386,
        "name": "LAITERIE TELL",
        "address": "SALLE D'EXPOSITION PARC D'ATTRACTION DE SETIF ",
        "phone_number": null,
        "category": "pv",
        "organization": "GIPLAIT",
        "latitude": "36.19451",
        "longitude": "5.4076",
        "commune_name": "SETIF",
        "wilaya_name": "SETIF",
        "type_name": "Produits laitiers",
        "type_id": 3
    },
    {
        "id": 2387,
        "name": "LAITERIE LA SOURCE",
        "address": "Rue BESSIF AHMED Num 14 SAIDA",
        "phone_number": null,
        "category": "pv",
        "organization": "GIPLAIT",
        "latitude": "34.83071",
        "longitude": "0.14939",
        "commune_name": "SAIDA",
        "wilaya_name": "SAIDA",
        "type_name": "Produits laitiers",
        "type_id": 3
    },
    {
        "id": 2388,
        "name": "LAITERIE LA SOURCE",
        "address": "Ex GALLERIE ALGERIENNE -BOUGTOB",
        "phone_number": null,
        "category": "pv",
        "organization": "GIPLAIT",
        "latitude": "34.04212",
        "longitude": "0.08782",
        "commune_name": "BOUGTOUB",
        "wilaya_name": "EL BAYADH",
        "type_name": "Produits laitiers",
        "type_id": 3
    },
    {
        "id": 2389,
        "name": "LAITERIE SUD AIT",
        "address": "Rue Slimane Belkhdim Num 125",
        "phone_number": null,
        "category": "pv",
        "organization": "GIPLAIT",
        "latitude": "31.6156667",
        "longitude": "-2.2156944",
        "commune_name": "BECHAR",
        "wilaya_name": "BECHAR",
        "type_name": "Produits laitiers",
        "type_id": 3
    },
    {
        "id": 2390,
        "name": "LAITERIE SUD AIT",
        "address": "Rue Emir AEK Num 10 centre ville d'igli",
        "phone_number": null,
        "category": "pv",
        "organization": "GIPLAIT",
        "latitude": "30.4528889",
        "longitude": "-2.2925833",
        "commune_name": "IGLI",
        "wilaya_name": "BECHAR",
        "type_name": "Produits laitiers",
        "type_id": 3
    },
    {
        "id": 2391,
        "name": "LAITERIE SUD AIT",
        "address": "Marché couvert Centre ville béni Abbes ",
        "phone_number": null,
        "category": "pv",
        "organization": "GIPLAIT",
        "latitude": "30.1326667",
        "longitude": "-2.1704722",
        "commune_name": "BENI ABBES",
        "wilaya_name": "BECHAR",
        "type_name": "Produits laitiers",
        "type_id": 3
    },
    {
        "id": 2392,
        "name": "LAITERIE EDOUGH",
        "address": "EL BOUNI",
        "phone_number": null,
        "category": "pv",
        "organization": "GIPLAIT",
        "latitude": "36.85277",
        "longitude": "7.74027",
        "commune_name": "EL BOUNI",
        "wilaya_name": "ANNABA",
        "type_name": "Produits laitiers",
        "type_id": 3
    },
    {
        "id": 2393,
        "name": "LAITERIE EDOUGH",
        "address": "BERRAHAL",
        "phone_number": null,
        "category": "pv",
        "organization": "GIPLAIT",
        "latitude": "36.8355556",
        "longitude": "7.4611111",
        "commune_name": "BERRAHEL ",
        "wilaya_name": "ANNABA",
        "type_name": "Produits laitiers",
        "type_id": 3
    },
    {
        "id": 2394,
        "name": "LAITERIE EDOUGH",
        "address": "ECHATT",
        "phone_number": null,
        "category": "pv",
        "organization": "GIPLAIT",
        "latitude": "36.8047222",
        "longitude": "7.8236111",
        "commune_name": "BENI AMAR_ECHATT",
        "wilaya_name": "EL TARF",
        "type_name": "Produits laitiers",
        "type_id": 3
    },
    {
        "id": 2395,
        "name": "LAITERIE EDOUGH",
        "address": "DRAA ERICH",
        "phone_number": null,
        "category": "pv",
        "organization": "GIPLAIT",
        "latitude": "36.8569444",
        "longitude": "7.5158333",
        "commune_name": "BERRAHEL ",
        "wilaya_name": "ANNABA",
        "type_name": "Produits laitiers",
        "type_id": 3
    },
    {
        "id": 1229,
        "name": "KITOULI ",
        "address": "STADE 01 MAI PLACE DES MARTYRES ",
        "phone_number": null,
        "category": "pv",
        "organization": "CNA",
        "latitude": "36.8665959797032",
        "longitude": "6.904838748299252",
        "commune_name": "SKIKDA",
        "wilaya_name": "SKIKDA",
        "type_name": "Fruits et légumes",
        "type_id": 2
    },
    {
        "id": 1230,
        "name": "EL AMEL ",
        "address": "STADE 24 AVRIL CITE EL AMEL ",
        "phone_number": null,
        "category": "pv",
        "organization": "CNA",
        "latitude": "36.87144830213954",
        "longitude": "6.906055045855499",
        "commune_name": "SKIKDA",
        "wilaya_name": "SKIKDA",
        "type_name": "Légumes secs",
        "type_id": 5
    },
    {
        "id": 1231,
        "name": "HAMMADI KROUMA ",
        "address": "A coté de la voie ferré ",
        "phone_number": null,
        "category": "pv",
        "organization": "CNA",
        "latitude": "36.84771835683003",
        "longitude": "6.929325949001611",
        "commune_name": "HAMADI KROUMA",
        "wilaya_name": "SKIKDA",
        "type_name": "Viandes",
        "type_id": 1
    },
    {
        "id": 1232,
        "name": "ALLAOUA TAGHANE ",
        "address": "Cité ALLAOUA TAGHANE ",
        "phone_number": null,
        "category": "pv",
        "organization": "CNA",
        "latitude": "36.84321939106961",
        "longitude": "6.934733281862613",
        "commune_name": "HAMADI KROUMA",
        "wilaya_name": "SKIKDA",
        "type_name": "Produits du Terroir",
        "type_id": 4
    },
    {
        "id": 1233,
        "name": "La place publique ",
        "address": "place publique cite les freres lakehal ",
        "phone_number": null,
        "category": "pv",
        "organization": "CNA",
        "latitude": "36.88707094752873",
        "longitude": "7.054407198835695",
        "commune_name": "FIL FILA",
        "wilaya_name": "SKIKDA",
        "type_name": "Fruits et légumes",
        "type_id": 2
    },
    {
        "id": 1234,
        "name": "les freres ayachi ",
        "address": "cite les freres ayachi a coté de l'arrét de bus ",
        "phone_number": null,
        "category": "pv",
        "organization": "CNA",
        "latitude": "36.86784677696448",
        "longitude": "7.0090885996196794",
        "commune_name": "FIL FILA",
        "wilaya_name": "SKIKDA",
        "type_name": "Produits laitiers",
        "type_id": 3
    },
    {
        "id": 1235,
        "name": "SALAH CHEBEL ",
        "address": "CITE SALAH CHEBEL ",
        "phone_number": null,
        "category": "pv",
        "organization": "CNA",
        "latitude": "36.89283725504898",
        "longitude": "7.063676912311699",
        "commune_name": "FIL FILA",
        "wilaya_name": "SKIKDA",
        "type_name": "Légumes secs",
        "type_id": 5
    },
    {
        "id": 1236,
        "name": "SEDHANE HOCINE",
        "address": "La rue principale cite sedhane hocine ",
        "phone_number": null,
        "category": "pv",
        "organization": "CNA",
        "latitude": "36.7922912304734",
        "longitude": "6.793485963363518",
        "commune_name": "BOUCHTATA",
        "wilaya_name": "SKIKDA",
        "type_name": "Légumes secs",
        "type_id": 5
    },
    {
        "id": 1237,
        "name": "20 aout 1955",
        "address": "cite 20 aout 1955 à cote du stade ",
        "phone_number": null,
        "category": "pv",
        "organization": "CNA",
        "latitude": "36.75639607681658",
        "longitude": "6.89903614843925",
        "commune_name": "RAMDANE DJAMEL",
        "wilaya_name": "SKIKDA",
        "type_name": "Fruits et légumes",
        "type_id": 2
    },
    {
        "id": 1238,
        "name": "guessaba ",
        "address": "zone guessaba ",
        "phone_number": null,
        "category": "pv",
        "organization": "CNA",
        "latitude": "36.75455808421054",
        "longitude": "6.887429059146083",
        "commune_name": "RAMDANE DJAMEL",
        "wilaya_name": "SKIKDA",
        "type_name": "Produits laitiers",
        "type_id": 3
    },
    {
        "id": 1239,
        "name": "staiha ",
        "address": "zone staiha ",
        "phone_number": null,
        "category": "pv",
        "organization": "CNA",
        "latitude": "36.75228870402582",
        "longitude": "6.894638836294085",
        "commune_name": "RAMDANE DJAMEL",
        "wilaya_name": "SKIKDA",
        "type_name": "Fruits et légumes",
        "type_id": 2
    },
    {
        "id": 1240,
        "name": "communale",
        "address": "salle omni-sport et tehatre communal ",
        "phone_number": null,
        "category": "pv",
        "organization": "CNA",
        "latitude": "36.80645587276016",
        "longitude": "6.966255239245379",
        "commune_name": "BENI BACHIR",
        "wilaya_name": "SKIKDA",
        "type_name": "Produits du Terroir",
        "type_id": 4
    },
    {
        "id": 1241,
        "name": "el hama ",
        "address": "el hama devant la mosque de la rue pricipale ",
        "phone_number": null,
        "category": "pv",
        "organization": "CNA",
        "latitude": "36.80027068528534",
        "longitude": "6.95938878481871",
        "commune_name": "BENI BACHIR",
        "wilaya_name": "SKIKDA",
        "type_name": "Viandes",
        "type_id": 1
    },
    {
        "id": 1242,
        "name": "zaouia ",
        "address": "zaouia a cote de la poste ",
        "phone_number": null,
        "category": "pv",
        "organization": "CNA",
        "latitude": "36.79461246602868",
        "longitude": "6.95068263243182",
        "commune_name": "BENI BACHIR",
        "wilaya_name": "SKIKDA",
        "type_name": "Produits du Terroir",
        "type_id": 4
    },
    {
        "id": 1243,
        "name": "boughamouza ",
        "address": "cite boughamouza ",
        "phone_number": null,
        "category": "pv",
        "organization": "CNA",
        "latitude": "36.648517302837455",
        "longitude": "6.822907515344125",
        "commune_name": "EL HARROUCH",
        "wilaya_name": "SKIKDA",
        "type_name": "Légumes secs",
        "type_id": 5
    },
    {
        "id": 1244,
        "name": "said bousbaa ",
        "address": "cite said bousbaa ",
        "phone_number": null,
        "category": "pv",
        "organization": "CNA",
        "latitude": "36.65307624959674",
        "longitude": "6.8280914341536345",
        "commune_name": "EL HARROUCH",
        "wilaya_name": "SKIKDA",
        "type_name": "Fruits et légumes",
        "type_id": 2
    },
    {
        "id": 1245,
        "name": "les freres kafi ",
        "address": "rue les freres kafi ",
        "phone_number": null,
        "category": "pv",
        "organization": "CNA",
        "latitude": "36.626905406791074",
        "longitude": "6.813500218496964",
        "commune_name": "EL HARROUCH",
        "wilaya_name": "SKIKDA",
        "type_name": "Viandes",
        "type_id": 1
    },
    {
        "id": 1246,
        "name": "bechiri rabah ",
        "address": "cite bechiri rabah djebel meksen ",
        "phone_number": null,
        "category": "pv",
        "organization": "CNA",
        "latitude": "36.70014341168462",
        "longitude": "6.853830618980373",
        "commune_name": "SALAH BOUCHAOUR",
        "wilaya_name": "SKIKDA",
        "type_name": "Légumes secs",
        "type_id": 5
    },
    {
        "id": 1247,
        "name": "saad hmoud ",
        "address": "rues saad hmoud ",
        "phone_number": null,
        "category": "pv",
        "organization": "CNA",
        "latitude": "36.70442839678937",
        "longitude": "6.802634550149045",
        "commune_name": "EMDJEZ EDCHICH",
        "wilaya_name": "SKIKDA",
        "type_name": "Viandes",
        "type_id": 1
    },
    {
        "id": 1248,
        "name": "saad hmoud ",
        "address": "saad hamoud et debbouz ",
        "phone_number": null,
        "category": "pv",
        "organization": "CNA",
        "latitude": "36.702014288425076",
        "longitude": "6.808503601353978",
        "commune_name": "EMDJEZ EDCHICH",
        "wilaya_name": "SKIKDA",
        "type_name": "Produits laitiers",
        "type_id": 3
    },
    {
        "id": 1249,
        "name": "ouled habeba ",
        "address": "centre ouled habeba",
        "phone_number": null,
        "category": "pv",
        "organization": "CNA",
        "latitude": "36.49853550526824",
        "longitude": "6.957014815473042",
        "commune_name": "OULED HEBABA",
        "wilaya_name": "SKIKDA",
        "type_name": "Fruits et légumes",
        "type_id": 2
    },
    {
        "id": 1250,
        "name": "ain kechera ",
        "address": "centre ain kechera à coté de la garre routiere ",
        "phone_number": null,
        "category": "pv",
        "organization": "CNA",
        "latitude": "36.74916851933048",
        "longitude": "6.431489248742687",
        "commune_name": "AIN KECHRA",
        "wilaya_name": "SKIKDA",
        "type_name": "Produits du Terroir",
        "type_id": 4
    },
    {
        "id": 1251,
        "name": "saouli bachir ",
        "address": "la place à cote du stade saouli bachir ",
        "phone_number": null,
        "category": "pv",
        "organization": "CNA",
        "latitude": "37.00034962495108",
        "longitude": "6.554793322288734",
        "commune_name": "COLLO",
        "wilaya_name": "SKIKDA",
        "type_name": "Légumes secs",
        "type_id": 5
    },
    {
        "id": 1252,
        "name": "bounoghra ",
        "address": "place de l'ancien regroupement centre bounoghra ",
        "phone_number": null,
        "category": "pv",
        "organization": "CNA",
        "latitude": "36.99662334127168",
        "longitude": "6.350289918574496",
        "commune_name": "OULED ATTIA",
        "wilaya_name": "SKIKDA",
        "type_name": "Fruits et légumes",
        "type_id": 2
    },
    {
        "id": 1253,
        "name": "bounoghra ",
        "address": "place de la rue principale bounoghra centre ",
        "phone_number": null,
        "category": "pv",
        "organization": "CNA",
        "latitude": "36.996006384463385",
        "longitude": "6.333123782507823",
        "commune_name": "OULED ATTIA",
        "wilaya_name": "SKIKDA",
        "type_name": "Fruits et légumes",
        "type_id": 2
    },
    {
        "id": 1254,
        "name": "el oueldja ",
        "address": "place el oueldja ",
        "phone_number": null,
        "category": "pv",
        "organization": "CNA",
        "latitude": "36.995049391211055",
        "longitude": "6.324567450647739",
        "commune_name": "OULED ATTIA",
        "wilaya_name": "SKIKDA",
        "type_name": "Produits du Terroir",
        "type_id": 4
    },
    {
        "id": 1255,
        "name": "siouane ",
        "address": "village siouane ",
        "phone_number": null,
        "category": "pv",
        "organization": "CNA",
        "latitude": "36.993814895337806",
        "longitude": "6.364207811927396",
        "commune_name": "OULED ATTIA",
        "wilaya_name": "SKIKDA",
        "type_name": "Viandes",
        "type_id": 1
    },
    {
        "id": 1256,
        "name": "drif bouzerda ",
        "address": "cite drif bouzerda ",
        "phone_number": null,
        "category": "pv",
        "organization": "CNA",
        "latitude": "36.834894588176375",
        "longitude": "6.645414148658086",
        "commune_name": "TAMALOUS",
        "wilaya_name": "SKIKDA",
        "type_name": "Viandes",
        "type_id": 1
    },
    {
        "id": 1257,
        "name": "ben azzouz ",
        "address": "centre de ben azzouz souk fermé ",
        "phone_number": null,
        "category": "pv",
        "organization": "CNA",
        "latitude": "36.86267917895053",
        "longitude": "7.29454040516619",
        "commune_name": "BENAZOUZ",
        "wilaya_name": "SKIKDA",
        "type_name": "Fruits et légumes",
        "type_id": 2
    },
    {
        "id": 1258,
        "name": "boumaiza ",
        "address": "ben azzouz ",
        "phone_number": null,
        "category": "pv",
        "organization": "CNA",
        "latitude": "36.86453327445475",
        "longitude": "7.295742034690857",
        "commune_name": "BENAZOUZ",
        "wilaya_name": "SKIKDA",
        "type_name": "Fruits et légumes",
        "type_id": 2
    },
    {
        "id": 1498,
        "name": "Assihar quinzaine commerciale",
        "address": "Centre Ville batna",
        "phone_number": null,
        "category": "pv",
        "organization": "CNA",
        "latitude": "35.549221288792964",
        "longitude": "6.175712377277931",
        "commune_name": "BATNA",
        "wilaya_name": "BATNA",
        "type_name": "Fruits et légumes",
        "type_id": 2
    },
    {
        "id": 1499,
        "name": "Nouvelle ville hamla 3 marché de proximité grande exposition tente géante",
        "address": "oued chaaba Nouvelle ville hamla 3",
        "phone_number": null,
        "category": "pv",
        "organization": "CNA",
        "latitude": "35.52910255722923",
        "longitude": "6.097123602284583",
        "commune_name": "OUED CHAABA",
        "wilaya_name": "BATNA",
        "type_name": "Fruits et légumes",
        "type_id": 2
    },
    {
        "id": 2396,
        "name": "LAITERIE AURES",
        "address": "Z.I KECHIDA BP 63 BEN BOULAID BATNA",
        "phone_number": null,
        "category": "pv",
        "organization": "GIPLAIT",
        "latitude": "35.56879",
        "longitude": "6.1602",
        "commune_name": "BATNA",
        "wilaya_name": "BATNA",
        "type_name": "Produits laitiers",
        "type_id": 3
    },
    {
        "id": 2397,
        "name": "LAITERIE AURES",
        "address": "BOULVARD HAMLA1 CITE AADL",
        "phone_number": null,
        "category": "pv",
        "organization": "GIPLAIT",
        "latitude": "35.54242",
        "longitude": "6.12761",
        "commune_name": "BATNA",
        "wilaya_name": "BATNA",
        "type_name": "Produits laitiers",
        "type_id": 3
    },
    {
        "id": 2398,
        "name": "LAITERIE SIDI KHALED",
        "address": "CENTRE COMMERCIAL ZAAROURA",
        "phone_number": null,
        "category": "pv",
        "organization": "GIPLAIT",
        "latitude": "35.348639",
        "longitude": "1.314168",
        "commune_name": "TIARET",
        "wilaya_name": "TIARET",
        "type_name": "Produits laitiers",
        "type_id": 3
    },
    {
        "id": 2399,
        "name": "LAITERIE SIDI KHALED",
        "address": "CENTRE COMMERCIAL AUBERGE",
        "phone_number": null,
        "category": "pv",
        "organization": "GIPLAIT",
        "latitude": "35.35816",
        "longitude": "1.328681",
        "commune_name": "TIARET",
        "wilaya_name": "TIARET",
        "type_name": "Produits laitiers",
        "type_id": 3
    },
    {
        "id": 2400,
        "name": "LAITERIE SIDI KHALED",
        "address": "ROUTE DES FRERES KAIDI",
        "phone_number": null,
        "category": "pv",
        "organization": "GIPLAIT",
        "latitude": "35.367929",
        "longitude": "1.313543",
        "commune_name": "TIARET",
        "wilaya_name": "TIARET",
        "type_name": "Produits laitiers",
        "type_id": 3
    },
    {
        "id": 2401,
        "name": "LAITERIE SIDI KHALED",
        "address": " BP Num  398 ZONE INDUSTRIELLE ZAAROURA TIARET",
        "phone_number": null,
        "category": "pv",
        "organization": "GIPLAIT",
        "latitude": "35.32179",
        "longitude": "1.301177",
        "commune_name": "TIARET",
        "wilaya_name": "TIARET",
        "type_name": "Produits laitiers",
        "type_id": 3
    },
    {
        "id": 2402,
        "name": "LAITERIE SIDI KHALED",
        "address": "CENTRE COMMERCIAL BATIMETAL CITE TEFAH",
        "phone_number": null,
        "category": "pv",
        "organization": "GIPLAIT",
        "latitude": "35.372136",
        "longitude": "1.347716",
        "commune_name": "TIARET",
        "wilaya_name": "TIARET",
        "type_name": "Produits laitiers",
        "type_id": 3
    },
    {
        "id": 2403,
        "name": "LAITERIE SIDI KHALED",
        "address": "ROUTE EL BAYDA",
        "phone_number": null,
        "category": "pv",
        "organization": "GIPLAIT",
        "latitude": "35.358527",
        "longitude": "1.328925",
        "commune_name": "TIARET",
        "wilaya_name": "TIARET",
        "type_name": "Produits laitiers",
        "type_id": 3
    },
    {
        "id": 2404,
        "name": "LAITERIE SIDI KHALED",
        "address": "VOLANI",
        "phone_number": null,
        "category": "pv",
        "organization": "GIPLAIT",
        "latitude": "35.35303",
        "longitude": "1.329524",
        "commune_name": "TIARET",
        "wilaya_name": "TIARET",
        "type_name": "Produits laitiers",
        "type_id": 3
    },
    {
        "id": 2405,
        "name": "LAITERIE SIDI KHALED",
        "address": "RUE DES CASTORS",
        "phone_number": null,
        "category": "pv",
        "organization": "GIPLAIT",
        "latitude": "35.602814",
        "longitude": "1.798147",
        "commune_name": "TISSEMSILT",
        "wilaya_name": "TISSEMSILT",
        "type_name": "Produits laitiers",
        "type_id": 3
    },
    {
        "id": 2406,
        "name": "LAITERIE NUMIDIA",
        "address": "Marché Cité Bousouf (Constantine)",
        "phone_number": null,
        "category": "pv",
        "organization": "GIPLAIT",
        "latitude": "36.3642919",
        "longitude": "6.6056116",
        "commune_name": "CONSTANTINE",
        "wilaya_name": "CONSTANTINE",
        "type_name": "Produits laitiers",
        "type_id": 3
    },
    {
        "id": 1511,
        "name": "SIEGE CASSAP",
        "address": "CITE TLIDJANE SETIF",
        "phone_number": "0555037965",
        "category": "pv",
        "organization": "CNA",
        "latitude": "36.187644595414376",
        "longitude": "5.4120437228761595",
        "commune_name": "SETIF",
        "wilaya_name": "SETIF",
        "type_name": "Produits laitiers",
        "type_id": 3
    },
    {
        "id": 1512,
        "name": "SIEGE CASSAP",
        "address": "CITE TLIDJANE SETIF",
        "phone_number": "0550732790",
        "category": "pv",
        "organization": "CNA",
        "latitude": "36.187644595414376",
        "longitude": "5.4120437228761595",
        "commune_name": "SETIF",
        "wilaya_name": "SETIF",
        "type_name": "Viandes",
        "type_id": 1
    },
    {
        "id": 1513,
        "name": "ORAVIE",
        "address": "CITE DES ABATTOIRES SETIF",
        "phone_number": "0770800653",
        "category": "pv",
        "organization": "CNA",
        "latitude": "36.170966370035956",
        "longitude": "5.406781001280373",
        "commune_name": "SETIF",
        "wilaya_name": "SETIF",
        "type_name": "Viandes",
        "type_id": 1
    },
    {
        "id": 1514,
        "name": "ORAVIE (3 POINTS DE VENTE)",
        "address": "CITE BIR NSSA SETIF",
        "phone_number": "0770800653",
        "category": "pv",
        "organization": "CNA",
        "latitude": "36.17685572590059",
        "longitude": "5.476431675464845",
        "commune_name": "SETIF",
        "wilaya_name": "SETIF",
        "type_name": "Viandes",
        "type_id": 1
    },
    {
        "id": 1515,
        "name": "AIN MOUSSE",
        "address": "CITE AIN MOUSSE SETIF",
        "phone_number": "0555037965",
        "category": "pv",
        "organization": "CNA",
        "latitude": "36.20865576085729",
        "longitude": "5.446403208654175",
        "commune_name": "SETIF",
        "wilaya_name": "SETIF",
        "type_name": "Produits laitiers",
        "type_id": 3
    },
    {
        "id": 1516,
        "name": "AIN MOUSSE",
        "address": "CITE AIN MOUSSE SETIF",
        "phone_number": "0770800653",
        "category": "pv",
        "organization": "CNA",
        "latitude": "36.20865576085729",
        "longitude": "5.446403208654175",
        "commune_name": "SETIF",
        "wilaya_name": "SETIF",
        "type_name": "Viandes",
        "type_id": 1
    },
    {
        "id": 1517,
        "name": "le marché de Oued Forcha ",
        "address": "Devant la mosqué EL Kortobi",
        "phone_number": null,
        "category": "pv",
        "organization": "CNA",
        "latitude": "36.909722",
        "longitude": "7.735",
        "commune_name": "ANNABA",
        "wilaya_name": "ANNABA",
        "type_name": "Fruits et légumes",
        "type_id": 2
    },
    {
        "id": 1518,
        "name": "le marché de Bihdid",
        "address": "Devant le centre midicale Dr Dheghri",
        "phone_number": null,
        "category": "pv",
        "organization": "CNA",
        "latitude": "36.890556",
        "longitude": "7.716944",
        "commune_name": "ANNABA",
        "wilaya_name": "ANNABA",
        "type_name": "Fruits et légumes",
        "type_id": 2
    },
    {
        "id": 1519,
        "name": "le marché de Sidi Selem",
        "address": "le marché de Sidi Selem",
        "phone_number": null,
        "category": "pv",
        "organization": "CNA",
        "latitude": "36.855833",
        "longitude": "7.780556",
        "commune_name": "EL BOUNI",
        "wilaya_name": "ANNABA",
        "type_name": "Fruits et légumes",
        "type_id": 2
    },
    {
        "id": 1520,
        "name": "Laiterei Edough",
        "address": "la zone idustrielle  El Bouni",
        "phone_number": null,
        "category": "pv",
        "organization": "CNA",
        "latitude": "36.845278",
        "longitude": "7.751389",
        "commune_name": "EL BOUNI",
        "wilaya_name": "ANNABA",
        "type_name": "Fruits et légumes",
        "type_id": 2
    },
    {
        "id": 1521,
        "name": "le marché de UV 12",
        "address": "UV 12",
        "phone_number": null,
        "category": "pv",
        "organization": "CNA",
        "latitude": "36.820556",
        "longitude": "7.723333",
        "commune_name": "SIDI AMER",
        "wilaya_name": "ANNABA",
        "type_name": "Fruits et légumes",
        "type_id": 2
    },
    {
        "id": 1522,
        "name": "le marché de Merzouk Amar",
        "address": "le marché de Merzouk Amar",
        "phone_number": null,
        "category": "pv",
        "organization": "CNA",
        "latitude": "36.809444",
        "longitude": "7.712778",
        "commune_name": "SIDI AMER",
        "wilaya_name": "ANNABA",
        "type_name": "Fruits et légumes",
        "type_id": 2
    },
    {
        "id": 1523,
        "name": "Complexe Sportif ",
        "address": "Stade Dridi Mokhtar",
        "phone_number": null,
        "category": "pv",
        "organization": "CNA",
        "latitude": "36.808889",
        "longitude": "7.7375",
        "commune_name": "EL HADJAR",
        "wilaya_name": "ANNABA",
        "type_name": "Fruits et légumes",
        "type_id": 2
    },
    {
        "id": 1524,
        "name": "Espace ouvert",
        "address": "Devant la BADR",
        "phone_number": null,
        "category": "pv",
        "organization": "CNA",
        "latitude": "36.806111",
        "longitude": "7.738611",
        "commune_name": "EL HADJAR",
        "wilaya_name": "ANNABA",
        "type_name": "Fruits et légumes",
        "type_id": 2
    },
    {
        "id": 1525,
        "name": "le marché de Bachiri Ibrahim",
        "address": "le marché du centre  ville",
        "phone_number": null,
        "category": "pv",
        "organization": "CNA",
        "latitude": "36.836667",
        "longitude": "7.456389",
        "commune_name": "BERRAHEL ",
        "wilaya_name": "ANNABA",
        "type_name": "Fruits et légumes",
        "type_id": 2
    },
    {
        "id": 1526,
        "name": "le marché de centre ville",
        "address": "le marché du centre  ville",
        "phone_number": null,
        "category": "pv",
        "organization": "CNA",
        "latitude": "36.912222",
        "longitude": "7.678611",
        "commune_name": "SERAIDI",
        "wilaya_name": "ANNABA",
        "type_name": "Fruits et légumes",
        "type_id": 2
    },
    {
        "id": 1527,
        "name": "le marché de centre ville",
        "address": "le marché du centre  ville",
        "phone_number": null,
        "category": "pv",
        "organization": "CNA",
        "latitude": "37.065278",
        "longitude": "7.378611",
        "commune_name": "CHETAIBI",
        "wilaya_name": "ANNABA",
        "type_name": "Fruits et légumes",
        "type_id": 2
    },
    {
        "id": 1528,
        "name": "le marché du centre  ville",
        "address": "le marché du centre  ville",
        "phone_number": null,
        "category": "pv",
        "organization": "CNA",
        "latitude": "36.856111",
        "longitude": "7.518889",
        "commune_name": "OUED EL ANEB",
        "wilaya_name": "ANNABA",
        "type_name": "Fruits et légumes",
        "type_id": 2
    },
    {
        "id": 1529,
        "name": "Djebha",
        "address": "N24 Beni Ksila",
        "phone_number": null,
        "category": "pv",
        "organization": "CNA",
        "latitude": "36.8825",
        "longitude": "4.66191",
        "commune_name": "BENI KSILA",
        "wilaya_name": "BEJAIA",
        "type_name": "Fruits et légumes",
        "type_id": 2
    },
    {
        "id": 1530,
        "name": "Adekar centre",
        "address": "Adekar",
        "phone_number": null,
        "category": "pv",
        "organization": "CNA",
        "latitude": "36.693891",
        "longitude": "4.669138",
        "commune_name": "ADEKAR",
        "wilaya_name": "BEJAIA",
        "type_name": "Fruits et légumes",
        "type_id": 2
    },
    {
        "id": 1531,
        "name": "Sidi Aich centre",
        "address": "Sidi-Aich",
        "phone_number": null,
        "category": "pv",
        "organization": "CNA",
        "latitude": "36.6129",
        "longitude": "4.6883",
        "commune_name": "SIDI AICH",
        "wilaya_name": "BEJAIA",
        "type_name": "Fruits et légumes",
        "type_id": 2
    },
    {
        "id": 1532,
        "name": "Ighzer Amokrane centre",
        "address": "Ouzellaguen",
        "phone_number": null,
        "category": "pv",
        "organization": "CNA",
        "latitude": "36.542",
        "longitude": "4.61291",
        "commune_name": "OUZELAGUEN",
        "wilaya_name": "BEJAIA",
        "type_name": "Fruits et légumes",
        "type_id": 2
    },
    {
        "id": 1533,
        "name": "Akbou centre",
        "address": "Akbou",
        "phone_number": null,
        "category": "pv",
        "organization": "CNA",
        "latitude": "36.4590161",
        "longitude": "4.5334783",
        "commune_name": "AKBOU",
        "wilaya_name": "BEJAIA",
        "type_name": "Fruits et légumes",
        "type_id": 2
    },
    {
        "id": 1534,
        "name": "Tazmalt centre",
        "address": "Tazmalt",
        "phone_number": null,
        "category": "pv",
        "organization": "CNA",
        "latitude": "36.3844",
        "longitude": "4.39927",
        "commune_name": "TAZMALT",
        "wilaya_name": "BEJAIA",
        "type_name": "Fruits et légumes",
        "type_id": 2
    },
    {
        "id": 1535,
        "name": "Seddouk centre",
        "address": "Seddouk",
        "phone_number": null,
        "category": "pv",
        "organization": "CNA",
        "latitude": "36.5472",
        "longitude": "4.68611",
        "commune_name": "SEDDOUK",
        "wilaya_name": "BEJAIA",
        "type_name": "Fruits et légumes",
        "type_id": 2
    },
    {
        "id": 1536,
        "name": "Beni Maouche centre",
        "address": "Markaz Beni Maouche",
        "phone_number": null,
        "category": "pv",
        "organization": "CNA",
        "latitude": "36.506017319028864",
        "longitude": "4.762804680807096",
        "commune_name": "BENI MAOUCHE",
        "wilaya_name": "BEJAIA",
        "type_name": "Fruits et légumes",
        "type_id": 2
    },
    {
        "id": 2407,
        "name": "LAITERIE NUMIDIA",
        "address": "Marché Cité Sidi. Mabrouk (Constantine)",
        "phone_number": null,
        "category": "pv",
        "organization": "GIPLAIT",
        "latitude": "36.3655024",
        "longitude": "6.6405903",
        "commune_name": "CONSTANTINE",
        "wilaya_name": "CONSTANTINE",
        "type_name": "Produits laitiers",
        "type_id": 3
    },
    {
        "id": 1538,
        "name": "Aokas centre",
        "address": "Cité des Palmiers Aokas",
        "phone_number": null,
        "category": "pv",
        "organization": "CNA",
        "latitude": "36.6333",
        "longitude": "5.25",
        "commune_name": "AOKAS",
        "wilaya_name": "BEJAIA",
        "type_name": "Fruits et légumes",
        "type_id": 2
    },
    {
        "id": 1539,
        "name": "Souk-El-Tenine centre",
        "address": "N9 Souk El Ténine",
        "phone_number": null,
        "category": "pv",
        "organization": "CNA",
        "latitude": "36.6252",
        "longitude": "5.33607",
        "commune_name": "SOUK EL THENINE",
        "wilaya_name": "BEJAIA",
        "type_name": "Fruits et légumes",
        "type_id": 2
    },
    {
        "id": 1540,
        "name": "Kherrata centre",
        "address": "N9 Kherrata",
        "phone_number": null,
        "category": "pv",
        "organization": "CNA",
        "latitude": "36.4927",
        "longitude": "5.27759",
        "commune_name": "KHERRATA",
        "wilaya_name": "BEJAIA",
        "type_name": "Fruits et légumes",
        "type_id": 2
    },
    {
        "id": 1541,
        "name": "Barchiche",
        "address": "El Kseur",
        "phone_number": null,
        "category": "pv",
        "organization": "CNA",
        "latitude": "36.678015",
        "longitude": "4.850947",
        "commune_name": "EL KSEUR",
        "wilaya_name": "BEJAIA",
        "type_name": "Fruits et légumes",
        "type_id": 2
    },
    {
        "id": 1542,
        "name": "Amizour",
        "address": "Cité Adjeroud Amizour",
        "phone_number": null,
        "category": "pv",
        "organization": "CNA",
        "latitude": "36.6441",
        "longitude": "4.90561",
        "commune_name": "AMIZOUR",
        "wilaya_name": "BEJAIA",
        "type_name": "Fruits et légumes",
        "type_id": 2
    },
    {
        "id": 1543,
        "name": "Bejaia centre (EDIMCO)",
        "address": "Cité Frères Houacine Béjaia",
        "phone_number": null,
        "category": "pv",
        "organization": "CNA",
        "latitude": "36.7503896",
        "longitude": "5.0567333",
        "commune_name": "BEJAIA",
        "wilaya_name": "BEJAIA",
        "type_name": "Fruits et légumes",
        "type_id": 2
    },
    {
        "id": 1544,
        "name": "Bejaia centre (Souk El Aasar)",
        "address": "Cité Frères Houacine Béjaia",
        "phone_number": null,
        "category": "pv",
        "organization": "CNA",
        "latitude": "36.7503896",
        "longitude": "5.0567333",
        "commune_name": "BEJAIA",
        "wilaya_name": "BEJAIA",
        "type_name": "Fruits et légumes",
        "type_id": 2
    },
    {
        "id": 2408,
        "name": "LAITERIE NUMIDIA",
        "address": "Cité Chaab . Erssas (laiterie)",
        "phone_number": null,
        "category": "pv",
        "organization": "GIPLAIT",
        "latitude": "36.3406896",
        "longitude": "6.6284647",
        "commune_name": "CONSTANTINE",
        "wilaya_name": "CONSTANTINE",
        "type_name": "Produits laitiers",
        "type_id": 3
    },
    {
        "id": 2409,
        "name": "LAITERIE NUMIDIA",
        "address": "Marché Cité Zouaghi (Constantine)",
        "phone_number": null,
        "category": "pv",
        "organization": "GIPLAIT",
        "latitude": "36.300006",
        "longitude": "6.6180091",
        "commune_name": "CONSTANTINE",
        "wilaya_name": "CONSTANTINE",
        "type_name": "Produits laitiers",
        "type_id": 3
    },
    {
        "id": 2410,
        "name": "LAITERIE NUMIDIA",
        "address": "Ain .Abid rue gh",
        "phone_number": null,
        "category": "pv",
        "organization": "GIPLAIT",
        "latitude": "36.271656",
        "longitude": "6.698297",
        "commune_name": "CONSTANTINE",
        "wilaya_name": "CONSTANTINE",
        "type_name": "Produits laitiers",
        "type_id": 3
    },
    {
        "id": 2411,
        "name": "LAITERIE NUMIDIA",
        "address": "Centre ville (Constantine) BOULEVARD BELOUIZDAD",
        "phone_number": null,
        "category": "pv",
        "organization": "GIPLAIT",
        "latitude": "36.3642716",
        "longitude": "6.6055204",
        "commune_name": "CONSTANTINE",
        "wilaya_name": "CONSTANTINE",
        "type_name": "Produits laitiers",
        "type_id": 3
    },
    {
        "id": 2412,
        "name": "LAITERIE NUMIDIA",
        "address": "Marché Cité Bab El Kantra (Constantine)",
        "phone_number": null,
        "category": "pv",
        "organization": "GIPLAIT",
        "latitude": "36.37071",
        "longitude": "6.620958",
        "commune_name": "CONSTANTINE",
        "wilaya_name": "CONSTANTINE",
        "type_name": "Produits laitiers",
        "type_id": 3
    },
    {
        "id": 2413,
        "name": "LAITERIE NUMIDIA",
        "address": "Ferme Pilote BARAOUIA KHROUB",
        "phone_number": null,
        "category": "pv",
        "organization": "GIPLAIT",
        "latitude": "36.2716549",
        "longitude": "6.66698233",
        "commune_name": "CONSTANTINE",
        "wilaya_name": "CONSTANTINE",
        "type_name": "Produits laitiers",
        "type_id": 3
    },
    {
        "id": 2414,
        "name": "LAITERIE NUMIDIA",
        "address": "Cité UV 20(Ali Mendjli)",
        "phone_number": null,
        "category": "pv",
        "organization": "GIPLAIT",
        "latitude": "36.2396822",
        "longitude": "6.583614",
        "commune_name": "CONSTANTINE",
        "wilaya_name": "CONSTANTINE",
        "type_name": "Produits laitiers",
        "type_id": 3
    },
    {
        "id": 2415,
        "name": "LAITERIE NUMIDIA",
        "address": "Cité Massinissa (Khroub)",
        "phone_number": null,
        "category": "pv",
        "organization": "GIPLAIT",
        "latitude": "36.2703272",
        "longitude": "6.7160596",
        "commune_name": "CONSTANTINE",
        "wilaya_name": "CONSTANTINE",
        "type_name": "Produits laitiers",
        "type_id": 3
    },
    {
        "id": 2416,
        "name": "LAITERIE NUMIDIA",
        "address": "Cité Haricha (Ain Smara)",
        "phone_number": null,
        "category": "pv",
        "organization": "GIPLAIT",
        "latitude": "36.2621368",
        "longitude": "6.4856736",
        "commune_name": "CONSTANTINE",
        "wilaya_name": "CONSTANTINE",
        "type_name": "Produits laitiers",
        "type_id": 3
    },
    {
        "id": 2417,
        "name": "LAITERIE NUMIDIA",
        "address": "Oued. Atmania Chelghoum .Laid reu Palastine",
        "phone_number": null,
        "category": "pv",
        "organization": "GIPLAIT",
        "latitude": "36.245773",
        "longitude": "6.286581",
        "commune_name": "CHELGHOUM LAID",
        "wilaya_name": "MILA",
        "type_name": "Produits laitiers",
        "type_id": 3
    },
    {
        "id": 2418,
        "name": "LAITERIE NUMIDIA",
        "address": "Oued Atmania",
        "phone_number": null,
        "category": "pv",
        "organization": "GIPLAIT",
        "latitude": "36.244821",
        "longitude": "6.285848",
        "commune_name": "OUED ATHMENIA",
        "wilaya_name": "MILA",
        "type_name": "Produits laitiers",
        "type_id": 3
    },
    {
        "id": 2419,
        "name": "LAITERIE NUMIDIA",
        "address": "GRAREM",
        "phone_number": null,
        "category": "pv",
        "organization": "GIPLAIT",
        "latitude": "36.51414",
        "longitude": "6.32991",
        "commune_name": "GRAREM GOUGA",
        "wilaya_name": "MILA",
        "type_name": "Produits laitiers",
        "type_id": 3
    },
    {
        "id": 2420,
        "name": "LAITERIE NUMIDIA",
        "address": "Centre ville (Jijel)",
        "phone_number": null,
        "category": "pv",
        "organization": "GIPLAIT",
        "latitude": "36.81063",
        "longitude": "5.762748",
        "commune_name": "CONSTANTINE",
        "wilaya_name": "CONSTANTINE",
        "type_name": "Produits laitiers",
        "type_id": 3
    },
    {
        "id": 2421,
        "name": "LAITERIE NUMIDIA",
        "address": "El Ouana (El. Ouana)",
        "phone_number": null,
        "category": "pv",
        "organization": "GIPLAIT",
        "latitude": "36.773594",
        "longitude": "5.611532",
        "commune_name": "EL AOUANA",
        "wilaya_name": "JIJEL",
        "type_name": "Produits laitiers",
        "type_id": 3
    },
    {
        "id": 2422,
        "name": "LAITERIE NUMIDIA",
        "address": "El Ancer (El Ancer)",
        "phone_number": null,
        "category": "pv",
        "organization": "GIPLAIT",
        "latitude": "36.80015",
        "longitude": "6.155311",
        "commune_name": "EL ANCER",
        "wilaya_name": "JIJEL",
        "type_name": "Produits laitiers",
        "type_id": 3
    },
    {
        "id": 2423,
        "name": "LAITERIE NUMIDIA",
        "address": "Ain. M'lila (Ain. M'lila)",
        "phone_number": null,
        "category": "pv",
        "organization": "GIPLAIT",
        "latitude": "36.039264",
        "longitude": "6.574405",
        "commune_name": "AIN MLILA",
        "wilaya_name": "OUM EL BOUAGHI",
        "type_name": "Produits laitiers",
        "type_id": 3
    },
    {
        "id": 2424,
        "name": "LAITERIE NUMIDIA",
        "address": "Souk. Noumne (Souk Noumane)",
        "phone_number": null,
        "category": "pv",
        "organization": "GIPLAIT",
        "latitude": "35.899103",
        "longitude": "6.385024",
        "commune_name": "SOUK NAAMANE",
        "wilaya_name": "OUM EL BOUAGHI",
        "type_name": "Produits laitiers",
        "type_id": 3
    },
    {
        "id": 2425,
        "name": "LAITERIE NUMIDIA",
        "address": "Ouled. Hamla (Ouled. Hamla)Ain. Beida",
        "phone_number": null,
        "category": "pv",
        "organization": "GIPLAIT",
        "latitude": "36.080059",
        "longitude": "6.470932",
        "commune_name": "AIN BEIDA",
        "wilaya_name": "OUM EL BOUAGHI",
        "type_name": "Produits laitiers",
        "type_id": 3
    },
    {
        "id": 2426,
        "name": "LAITERIE NUMIDIA",
        "address": "Chef lieu",
        "phone_number": null,
        "category": "pv",
        "organization": "GIPLAIT",
        "latitude": "35.8724444",
        "longitude": "7.1096944",
        "commune_name": "OUM EL BOUAGHI",
        "wilaya_name": "OUM EL BOUAGHI",
        "type_name": "Produits laitiers",
        "type_id": 3
    },
    {
        "id": 2427,
        "name": "LAITERIE NUMIDIA",
        "address": "Ain el beidha",
        "phone_number": null,
        "category": "pv",
        "organization": "GIPLAIT",
        "latitude": "35.799",
        "longitude": "7.38361",
        "commune_name": "AIN BEIDA",
        "wilaya_name": "OUM EL BOUAGHI",
        "type_name": "Produits laitiers",
        "type_id": 3
    },
    {
        "id": 1549,
        "name": "EAI 20 ALI KHOUDJA",
        "address": "EAI 20 ALI KHOUDJA",
        "phone_number": null,
        "category": "pv",
        "organization": "CNA",
        "latitude": "36.7487008",
        "longitude": "3.1996762",
        "commune_name": "BORDJ EL KIFFAN",
        "wilaya_name": "ALGER",
        "type_name": "Fruits et légumes",
        "type_id": 2
    },
    {
        "id": 1550,
        "name": "EAC 1 OUAZANE",
        "address": "EAC 1 OUAZANE",
        "phone_number": null,
        "category": "pv",
        "organization": "CNA",
        "latitude": "36.7494699",
        "longitude": "3.2043322",
        "commune_name": "BORDJ EL KIFFAN",
        "wilaya_name": "ALGER",
        "type_name": "Fruits et légumes",
        "type_id": 2
    },
    {
        "id": 1551,
        "name": "EAC 4 OUAZANE",
        "address": "EAC 4 OUAZANE",
        "phone_number": null,
        "category": "pv",
        "organization": "CNA",
        "latitude": "36.750089",
        "longitude": "3.203888",
        "commune_name": "BORDJ EL KIFFAN",
        "wilaya_name": "ALGER",
        "type_name": "Fruits et légumes",
        "type_id": 2
    },
    {
        "id": 1552,
        "name": "EAC 5 OUAZANE",
        "address": "EAC 5 OUAZANE",
        "phone_number": null,
        "category": "pv",
        "organization": "CNA",
        "latitude": "36.75095",
        "longitude": "3.203223",
        "commune_name": "BORDJ EL KIFFAN",
        "wilaya_name": "ALGER",
        "type_name": "Fruits et légumes",
        "type_id": 2
    },
    {
        "id": 1553,
        "name": "EAC 6 KAIDI",
        "address": "EAC 6 KAIDI",
        "phone_number": null,
        "category": "pv",
        "organization": "CNA",
        "latitude": "36.7293889",
        "longitude": "3.2089496",
        "commune_name": "BORDJ EL KIFFAN",
        "wilaya_name": "ALGER",
        "type_name": "Fruits et légumes",
        "type_id": 2
    },
    {
        "id": 1554,
        "name": "EAC 4 ABILA ",
        "address": "EAC 4 ABILA ",
        "phone_number": null,
        "category": "pv",
        "organization": "CNA",
        "latitude": "36.7504472",
        "longitude": "3.199691",
        "commune_name": "BORDJ EL KIFFAN",
        "wilaya_name": "ALGER",
        "type_name": "Fruits et légumes",
        "type_id": 2
    },
    {
        "id": 1555,
        "name": "EAC 6 MIMOUNI",
        "address": "EAC 6 MIMOUNI",
        "phone_number": null,
        "category": "pv",
        "organization": "CNA",
        "latitude": "36.7420252",
        "longitude": "3.2091655",
        "commune_name": "BORDJ EL KIFFAN",
        "wilaya_name": "ALGER",
        "type_name": "Fruits et légumes",
        "type_id": 2
    },
    {
        "id": 1556,
        "name": "EAC 5 BOURAADA ",
        "address": "EAC 5 BOURAADA ",
        "phone_number": null,
        "category": "pv",
        "organization": "CNA",
        "latitude": "36.763618",
        "longitude": "3.368104",
        "commune_name": "REGHAIA",
        "wilaya_name": "ALGER",
        "type_name": "Fruits et légumes",
        "type_id": 2
    },
    {
        "id": 1557,
        "name": "EAC 5 BOURAADA (2ème point)",
        "address": "EAC 5 BOURAADA (2ème point)",
        "phone_number": null,
        "category": "pv",
        "organization": "CNA",
        "latitude": "36.763618",
        "longitude": "3.368104",
        "commune_name": "REGHAIA",
        "wilaya_name": "ALGER",
        "type_name": "Fruits et légumes",
        "type_id": 2
    },
    {
        "id": 1558,
        "name": "EAC 11 SANTOUHI ",
        "address": "EAC 11 SANTOUHI ",
        "phone_number": null,
        "category": "pv",
        "organization": "CNA",
        "latitude": "36.7985227",
        "longitude": "3.2708925",
        "commune_name": "AIN TAYA",
        "wilaya_name": "ALGER",
        "type_name": "Fruits et légumes",
        "type_id": 2
    },
    {
        "id": 1559,
        "name": "EAC 04 HAMDANE ALI",
        "address": "EAC 04 HAMDANE ALI",
        "phone_number": null,
        "category": "pv",
        "organization": "CNA",
        "latitude": "36.8011792",
        "longitude": "3.2658054",
        "commune_name": "AIN TAYA",
        "wilaya_name": "ALGER",
        "type_name": "Fruits et légumes",
        "type_id": 2
    },
    {
        "id": 1560,
        "name": "EAC 2 ALI MOKRANE",
        "address": "EAC 2 ALI MOKRANE",
        "phone_number": null,
        "category": "pv",
        "organization": "CNA",
        "latitude": "36.804897",
        "longitude": "3.2395322",
        "commune_name": "AIN TAYA",
        "wilaya_name": "ALGER",
        "type_name": "Fruits et légumes",
        "type_id": 2
    },
    {
        "id": 2428,
        "name": "LAITERIE NUMIDIA",
        "address": "Chef Lieu",
        "phone_number": null,
        "category": "pv",
        "organization": "GIPLAIT",
        "latitude": "36.407832",
        "longitude": "8.1127",
        "commune_name": "TEBESSA",
        "wilaya_name": "TEBESSA",
        "type_name": "Produits laitiers",
        "type_id": 3
    },
    {
        "id": 1938,
        "name": "CCLS ADRAR",
        "address": "CCLS ADRAR",
        "phone_number": null,
        "category": "pv",
        "organization": "OAIC",
        "latitude": "27.89778568626998",
        "longitude": "-0.2908560167735139",
        "commune_name": "ADRAR",
        "wilaya_name": "ADRAR",
        "type_name": "Légumes secs",
        "type_id": 5
    },
    {
        "id": 1939,
        "name": "CCLS EL KHEMIS",
        "address": "126 RUE COLONEL BOUGARA khemis miliana",
        "phone_number": null,
        "category": "pv",
        "organization": "OAIC",
        "latitude": "36.262008169513116",
        "longitude": "2.210876789775837",
        "commune_name": "KHEMIS MILIANA",
        "wilaya_name": "AIN DEFLA",
        "type_name": "Légumes secs",
        "type_id": 5
    },
    {
        "id": 1940,
        "name": "CCLS AIN TEMOUCHENT",
        "address": "rue raho kada ex khemisti ain temouchent",
        "phone_number": null,
        "category": "pv",
        "organization": "OAIC",
        "latitude": "35.29726883902148",
        "longitude": "-1.140005165174029",
        "commune_name": "AIN TEMOUCHENT",
        "wilaya_name": "AIN TEMOUCHENT",
        "type_name": "Légumes secs",
        "type_id": 5
    },
    {
        "id": 1941,
        "name": "CCLS Hammam Bouhadjar",
        "address": "13 RUE BELHOCINE SAID Hammam Bouhadjar",
        "phone_number": null,
        "category": "pv",
        "organization": "OAIC",
        "latitude": "35.37770396340779",
        "longitude": "-0.9691251204636254",
        "commune_name": "HAMMAM BOUHADJAR",
        "wilaya_name": "AIN TEMOUCHENT",
        "type_name": "Légumes secs",
        "type_id": 5
    },
    {
        "id": 1942,
        "name": "uca alger",
        "address": "Rue Alioua Fodil Chéraga",
        "phone_number": null,
        "category": "pv",
        "organization": "OAIC",
        "latitude": "36.76669498597593",
        "longitude": "2.9489667276295006",
        "commune_name": "CHERAGA",
        "wilaya_name": "ALGER",
        "type_name": "Légumes secs",
        "type_id": 5
    },
    {
        "id": 1943,
        "name": "uca alger",
        "address": "Rue Boudjemaa Moghni Hussein Dey",
        "phone_number": null,
        "category": "pv",
        "organization": "OAIC",
        "latitude": "36.73788159951936",
        "longitude": "3.1019360694090206",
        "commune_name": "HUSSEIN DEY",
        "wilaya_name": "ALGER",
        "type_name": "Légumes secs",
        "type_id": 5
    },
    {
        "id": 1944,
        "name": "uca alger",
        "address": "Boulevard Mouloud Feraoun  Dar el Beida",
        "phone_number": null,
        "category": "pv",
        "organization": "OAIC",
        "latitude": "36.71415256568001",
        "longitude": "3.2130126942050232",
        "commune_name": "ROUIBA",
        "wilaya_name": "ALGER",
        "type_name": "Légumes secs",
        "type_id": 5
    },
    {
        "id": 1945,
        "name": "uca alger",
        "address": "ain benian",
        "phone_number": null,
        "category": "pv",
        "organization": "OAIC",
        "latitude": "36.798841862280256",
        "longitude": "2.9235387426014303",
        "commune_name": "AIN BENIAN",
        "wilaya_name": "ALGER",
        "type_name": "Légumes secs",
        "type_id": 5
    },
    {
        "id": 1946,
        "name": "ccls annaba",
        "address": "el hadjar",
        "phone_number": null,
        "category": "pv",
        "organization": "OAIC",
        "latitude": "36.792368",
        "longitude": "7.738085",
        "commune_name": "EL HADJAR",
        "wilaya_name": "ANNABA",
        "type_name": "Légumes secs",
        "type_id": 5
    },
    {
        "id": 1947,
        "name": "ccls batna",
        "address": "Route Wilaya Num  160 Foum Toub Centre",
        "phone_number": null,
        "category": "pv",
        "organization": "OAIC",
        "latitude": "35.405006",
        "longitude": "6.550094",
        "commune_name": "FOUM TOUB",
        "wilaya_name": "BATNA",
        "type_name": "Légumes secs",
        "type_id": 5
    },
    {
        "id": 1948,
        "name": "ccls batna",
        "address": "Zone Industriel Barika",
        "phone_number": null,
        "category": "pv",
        "organization": "OAIC",
        "latitude": "35.377688",
        "longitude": "5.380753",
        "commune_name": "BARIKA",
        "wilaya_name": "BATNA",
        "type_name": "Légumes secs",
        "type_id": 5
    },
    {
        "id": 1949,
        "name": "ccls batna",
        "address": "Rue Louchene Tahar N28 Ain Touta",
        "phone_number": null,
        "category": "pv",
        "organization": "OAIC",
        "latitude": "35.378612",
        "longitude": "5.898845",
        "commune_name": "AIN TOUTA",
        "wilaya_name": "BATNA",
        "type_name": "Légumes secs",
        "type_id": 5
    },
    {
        "id": 1950,
        "name": "ccls batna",
        "address": "Route Wilaya Num  20 Boulefrais Centre",
        "phone_number": null,
        "category": "pv",
        "organization": "OAIC",
        "latitude": "35.51665",
        "longitude": "6.75334",
        "commune_name": "OULED FADHEL",
        "wilaya_name": "BATNA",
        "type_name": "Légumes secs",
        "type_id": 5
    },
    {
        "id": 1951,
        "name": "ccls batna",
        "address": "Ras El Aioune Centre Ville",
        "phone_number": null,
        "category": "pv",
        "organization": "OAIC",
        "latitude": "35.676944",
        "longitude": "5.654188",
        "commune_name": "RAS EL AIOUN",
        "wilaya_name": "BATNA",
        "type_name": "Légumes secs",
        "type_id": 5
    },
    {
        "id": 1952,
        "name": "ccls batna",
        "address": "Route National Num  87 Timgad",
        "phone_number": null,
        "category": "pv",
        "organization": "OAIC",
        "latitude": "35.496619",
        "longitude": "6.467363",
        "commune_name": "TIMGAD",
        "wilaya_name": "BATNA",
        "type_name": "Légumes secs",
        "type_id": 5
    },
    {
        "id": 1953,
        "name": "ccls bechar",
        "address": "05 ROUTE DE BACHAR DJADID BP342",
        "phone_number": null,
        "category": "pv",
        "organization": "OAIC",
        "latitude": "31.58593",
        "longitude": "-2.22503",
        "commune_name": "BECHAR",
        "wilaya_name": "BECHAR",
        "type_name": "Légumes secs",
        "type_id": 5
    },
    {
        "id": 1954,
        "name": "uca bejaia",
        "address": "Rue des Freres Amranie arriere port Béjaia",
        "phone_number": null,
        "category": "pv",
        "organization": "OAIC",
        "latitude": "36.753032",
        "longitude": "5.087131",
        "commune_name": "BEJAIA",
        "wilaya_name": "BEJAIA",
        "type_name": "Légumes secs",
        "type_id": 5
    },
    {
        "id": 1955,
        "name": "uca bejaia",
        "address": "ibourassene cne Oued Ghir",
        "phone_number": null,
        "category": "pv",
        "organization": "OAIC",
        "latitude": "36.71018",
        "longitude": "4.99249",
        "commune_name": "OUED GHIR",
        "wilaya_name": "BEJAIA",
        "type_name": "Légumes secs",
        "type_id": 5
    },
    {
        "id": 1956,
        "name": "ccls biskra",
        "address": "Zone d'équipement Biskra",
        "phone_number": null,
        "category": "pv",
        "organization": "OAIC",
        "latitude": "34.86453181876192",
        "longitude": "5.721220308745603",
        "commune_name": "BISKRA",
        "wilaya_name": "BISKRA",
        "type_name": "Légumes secs",
        "type_id": 5
    },
    {
        "id": 1957,
        "name": "CCLS BOURDJ BOU ARRERIDJ",
        "address": "ROUTE PRINCIPALE El Annasser",
        "phone_number": null,
        "category": "pv",
        "organization": "OAIC",
        "latitude": "36.05711989171826",
        "longitude": "4.785695066856893",
        "commune_name": "BORDJ BOU ARRERIDJ",
        "wilaya_name": "BORDJ BOU ARRERIDJ",
        "type_name": "Légumes secs",
        "type_id": 5
    },
    {
        "id": 1958,
        "name": "CCLS BOURDJ BOU ARRERIDJ",
        "address": "rue bagadi cherif",
        "phone_number": null,
        "category": "pv",
        "organization": "OAIC",
        "latitude": "36.06471408035034",
        "longitude": "4.75496390999722",
        "commune_name": "BORDJ BOU ARRERIDJ",
        "wilaya_name": "BORDJ BOU ARRERIDJ",
        "type_name": "Légumes secs",
        "type_id": 5
    },
    {
        "id": 1959,
        "name": "CCLS BOURDJ BOU ARRERIDJ",
        "address": "BIR KASDALI CENTRE VILLE",
        "phone_number": null,
        "category": "pv",
        "organization": "OAIC",
        "latitude": "36.144423575406485",
        "longitude": "5.031648510372802",
        "commune_name": "BIR KASDALI",
        "wilaya_name": "BORDJ BOU ARRERIDJ",
        "type_name": "Légumes secs",
        "type_id": 5
    },
    {
        "id": 1960,
        "name": "ccls Bouira",
        "address": "Magasin sacherie Rue Rechak Ali Bouira",
        "phone_number": null,
        "category": "pv",
        "organization": "OAIC",
        "latitude": "36.37812955019137",
        "longitude": "3.8975207259038323",
        "commune_name": "BOUIRA",
        "wilaya_name": "BOUIRA",
        "type_name": "Légumes secs",
        "type_id": 5
    },
    {
        "id": 1961,
        "name": "ccls Bouira",
        "address": "Route Boussaada Sour El Ghozlane ",
        "phone_number": null,
        "category": "pv",
        "organization": "OAIC",
        "latitude": "36.13627282692553",
        "longitude": "3.692907709422785",
        "commune_name": "SOUR EL GHOZLANE",
        "wilaya_name": "BOUIRA",
        "type_name": "Légumes secs",
        "type_id": 5
    },
    {
        "id": 1962,
        "name": "ccls Bouira",
        "address": "Centre ville  Bordj Khriss",
        "phone_number": null,
        "category": "pv",
        "organization": "OAIC",
        "latitude": "36.08602099989958",
        "longitude": "3.991281671894728",
        "commune_name": "BORDJ OUKHRISS",
        "wilaya_name": "BOUIRA",
        "type_name": "Légumes secs",
        "type_id": 5
    },
    {
        "id": 1963,
        "name": "ccls Bouira",
        "address": "Rue Kermia Mebrouk Ain Bessam",
        "phone_number": null,
        "category": "pv",
        "organization": "OAIC",
        "latitude": "36.295358218397006",
        "longitude": "3.668544370078248",
        "commune_name": "AIN BESSAM",
        "wilaya_name": "BOUIRA",
        "type_name": "Légumes secs",
        "type_id": 5
    },
    {
        "id": 1964,
        "name": "ccls tizi ouzou",
        "address": "Rue Yahia Boushari Thénia  Boumerdes (Unité Thénia)",
        "phone_number": null,
        "category": "pv",
        "organization": "OAIC",
        "latitude": "36.72549337173086",
        "longitude": "3.559943500713513",
        "commune_name": "THENIA",
        "wilaya_name": "BOUMERDES",
        "type_name": "Légumes secs",
        "type_id": 5
    },
    {
        "id": 1965,
        "name": "CCLS TENES",
        "address": "Station Oued Sly  Cité Abdeli Oued Sly",
        "phone_number": null,
        "category": "pv",
        "organization": "OAIC",
        "latitude": "36.106413",
        "longitude": "1.194841",
        "commune_name": "OUED SLY",
        "wilaya_name": "CHLEF",
        "type_name": "Légumes secs",
        "type_id": 5
    },
    {
        "id": 1966,
        "name": "CCLS TENES",
        "address": "Station Ouled Farres RN 19 centre Ouled Fares ",
        "phone_number": null,
        "category": "pv",
        "organization": "OAIC",
        "latitude": "36.226154",
        "longitude": "1.23458",
        "commune_name": "OULED FARES",
        "wilaya_name": "CHLEF",
        "type_name": "Légumes secs",
        "type_id": 5
    },
    {
        "id": 1967,
        "name": "CCLS TENES",
        "address": "Dock Métal Chlef  Route d'Alger Chlef",
        "phone_number": null,
        "category": "pv",
        "organization": "OAIC",
        "latitude": "36.175738",
        "longitude": "1.354213",
        "commune_name": "CHLEF",
        "wilaya_name": "CHLEF",
        "type_name": "Légumes secs",
        "type_id": 5
    },
    {
        "id": 1968,
        "name": "CCLS TENES",
        "address": "Abou El Hassen Cite Abou  Abou El Hassen",
        "phone_number": null,
        "category": "pv",
        "organization": "OAIC",
        "latitude": "35.692364",
        "longitude": "4.533764",
        "commune_name": "ABOU EL HASSEN",
        "wilaya_name": "CHLEF",
        "type_name": "Légumes secs",
        "type_id": 5
    },
    {
        "id": 1969,
        "name": "ccls constantine",
        "address": "el khroub centre ville",
        "phone_number": null,
        "category": "pv",
        "organization": "OAIC",
        "latitude": "36.259897",
        "longitude": "6.692494",
        "commune_name": "EL KHROUB",
        "wilaya_name": "CONSTANTINE",
        "type_name": "Légumes secs",
        "type_id": 5
    },
    {
        "id": 1970,
        "name": "ccls constantine",
        "address": "bab el kantra",
        "phone_number": null,
        "category": "pv",
        "organization": "OAIC",
        "latitude": "36.370541",
        "longitude": "6.618752",
        "commune_name": "CONSTANTINE",
        "wilaya_name": "CONSTANTINE",
        "type_name": "Légumes secs",
        "type_id": 5
    },
    {
        "id": 1971,
        "name": "ccls constantine",
        "address": "rue l'arbi ben mhidi",
        "phone_number": null,
        "category": "pv",
        "organization": "OAIC",
        "latitude": "36.455611",
        "longitude": "6.635661",
        "commune_name": "DIDOUCHE MOURAD",
        "wilaya_name": "CONSTANTINE",
        "type_name": "Légumes secs",
        "type_id": 5
    },
    {
        "id": 1972,
        "name": "ccls constantine",
        "address": "zighoud youcef",
        "phone_number": null,
        "category": "pv",
        "organization": "OAIC",
        "latitude": "36.5320247186958",
        "longitude": "6.713369997722353",
        "commune_name": "ZIGHOUD YOUCEF",
        "wilaya_name": "CONSTANTINE",
        "type_name": "Légumes secs",
        "type_id": 5
    },
    {
        "id": 1973,
        "name": "ccls constantine",
        "address": "ain abid constantine",
        "phone_number": null,
        "category": "pv",
        "organization": "OAIC",
        "latitude": "36.23518",
        "longitude": "6.941763",
        "commune_name": "AIN ABID",
        "wilaya_name": "CONSTANTINE",
        "type_name": "Légumes secs",
        "type_id": 5
    },
    {
        "id": 1974,
        "name": "CCLS DJELFA",
        "address": "Zone industrielle Djelfa-17000 Djelfa-BP-1242",
        "phone_number": null,
        "category": "pv",
        "organization": "OAIC",
        "latitude": "34.64327421846821",
        "longitude": "3.2541092389499586",
        "commune_name": "DJELFA",
        "wilaya_name": "DJELFA",
        "type_name": "Légumes secs",
        "type_id": 5
    },
    {
        "id": 1975,
        "name": "ccls annaba",
        "address": "ain assel",
        "phone_number": null,
        "category": "pv",
        "organization": "OAIC",
        "latitude": "36.780939",
        "longitude": "8.377563",
        "commune_name": "AIN EL ASSEL",
        "wilaya_name": "EL TARF",
        "type_name": "Légumes secs",
        "type_id": 5
    },
    {
        "id": 1976,
        "name": "ccls annaba",
        "address": "chbita",
        "phone_number": null,
        "category": "pv",
        "organization": "OAIC",
        "latitude": "36.763999",
        "longitude": "7.742111",
        "commune_name": "CHEBAITA MOKHTAR",
        "wilaya_name": "EL TARF",
        "type_name": "Légumes secs",
        "type_id": 5
    },
    {
        "id": 1977,
        "name": "CCLS GUELMA",
        "address": "ROUTE DE BELKHEIR",
        "phone_number": null,
        "category": "pv",
        "organization": "OAIC",
        "latitude": "36.46567135215308",
        "longitude": "7.442336845210601",
        "commune_name": "GUELMA",
        "wilaya_name": "GUELMA",
        "type_name": "Légumes secs",
        "type_id": 5
    },
    {
        "id": 1978,
        "name": "CCLS GUELMA",
        "address": "RUE LATRACHE SALAH",
        "phone_number": null,
        "category": "pv",
        "organization": "OAIC",
        "latitude": "36.443677687738806",
        "longitude": "7.3094246685150095",
        "commune_name": "MEDJEZ AMAR",
        "wilaya_name": "GUELMA",
        "type_name": "Légumes secs",
        "type_id": 5
    },
    {
        "id": 1979,
        "name": "CCLS GUELMA",
        "address": "RUE MOHAMED FILALI",
        "phone_number": null,
        "category": "pv",
        "organization": "OAIC",
        "latitude": "36.25731652328385",
        "longitude": "7.074998048608175",
        "commune_name": "AIN REGGADA",
        "wilaya_name": "GUELMA",
        "type_name": "Légumes secs",
        "type_id": 5
    },
    {
        "id": 1980,
        "name": "CCLS GUELMA",
        "address": "RUE GUERZIZE LAACHI",
        "phone_number": null,
        "category": "pv",
        "organization": "OAIC",
        "latitude": "36.243016868292955",
        "longitude": "7.25064604416599",
        "commune_name": "AIN MAKHLOUF",
        "wilaya_name": "GUELMA",
        "type_name": "Légumes secs",
        "type_id": 5
    },
    {
        "id": 1981,
        "name": "CCLS GUELMA",
        "address": "OUED FRAGHA",
        "phone_number": null,
        "category": "pv",
        "organization": "OAIC",
        "latitude": "36.55653621380839",
        "longitude": "7.714216353266764",
        "commune_name": "OUED FRAGHA",
        "wilaya_name": "GUELMA",
        "type_name": "Légumes secs",
        "type_id": 5
    },
    {
        "id": 1982,
        "name": "CCLS KHENCHELA",
        "address": "CITE EL AMIR ABDELKADER ",
        "phone_number": null,
        "category": "pv",
        "organization": "OAIC",
        "latitude": "35.491356427207066",
        "longitude": "6.926511039893471",
        "commune_name": "KAIS",
        "wilaya_name": "KHENCHELA",
        "type_name": "Légumes secs",
        "type_id": 5
    },
    {
        "id": 1983,
        "name": "CCLS KHENCHELA",
        "address": "centre ville baghai",
        "phone_number": null,
        "category": "pv",
        "organization": "OAIC",
        "latitude": "35.521511130739036",
        "longitude": "7.114177425989971",
        "commune_name": "BAGHAI",
        "wilaya_name": "KHENCHELA",
        "type_name": "Légumes secs",
        "type_id": 5
    },
    {
        "id": 1984,
        "name": "CCLS KHENCHELA",
        "address": "centre ville ouled rechache",
        "phone_number": null,
        "category": "pv",
        "organization": "OAIC",
        "latitude": "35.292820506214895",
        "longitude": "7.356281186709605",
        "commune_name": "OULED RECHACHE",
        "wilaya_name": "KHENCHELA",
        "type_name": "Légumes secs",
        "type_id": 5
    },
    {
        "id": 1985,
        "name": "CCLS LAGHOUAT",
        "address": "Zone Industrielle Bouchakour Laghouat-Ccls Laghouat",
        "phone_number": null,
        "category": "pv",
        "organization": "OAIC",
        "latitude": "33.75666710113822",
        "longitude": "2.8850017398596393",
        "commune_name": "LAGHOUAT",
        "wilaya_name": "LAGHOUAT",
        "type_name": "Légumes secs",
        "type_id": 5
    },
    {
        "id": 1986,
        "name": "CCLS LAGHOUAT",
        "address": "Aflou: le marché organisé par la Direction de Commerce ",
        "phone_number": null,
        "category": "pv",
        "organization": "OAIC",
        "latitude": "34.12035412837049",
        "longitude": "2.1090576226803517",
        "commune_name": "AFLOU",
        "wilaya_name": "LAGHOUAT",
        "type_name": "Légumes secs",
        "type_id": 5
    },
    {
        "id": 1987,
        "name": "ccls kascara",
        "address": "RUE SLATNA MARCHE DES FRUITS ET LEGUMES",
        "phone_number": null,
        "category": "pv",
        "organization": "OAIC",
        "latitude": "35.803411",
        "longitude": "0.047463",
        "commune_name": "BOU HANIFIA",
        "wilaya_name": "MASCARA",
        "type_name": "Légumes secs",
        "type_id": 5
    },
    {
        "id": 1988,
        "name": "CCLS MASCARA",
        "address": "RUE SLATNA MARCHE COUVERT",
        "phone_number": null,
        "category": "pv",
        "organization": "OAIC",
        "latitude": "35.396594875043014",
        "longitude": "0.15265481047176283",
        "commune_name": "MASCARA",
        "wilaya_name": "MASCARA",
        "type_name": "Légumes secs",
        "type_id": 5
    },
    {
        "id": 1989,
        "name": "Ccls Berrouaghia",
        "address": "Route de la gare -Berrouaghia - wilaya de médéa",
        "phone_number": null,
        "category": "pv",
        "organization": "OAIC",
        "latitude": "36.14173890129863",
        "longitude": "2.9148611563660487",
        "commune_name": "MEDEA",
        "wilaya_name": "MEDEA",
        "type_name": "Légumes secs",
        "type_id": 5
    },
    {
        "id": 1990,
        "name": "Ccls Berrouaghia",
        "address": "Ain Dhab Médéa le marché organisé par la Direction de Commerce ",
        "phone_number": null,
        "category": "pv",
        "organization": "OAIC",
        "latitude": "36.26446597023816",
        "longitude": "2.7898779230925137",
        "commune_name": "MEDEA",
        "wilaya_name": "MEDEA",
        "type_name": "Légumes secs",
        "type_id": 5
    },
    {
        "id": 1991,
        "name": "CCLS MILA",
        "address": " Rue 20 Aout Oued Athmenia",
        "phone_number": null,
        "category": "pv",
        "organization": "OAIC",
        "latitude": "36.248675",
        "longitude": "6.284864",
        "commune_name": "MILA",
        "wilaya_name": "MILA",
        "type_name": "Légumes secs",
        "type_id": 5
    },
    {
        "id": 1992,
        "name": "CCLS MILA",
        "address": "Cité Sedrati Ammar Ch Laid ",
        "phone_number": null,
        "category": "pv",
        "organization": "OAIC",
        "latitude": "36.160726",
        "longitude": "6.167228",
        "commune_name": "CHELGHOUM LAID",
        "wilaya_name": "MILA",
        "type_name": "Légumes secs",
        "type_id": 5
    },
    {
        "id": 1993,
        "name": "CCLS MILA",
        "address": "Rue PalestineNum  10 Oued Endja",
        "phone_number": null,
        "category": "pv",
        "organization": "OAIC",
        "latitude": "36.430868",
        "longitude": "6.123383",
        "commune_name": "OUED ENDJA",
        "wilaya_name": "MILA",
        "type_name": "Légumes secs",
        "type_id": 5
    },
    {
        "id": 1994,
        "name": "CCLS MILA",
        "address": "Zone Industrielle Ferdjioua",
        "phone_number": null,
        "category": "pv",
        "organization": "OAIC",
        "latitude": "36.405292",
        "longitude": "5.935588",
        "commune_name": "FERDJIOUA",
        "wilaya_name": "MILA",
        "type_name": "Légumes secs",
        "type_id": 5
    },
    {
        "id": 1995,
        "name": "CCLS MILA",
        "address": "Cité La GareZone Industrielle Tadjenanet ",
        "phone_number": null,
        "category": "pv",
        "organization": "OAIC",
        "latitude": "36.111642",
        "longitude": "5.986684",
        "commune_name": "TADJENANET",
        "wilaya_name": "MILA",
        "type_name": "Légumes secs",
        "type_id": 5
    },
    {
        "id": 1996,
        "name": "CCLS MILA",
        "address": "Zone D'activité Industrielle Telaghma",
        "phone_number": null,
        "category": "pv",
        "organization": "OAIC",
        "latitude": "36.112438",
        "longitude": "6.381268",
        "commune_name": "TELERGHEMA",
        "wilaya_name": "MILA",
        "type_name": "Légumes secs",
        "type_id": 5
    },
    {
        "id": 1997,
        "name": "CCLS MILA",
        "address": "Cité Abdelhamid Ibne Badis M'chira",
        "phone_number": null,
        "category": "pv",
        "organization": "OAIC",
        "latitude": "36.012434",
        "longitude": "6.232721",
        "commune_name": "EL MECHIRA",
        "wilaya_name": "MILA",
        "type_name": "Légumes secs",
        "type_id": 5
    },
    {
        "id": 1998,
        "name": "uca mostaganem",
        "address": "Rue Tahlaiti Othmane",
        "phone_number": null,
        "category": "pv",
        "organization": "OAIC",
        "latitude": "35.91813395166173",
        "longitude": "0.08890663395076627",
        "commune_name": "MOSTAGANEM",
        "wilaya_name": "MOSTAGANEM",
        "type_name": "Légumes secs",
        "type_id": 5
    },
    {
        "id": 1999,
        "name": "uca mostaganem",
        "address": "marché 5 juillet",
        "phone_number": null,
        "category": "pv",
        "organization": "OAIC",
        "latitude": "35.91914722397338",
        "longitude": "0.09895021433078836",
        "commune_name": "MOSTAGANEM",
        "wilaya_name": "MOSTAGANEM",
        "type_name": "Légumes secs",
        "type_id": 5
    },
    {
        "id": 2000,
        "name": "uca mostaganem",
        "address": "route de relizane Mesra",
        "phone_number": null,
        "category": "pv",
        "organization": "OAIC",
        "latitude": "35.840194",
        "longitude": "0.166139",
        "commune_name": "MESRA",
        "wilaya_name": "MOSTAGANEM",
        "type_name": "Légumes secs",
        "type_id": 5
    },
    {
        "id": 2001,
        "name": "uca mostaganem",
        "address": "sidi othmane",
        "phone_number": null,
        "category": "pv",
        "organization": "OAIC",
        "latitude": "35.94270018437835",
        "longitude": "0.11755390370692682",
        "commune_name": "SAYADA",
        "wilaya_name": "MOSTAGANEM",
        "type_name": "Légumes secs",
        "type_id": 5
    },
    {
        "id": 2002,
        "name": "CCLS M'sila",
        "address": "Num :0109 El Hai Elatik Commune de  Mdjedel",
        "phone_number": null,
        "category": "pv",
        "organization": "OAIC",
        "latitude": "35.146917",
        "longitude": "3.68321",
        "commune_name": "MEDJEDEL",
        "wilaya_name": "M'SILA",
        "type_name": "Légumes secs",
        "type_id": 5
    },
    {
        "id": 2003,
        "name": "CCLS M'sila",
        "address": "ADM de l'Indépendance  commune Sidi Aissa",
        "phone_number": null,
        "category": "pv",
        "organization": "OAIC",
        "latitude": "35.887721",
        "longitude": "3.77385",
        "commune_name": "SIDI AISSA",
        "wilaya_name": "M'SILA",
        "type_name": "Légumes secs",
        "type_id": 5
    },
    {
        "id": 2004,
        "name": "CCLS M'sila",
        "address": "Zone Industrielle bp 120  M'Sila Siège M'sila",
        "phone_number": null,
        "category": "pv",
        "organization": "OAIC",
        "latitude": "35.69209626888698",
        "longitude": "4.534467394899216",
        "commune_name": "M'SILA",
        "wilaya_name": "M'SILA",
        "type_name": "Légumes secs",
        "type_id": 5
    },
    {
        "id": 2005,
        "name": "ccls oran",
        "address": "Hai El Mokrani  Oran",
        "phone_number": null,
        "category": "pv",
        "organization": "OAIC",
        "latitude": "35.68742516838358",
        "longitude": "-0.654066140972012",
        "commune_name": "ORAN",
        "wilaya_name": "ORAN",
        "type_name": "Légumes secs",
        "type_id": 5
    },
    {
        "id": 2006,
        "name": "UCA ORAN",
        "address": "Oued Tlelat",
        "phone_number": null,
        "category": "pv",
        "organization": "OAIC",
        "latitude": "35.550639",
        "longitude": "-0.452417",
        "commune_name": "OUED TLELAT",
        "wilaya_name": "ORAN",
        "type_name": "Légumes secs",
        "type_id": 5
    },
    {
        "id": 2007,
        "name": "ccls ouargla",
        "address": "Bp 247 route 49de Ghardaia",
        "phone_number": null,
        "category": "pv",
        "organization": "OAIC",
        "latitude": "31.94647028116977",
        "longitude": "5.325172446047262",
        "commune_name": "OUARGLA",
        "wilaya_name": "OUARGLA",
        "type_name": "Légumes secs",
        "type_id": 5
    },
    {
        "id": 2008,
        "name": "ccls ouargla",
        "address": "Zone D'activité N03",
        "phone_number": null,
        "category": "pv",
        "organization": "OAIC",
        "latitude": "33.12100383544159",
        "longitude": "6.061524061333203",
        "commune_name": "TOUGGOURT",
        "wilaya_name": "OUARGLA",
        "type_name": "Légumes secs",
        "type_id": 5
    },
    {
        "id": 2009,
        "name": "ccls oum el bouaghi",
        "address": "oum el bouaghi MARCHE COUVERT",
        "phone_number": null,
        "category": "pv",
        "organization": "OAIC",
        "latitude": "35.86752467164787",
        "longitude": "7.109054954150216",
        "commune_name": "OUM EL BOUAGHI",
        "wilaya_name": "OUM EL BOUAGHI",
        "type_name": "Légumes secs",
        "type_id": 5
    },
    {
        "id": 2010,
        "name": "CCLS AIN MLILA",
        "address": "AIN MLILA CENTRE VILLE",
        "phone_number": null,
        "category": "pv",
        "organization": "OAIC",
        "latitude": "36.03939240611125",
        "longitude": "6.574341945165474",
        "commune_name": "AIN MLILA",
        "wilaya_name": "OUM EL BOUAGHI",
        "type_name": "Légumes secs",
        "type_id": 5
    },
    {
        "id": 2011,
        "name": "CCLS RELIZANE",
        "address": "ROUTE BELACEL",
        "phone_number": null,
        "category": "pv",
        "organization": "OAIC",
        "latitude": "35.746389",
        "longitude": "0.549444",
        "commune_name": "RELIZANE",
        "wilaya_name": "RELIZANE",
        "type_name": "Légumes secs",
        "type_id": 5
    },
    {
        "id": 2012,
        "name": "CCLS RELIZANE",
        "address": "Rue mohamed lekhal locale num 18  Mendasse  Relizane",
        "phone_number": null,
        "category": "pv",
        "organization": "OAIC",
        "latitude": "35.65",
        "longitude": "0.865833",
        "commune_name": "RELIZANE",
        "wilaya_name": "RELIZANE",
        "type_name": "Légumes secs",
        "type_id": 5
    },
    {
        "id": 2013,
        "name": "CCLS OUED RHIOU",
        "address": "rue belkhenchir mohamed marché couvert",
        "phone_number": null,
        "category": "pv",
        "organization": "OAIC",
        "latitude": "35.962688017944124",
        "longitude": "0.9190344548901654",
        "commune_name": "OUED RHIOU",
        "wilaya_name": "RELIZANE",
        "type_name": "Légumes secs",
        "type_id": 5
    },
    {
        "id": 2014,
        "name": "ccls setif",
        "address": "rue elaidi abderzak n 587b setif",
        "phone_number": null,
        "category": "pv",
        "organization": "OAIC",
        "latitude": "36.188871",
        "longitude": "5.417683",
        "commune_name": "SETIF",
        "wilaya_name": "SETIF",
        "type_name": "Légumes secs",
        "type_id": 5
    },
    {
        "id": 2015,
        "name": "ccls setif",
        "address": "rue fares amrane n 753 el eulma",
        "phone_number": null,
        "category": "pv",
        "organization": "OAIC",
        "latitude": "36.14932",
        "longitude": "5.6875",
        "commune_name": "EL EULMA",
        "wilaya_name": "SETIF",
        "type_name": "Légumes secs",
        "type_id": 5
    },
    {
        "id": 2016,
        "name": "ccls setif",
        "address": "n38 ain oulmene zone industrielle ain oulmene",
        "phone_number": null,
        "category": "pv",
        "organization": "OAIC",
        "latitude": "35.92204484",
        "longitude": "5.30672069",
        "commune_name": "AIN OULMANE",
        "wilaya_name": "SETIF",
        "type_name": "Légumes secs",
        "type_id": 5
    },
    {
        "id": 2017,
        "name": "ccls setif",
        "address": "rue ben yacine ahmed bir el arche",
        "phone_number": null,
        "category": "pv",
        "organization": "OAIC",
        "latitude": "36.13011003",
        "longitude": "5.83998207",
        "commune_name": "BIR EL ARCH",
        "wilaya_name": "SETIF",
        "type_name": "Légumes secs",
        "type_id": 5
    },
    {
        "id": 2018,
        "name": "ccls setif",
        "address": "rue du 01 novembre 1954 n 27 beni fouda",
        "phone_number": null,
        "category": "pv",
        "organization": "OAIC",
        "latitude": "36.28332345",
        "longitude": "5.609400607",
        "commune_name": "BENI FOUDA",
        "wilaya_name": "SETIF",
        "type_name": "Légumes secs",
        "type_id": 5
    },
    {
        "id": 2019,
        "name": "ccls setif",
        "address": "rue madani abdelhamid n5 zone industrielle amoucha",
        "phone_number": null,
        "category": "pv",
        "organization": "OAIC",
        "latitude": "36.3729441",
        "longitude": "5.412728972",
        "commune_name": "AMOUCHA",
        "wilaya_name": "SETIF",
        "type_name": "Légumes secs",
        "type_id": 5
    },
    {
        "id": 2020,
        "name": "ccls sidi bel abbes",
        "address": "ESPLANADE DE LA GARE Sidi Bel Abbes ",
        "phone_number": null,
        "category": "pv",
        "organization": "OAIC",
        "latitude": "35.02356601810396",
        "longitude": "-0.7418015667240422",
        "commune_name": "SIDI BEL ABBES",
        "wilaya_name": "SIDI BEL ABBES",
        "type_name": "Légumes secs",
        "type_id": 5
    },
    {
        "id": 2021,
        "name": "ccls sfisef",
        "address": "RUE COLONEL AMIROUCHE Mostefa Ben Brahim",
        "phone_number": null,
        "category": "pv",
        "organization": "OAIC",
        "latitude": "35.19465493993289",
        "longitude": "-0.3559759534756773",
        "commune_name": "SFISSEF",
        "wilaya_name": "SIDI BEL ABBES",
        "type_name": "Légumes secs",
        "type_id": 5
    },
    {
        "id": 2022,
        "name": "CCLS TELAGH",
        "address": "centre ville telagh",
        "phone_number": null,
        "category": "pv",
        "organization": "OAIC",
        "latitude": "34.78238974696429",
        "longitude": "-0.5761518933880989",
        "commune_name": "TELAGH",
        "wilaya_name": "SIDI BEL ABBES",
        "type_name": "Légumes secs",
        "type_id": 5
    },
    {
        "id": 2023,
        "name": "ccls lamtar",
        "address": "tabia ville ",
        "phone_number": null,
        "category": "pv",
        "organization": "OAIC",
        "latitude": "35.023888",
        "longitude": "-0.74187",
        "commune_name": "TABIA",
        "wilaya_name": "SIDI BEL ABBES",
        "type_name": "Légumes secs",
        "type_id": 5
    },
    {
        "id": 2024,
        "name": "ccls lamtar",
        "address": "lamtar ville",
        "phone_number": null,
        "category": "pv",
        "organization": "OAIC",
        "latitude": "35.071608",
        "longitude": "-0.797478",
        "commune_name": "LAMTAR",
        "wilaya_name": "SIDI BEL ABBES",
        "type_name": "Légumes secs",
        "type_id": 5
    },
    {
        "id": 2025,
        "name": "CCLS SOUK AHRAS",
        "address": "Avenue Aisset Idir  01  Souk Ahras",
        "phone_number": null,
        "category": "pv",
        "organization": "OAIC",
        "latitude": "36.28214873159366",
        "longitude": "7.953866884194642",
        "commune_name": "SOUK AHRAS",
        "wilaya_name": "SOUK AHRAS",
        "type_name": "Légumes secs",
        "type_id": 5
    },
    {
        "id": 2026,
        "name": "CCLS SOUK AHRAS",
        "address": "SDRATA",
        "phone_number": null,
        "category": "pv",
        "organization": "OAIC",
        "latitude": "36.12248050042906",
        "longitude": "7.531423537603019",
        "commune_name": "SEDRATA",
        "wilaya_name": "SOUK AHRAS",
        "type_name": "Légumes secs",
        "type_id": 5
    },
    {
        "id": 2027,
        "name": "CCLS SOUK AHRAS",
        "address": "m'daourouch",
        "phone_number": null,
        "category": "pv",
        "organization": "OAIC",
        "latitude": "36.07510251650416",
        "longitude": "7.823043639245192",
        "commune_name": "MDAOUROUCH",
        "wilaya_name": "SOUK AHRAS",
        "type_name": "Légumes secs",
        "type_id": 5
    },
    {
        "id": 2028,
        "name": "CCLS SOUK AHRAS",
        "address": "mrahna",
        "phone_number": null,
        "category": "pv",
        "organization": "OAIC",
        "latitude": "36.19844",
        "longitude": "8.158044",
        "commune_name": "MERAHNA",
        "wilaya_name": "SOUK AHRAS",
        "type_name": "Légumes secs",
        "type_id": 5
    },
    {
        "id": 2029,
        "name": "CCLS TEBESSA",
        "address": " ROUTE N10 Tébessa 12000",
        "phone_number": null,
        "category": "pv",
        "organization": "OAIC",
        "latitude": "35.41730716439125",
        "longitude": "8.089175170581488",
        "commune_name": "TEBESSA",
        "wilaya_name": "TEBESSA",
        "type_name": "Légumes secs",
        "type_id": 5
    },
    {
        "id": 2030,
        "name": "ccls tiaret",
        "address": "1 RUE MOULAY NADJEM BP 99 Tiaret Tiaret(14) Algérie",
        "phone_number": null,
        "category": "pv",
        "organization": "OAIC",
        "latitude": "35.37151401013579",
        "longitude": "1.3252370582266886",
        "commune_name": "TIARET",
        "wilaya_name": "TIARET",
        "type_name": "Légumes secs",
        "type_id": 5
    },
    {
        "id": 2031,
        "name": "ccls frenda",
        "address": "FRENDA CENTRE VILLE",
        "phone_number": null,
        "category": "pv",
        "organization": "OAIC",
        "latitude": "35.062727",
        "longitude": "1.042897",
        "commune_name": "FRENDA",
        "wilaya_name": "TIARET",
        "type_name": "Légumes secs",
        "type_id": 5
    },
    {
        "id": 2032,
        "name": "ccls mehdia",
        "address": "1 BD EMIR ABDELKADER Mahdia",
        "phone_number": null,
        "category": "pv",
        "organization": "OAIC",
        "latitude": "35.42821023098611",
        "longitude": "1.751283579699399",
        "commune_name": "MAHDIA",
        "wilaya_name": "TIARET",
        "type_name": "Légumes secs",
        "type_id": 5
    },
    {
        "id": 2033,
        "name": "ccls tizi ouzou",
        "address": "Rue Nationale Num 25 Draa Ben Khedda",
        "phone_number": null,
        "category": "pv",
        "organization": "OAIC",
        "latitude": "36.73337781676155",
        "longitude": "3.9562698906921336",
        "commune_name": "DRAA BEN KHEDA",
        "wilaya_name": "TIZI OUZOU",
        "type_name": "Légumes secs",
        "type_id": 5
    },
    {
        "id": 2034,
        "name": "ccls tlemcen",
        "address": "BP 62 abou tachfine",
        "phone_number": null,
        "category": "pv",
        "organization": "OAIC",
        "latitude": "34.902144",
        "longitude": "-1.326536",
        "commune_name": "TLEMCEN",
        "wilaya_name": "TLEMCEN",
        "type_name": "Légumes secs",
        "type_id": 5
    },
    {
        "id": 2035,
        "name": "CCLS DE TLEMCEN",
        "address": "Rue de Paris",
        "phone_number": null,
        "category": "pv",
        "organization": "OAIC",
        "latitude": "34.880553",
        "longitude": "-1.312827",
        "commune_name": "TLEMCEN",
        "wilaya_name": "TLEMCEN",
        "type_name": "Légumes secs",
        "type_id": 5
    },
    {
        "id": 2036,
        "name": "CCLS DE TLEMCEN",
        "address": "Route wilaya N 99 NEDEMORA",
        "phone_number": null,
        "category": "pv",
        "organization": "OAIC",
        "latitude": "35.032894",
        "longitude": "-1.771563",
        "commune_name": "NEDROMA",
        "wilaya_name": "TLEMCEN",
        "type_name": "Légumes secs",
        "type_id": 5
    },
    {
        "id": 2037,
        "name": "CCLS DE TLEMCEN",
        "address": "CITE CHOUHADA maghnia",
        "phone_number": null,
        "category": "pv",
        "organization": "OAIC",
        "latitude": "34.83586",
        "longitude": "-1.726629",
        "commune_name": "MAGHNIA",
        "wilaya_name": "TLEMCEN",
        "type_name": "Légumes secs",
        "type_id": 5
    },
    {
        "id": 2038,
        "name": "CCLS DE TLEMCEN",
        "address": "OULED MIMOUN",
        "phone_number": null,
        "category": "pv",
        "organization": "OAIC",
        "latitude": "34.9046",
        "longitude": "-1.035391",
        "commune_name": "OULED MIMOUN",
        "wilaya_name": "TLEMCEN",
        "type_name": "Légumes secs",
        "type_id": 5
    },
    {
        "id": 2039,
        "name": "URCA JIJEL",
        "address": "Marché couvert taher",
        "phone_number": null,
        "category": "pv",
        "organization": "OAIC",
        "latitude": "36.772382960764894",
        "longitude": "5.896356311072937",
        "commune_name": "TAHER",
        "wilaya_name": "JIJEL",
        "type_name": "Légumes secs",
        "type_id": 5
    },
    {
        "id": 2040,
        "name": "URCA JIJEL",
        "address": "Jijel",
        "phone_number": null,
        "category": "pv",
        "organization": "OAIC",
        "latitude": "36.80800376080852",
        "longitude": "5.763457836738586",
        "commune_name": "JIJEL",
        "wilaya_name": "JIJEL",
        "type_name": "Légumes secs",
        "type_id": 5
    },
    {
        "id": 2041,
        "name": "ccls saida",
        "address": "route N6 SAIDA",
        "phone_number": null,
        "category": "pv",
        "organization": "OAIC",
        "latitude": "34.83628102234093",
        "longitude": "0.14658613741278936",
        "commune_name": "SAIDA",
        "wilaya_name": "SAIDA",
        "type_name": "Légumes secs",
        "type_id": 5
    },
    {
        "id": 2042,
        "name": "ccls skikda",
        "address": "complexe cerealier hammadi krouma",
        "phone_number": null,
        "category": "pv",
        "organization": "OAIC",
        "latitude": "36.84411104365018",
        "longitude": "6.929096463281488",
        "commune_name": "SKIKDA",
        "wilaya_name": "SKIKDA",
        "type_name": "Légumes secs",
        "type_id": 5
    },
    {
        "id": 2043,
        "name": "ccls skikda",
        "address": "route souk salaha bouchaour",
        "phone_number": null,
        "category": "pv",
        "organization": "OAIC",
        "latitude": "36.70429023049113",
        "longitude": "6.8563404209411996",
        "commune_name": "SALAH BOUCHAOUR",
        "wilaya_name": "SKIKDA",
        "type_name": "Légumes secs",
        "type_id": 5
    }
]