[
    {
        "id": "1616",
        "title": " 05-01.10 - Agence BOUABSA",
        "description": "not available",
        "street": "08 avenue les fr\u00e8res BOUABSA-BATNA",
        "city": "Batna  ",
        "state": "BATNA",
        "postal_code": "",
        "lat": "35.554867",
        "lng": "6.176896",
        "phone": "07 82 29 14 75 \/ 05 54 80 21 39",
        "fax": "",
        "email": "a050110@gam.dz",
        "website": "www.gam.dz",
        "logo_id": null,
        "path": null,
        "marker_id": "1",
        "description_2": "",
        "open_hours": "{\"mon\":[\"08:30 - 17:00\"],\"tue\":[\"08:30 - 17:00\"],\"wed\":[\"08:30 - 17:00\"],\"thu\":[\"08:30 - 17:00\"],\"fri\":[\"08:30 - 17:00\"],\"sat\":[\"08:30 - 17:00\"],\"sun\":[\"08:30 - 17:00\"]}",
        "ordr": "0",
        "brand": null,
        "categories": "108",
        "days_str": "Mon, Tues, Wed, Thur, Fri, Sat, Sun"
    },
    {
        "id": "1591",
        "title": " 21.2.Y.BOULECHFAR",
        "description": "not available",
        "street": "Route National El Hrouche SKIKDA ",
        "city": "Sidi Mezghiche",
        "state": "CONSTANTINE",
        "postal_code": "",
        "lat": "36.655703",
        "lng": "6.84046",
        "phone": "07 70 99 41 07",
        "fax": "",
        "email": "a25yboulechfar@gam.dz",
        "website": "www.gam.dz",
        "logo_id": null,
        "path": null,
        "marker_id": "1",
        "description_2": "",
        "open_hours": "{\"mon\":[\"08:30 - 17:00\"],\"tue\":[\"08:30 - 17:00\"],\"wed\":[\"08:30 - 17:00\"],\"thu\":[\"08:30 - 17:00\"],\"fri\":[\"08:30 - 17:00\"],\"sat\":[\"08:30 - 17:00\"],\"sun\":[\"08:30 - 17:00\"]}",
        "ordr": "0",
        "brand": null,
        "categories": "105",
        "days_str": "Mon, Tues, Wed, Thur, Fri, Sat, Sun"
    },
    {
        "id": "1534",
        "title": " 44-04.10 - Agence KHEMIS MELIANA",
        "description": "not available",
        "street": "Cit\u00e9 56 logts LSP khmis miliana ",
        "city": "Khemis Miliana ",
        "state": "AIN DEFLA",
        "postal_code": "",
        "lat": "36.256575",
        "lng": "2.220505",
        "phone": " 07 82 29 14 37 \/ 05 54 80 30 71",
        "fax": "",
        "email": "a440410@gam.dz",
        "website": "www.gam.dz",
        "logo_id": null,
        "path": null,
        "marker_id": "1",
        "description_2": "",
        "open_hours": "{\"mon\":[\"08:30 - 17:00\"],\"tue\":[\"08:30 - 17:00\"],\"wed\":[\"08:30 - 17:00\"],\"thu\":[\"08:30 - 17:00\"],\"fri\":[\"08:30 - 17:00\"],\"sat\":[\"08:30 - 17:00\"],\"sun\":[\"08:30 - 17:00\"]}",
        "ordr": "0",
        "brand": null,
        "categories": "94",
        "days_str": "Mon, Tues, Wed, Thur, Fri, Sat, Sun"
    },
    {
        "id": "1506",
        "title": " DZ001 - Agence CHERAGA",
        "description": "not available",
        "street": "Ch\u00e9raga Ouled Fayet N\u00b0 57 Alger",
        "city": "Ch\u00e9raga",
        "state": "ALGER",
        "postal_code": "",
        "lat": "36.755765",
        "lng": "2.951391",
        "phone": " 07 82 29 15 86",
        "fax": "",
        "email": "adz001@gam.dz",
        "website": "www.gam.dz",
        "logo_id": null,
        "path": null,
        "marker_id": "1",
        "description_2": "",
        "open_hours": "{\"mon\":[\"08:30 - 17:00\"],\"tue\":[\"08:30 - 17:00\"],\"wed\":[\"08:30 - 17:00\"],\"thu\":[\"08:30 - 17:00\"],\"fri\":[\"08:30 - 17:00\"],\"sat\":[\"08:30 - 17:00\"],\"sun\":[\"08:30 - 17:00\"]}",
        "ordr": "0",
        "brand": null,
        "categories": "91",
        "days_str": "Mon, Tues, Wed, Thur, Fri, Sat, Sun"
    },
    {
        "id": "1525",
        "title": "02-01.50",
        "description": "not available",
        "street": " RDC Batiment 4 N\u00b01 commune et daira de Chlef ",
        "city": "Chlef ",
        "state": "CHLEF",
        "postal_code": "",
        "lat": "36.1645864",
        "lng": "1.3318918",
        "phone": "0782 16 44 39 \/  0554 84 86 74",
        "fax": "",
        "email": "a020150@gam.dz",
        "website": "www.gam.dz",
        "logo_id": null,
        "path": null,
        "marker_id": "1",
        "description_2": "",
        "open_hours": "{\"mon\":[\"08:30 - 17:00\"],\"tue\":[\"08:30 - 17:00\"],\"wed\":[\"08:30 - 17:00\"],\"thu\":[\"08:30 - 17:00\"],\"fri\":[\"08:30 - 17:00\"],\"sat\":[\"08:30 - 17:00\"],\"sun\":[\"08:30 - 17:00\"]}",
        "ordr": "0",
        "brand": null,
        "categories": "98",
        "days_str": "Mon, Tues, Wed, Thur, Fri, Sat, Sun"
    },
    {
        "id": "1528",
        "title": "02.1.S.BENZERGA",
        "description": "not available",
        "street": "N\u00b012 Hay Bensouna, Route d\u2019oran chlef  ",
        "city": "Chlef",
        "state": "CHLEF",
        "postal_code": "",
        "lat": "36.160921",
        "lng": "1.315595",
        "phone": "05 51 12 35 50",
        "fax": "",
        "email": "a021sbenzerga@gam.dz",
        "website": "www.gam.dz",
        "logo_id": null,
        "path": null,
        "marker_id": "1",
        "description_2": "",
        "open_hours": "{\"mon\":[\"08:30 - 17:00\"],\"tue\":[\"08:30 - 17:00\"],\"wed\":[\"08:30 - 17:00\"],\"thu\":[\"08:30 - 17:00\"],\"fri\":[\"08:30 - 17:00\"],\"sat\":[\"08:30 - 17:00\"],\"sun\":[\"08:30 - 17:00\"]}",
        "ordr": "0",
        "brand": null,
        "categories": "98",
        "days_str": "Mon, Tues, Wed, Thur, Fri, Sat, Sun"
    },
    {
        "id": "1530",
        "title": "02.1.S.TAHAR-DJEBBAR",
        "description": "not available",
        "street": "Rue de la gare - B\u00e2timent OPGI - Oued Sly - W.Chlef",
        "city": "Oued Sly",
        "state": "CHLEF",
        "postal_code": "",
        "lat": "36.104424",
        "lng": "1.19619",
        "phone": "06 65 63 44 48",
        "fax": "",
        "email": "a02stahardjebbar@gam.dz",
        "website": "www.gam.dz",
        "logo_id": null,
        "path": null,
        "marker_id": "1",
        "description_2": "",
        "open_hours": "{\"mon\":[\"08:30 - 17:00\"],\"tue\":[\"08:30 - 17:00\"],\"wed\":[\"08:30 - 17:00\"],\"thu\":[\"08:30 - 17:00\"],\"fri\":[\"08:30 - 17:00\"],\"sat\":[\"08:30 - 17:00\"],\"sun\":[\"08:30 - 17:00\"]}",
        "ordr": "0",
        "brand": null,
        "categories": "98",
        "days_str": "Mon, Tues, Wed, Thur, Fri, Sat, Sun"
    },
    {
        "id": "1527",
        "title": "02.B.MESSABIH",
        "description": "not available",
        "street": "31, Rue Aspirant Dahmane - Chlef - W.Chlef",
        "city": "chlef",
        "state": "CHLEF",
        "postal_code": "",
        "lat": "36.154817",
        "lng": "1.325696",
        "phone": "07 80 58 43 04",
        "fax": "",
        "email": "bmessabih@gam.dz",
        "website": "www.gam.dz",
        "logo_id": null,
        "path": null,
        "marker_id": "1",
        "description_2": "",
        "open_hours": "{\"mon\":[\"08:30 - 17:00\"],\"tue\":[\"08:30 - 17:00\"],\"wed\":[\"08:30 - 17:00\"],\"thu\":[\"08:30 - 17:00\"],\"fri\":[\"08:30 - 17:00\"],\"sat\":[\"08:30 - 17:00\"],\"sun\":[\"08:30 - 17:00\"]}",
        "ordr": "0",
        "brand": null,
        "categories": "98",
        "days_str": "Mon, Tues, Wed, Thur, Fri, Sat, Sun"
    },
    {
        "id": "1529",
        "title": "02.S.TAHAR-DJEBBAR",
        "description": "not available",
        "street": "Rue Ghoulami - Boukadir - W.Chlef",
        "city": "Boukadir",
        "state": "CHLEF",
        "postal_code": "",
        "lat": "36.05694",
        "lng": "1.120912",
        "phone": "06 65 63 44 48",
        "fax": "",
        "email": "a02stahardjebbar@gam.dz",
        "website": "www.gam.dz",
        "logo_id": null,
        "path": null,
        "marker_id": "1",
        "description_2": "",
        "open_hours": "{\"mon\":[\"08:30 - 17:00\"],\"tue\":[\"08:30 - 17:00\"],\"wed\":[\"08:30 - 17:00\"],\"thu\":[\"08:30 - 17:00\"],\"fri\":[\"08:30 - 17:00\"],\"sat\":[\"08:30 - 17:00\"],\"sun\":[\"08:30 - 17:00\"]}",
        "ordr": "0",
        "brand": null,
        "categories": "98",
        "days_str": "Mon, Tues, Wed, Thur, Fri, Sat, Sun"
    },
    {
        "id": "1533",
        "title": "03-01.20 - Agence LAGHOUAT",
        "description": "not available",
        "street": "Cit\u00e9 El maamoura Lghouat",
        "city": "Laghouat",
        "state": "LAGHOUAT",
        "postal_code": "",
        "lat": "33.798062",
        "lng": "2.866655",
        "phone": "07 82 29 15 94 \/ 05 54 84 41 58",
        "fax": "",
        "email": "a030120@gam.dz",
        "website": "www.gam.dz",
        "logo_id": null,
        "path": null,
        "marker_id": "1",
        "description_2": "",
        "open_hours": "{\"mon\":[\"08:30 - 17:00\"],\"tue\":[\"08:30 - 17:00\"],\"wed\":[\"08:30 - 17:00\"],\"thu\":[\"08:30 - 17:00\"],\"fri\":[\"08:30 - 17:00\"],\"sat\":[\"08:30 - 17:00\"],\"sun\":[\"08:30 - 17:00\"]}",
        "ordr": "0",
        "brand": null,
        "categories": "99",
        "days_str": "Mon, Tues, Wed, Thur, Fri, Sat, Sun"
    },
    {
        "id": "1607",
        "title": "05.1.Y.DEKHINET",
        "description": "not available",
        "street": "Boulevard Ariouat Boubaker Barika W-BATNA",
        "city": "Barika",
        "state": "BATNA",
        "postal_code": "",
        "lat": "35.384593",
        "lng": "5.289343",
        "phone": "07 82 29 14 76",
        "fax": "",
        "email": "a05ydekhinet@gam.dz",
        "website": "www.gam.dz",
        "logo_id": null,
        "path": null,
        "marker_id": "1",
        "description_2": "",
        "open_hours": "{\"mon\":[\"08:30 - 17:00\"],\"tue\":[\"08:30 - 17:00\"],\"wed\":[\"08:30 - 17:00\"],\"thu\":[\"08:30 - 17:00\"],\"fri\":[\"08:30 - 17:00\"],\"sat\":[\"08:30 - 17:00\"],\"sun\":[\"08:30 - 17:00\"]}",
        "ordr": "0",
        "brand": null,
        "categories": "108",
        "days_str": "Mon, Tues, Wed, Thur, Fri, Sat, Sun"
    },
    {
        "id": "1604",
        "title": "05.L.BOUDARN",
        "description": "not available",
        "street": "Rue Ahmed Ben Abderrezak  Arris",
        "city": "Arris",
        "state": "BATNA",
        "postal_code": "",
        "lat": "35.300537",
        "lng": "6.354517",
        "phone": "07 82 29 14 77",
        "fax": "",
        "email": "a05lboudarn@gam.dz",
        "website": "www.gam.dz",
        "logo_id": null,
        "path": null,
        "marker_id": "1",
        "description_2": "",
        "open_hours": "{\"mon\":[\"08:30 - 17:00\"],\"tue\":[\"08:30 - 17:00\"],\"wed\":[\"08:30 - 17:00\"],\"thu\":[\"08:30 - 17:00\"],\"fri\":[\"08:30 - 17:00\"],\"sat\":[\"08:30 - 17:00\"],\"sun\":[\"08:30 - 17:00\"]}",
        "ordr": "0",
        "brand": null,
        "categories": "108",
        "days_str": "Mon, Tues, Wed, Thur, Fri, Sat, Sun"
    },
    {
        "id": "1606",
        "title": "05.Y.DEKHINET",
        "description": "not available",
        "street": "06 Rue Gaouda Moustapha Cit\u00e9 EL NASR Batna",
        "city": "Batna  ",
        "state": "BATNA",
        "postal_code": "",
        "lat": "35.561022",
        "lng": "6.173912",
        "phone": "07 82 29 14 76",
        "fax": "",
        "email": "a05ydekhinet@gam.dz",
        "website": "www.gam.dz",
        "logo_id": null,
        "path": null,
        "marker_id": "1",
        "description_2": "",
        "open_hours": "{\"mon\":[\"08:30 - 17:00\"],\"tue\":[\"08:30 - 17:00\"],\"wed\":[\"08:30 - 17:00\"],\"thu\":[\"08:30 - 17:00\"],\"fri\":[\"08:30 - 17:00\"],\"sat\":[\"08:30 - 17:00\"],\"sun\":[\"08:30 - 17:00\"]}",
        "ordr": "0",
        "brand": null,
        "categories": "108",
        "days_str": "Mon, Tues, Wed, Thur, Fri, Sat, Sun"
    },
    {
        "id": "1639",
        "title": "06.1.M.ABDELKADER",
        "description": "not available",
        "street": "cit\u00e9 des 68 logements Bt5 N\u00b0522 LES Hamadite",
        "city": "Bejaia",
        "state": "BEJAIA",
        "postal_code": "",
        "lat": "36.673332",
        "lng": "5.147442",
        "phone": "07 82 29 16 14",
        "fax": "",
        "email": "a06mabdelkader@gam.dz",
        "website": "www.gam.dz",
        "logo_id": null,
        "path": null,
        "marker_id": "1",
        "description_2": "",
        "open_hours": "{\"mon\":[\"08:30 - 17:00\"],\"tue\":[\"08:30 - 17:00\"],\"wed\":[\"08:30 - 17:00\"],\"thu\":[\"08:30 - 17:00\"],\"fri\":[\"08:30 - 17:00\"],\"sat\":[\"08:30 - 17:00\"],\"sun\":[\"08:30 - 17:00\"]}",
        "ordr": "0",
        "brand": null,
        "categories": "117",
        "days_str": "Mon, Tues, Wed, Thur, Fri, Sat, Sun"
    },
    {
        "id": "1643",
        "title": "06.2.I.CHERIFI",
        "description": "not available",
        "street": "04, Chemins Ouzelaguen - Bejaia",
        "city": "Bejaia",
        "state": "BEJAIA",
        "postal_code": "",
        "lat": "36.554343",
        "lng": "4.572760",
        "phone": "07 78 72 51 49",
        "fax": "",
        "email": "a06icherifi@gam.dz",
        "website": "www.gam.dz",
        "logo_id": null,
        "path": null,
        "marker_id": "1",
        "description_2": "",
        "open_hours": "{\"mon\":[\"08:30 - 17:00\"],\"tue\":[\"08:30 - 17:00\"],\"wed\":[\"08:30 - 17:00\"],\"thu\":[\"08:30 - 17:00\"],\"fri\":[\"08:30 - 17:00\"],\"sat\":[\"08:30 - 17:00\"],\"sun\":[\"08:30 - 17:00\"]}",
        "ordr": "0",
        "brand": null,
        "categories": "117",
        "days_str": "Mon, Tues, Wed, Thur, Fri, Sat, Sun"
    },
    {
        "id": "1644",
        "title": "06.3.I.CHERIFI",
        "description": "not available",
        "street": "Cit\u00e9 ihaddaden, prommotion immobili\u00e9re SOMACOB BEDJAIA  ",
        "city": "Bejaia",
        "state": "BEJAIA",
        "postal_code": "",
        "lat": "36.743873",
        "lng": "5.050526",
        "phone": "07 78 72 51 49",
        "fax": "",
        "email": "a06icherifi@gam.dz",
        "website": "www.gam.dz",
        "logo_id": null,
        "path": null,
        "marker_id": "1",
        "description_2": "",
        "open_hours": "{\"mon\":[\"08:30 - 17:00\"],\"tue\":[\"08:30 - 17:00\"],\"wed\":[\"08:30 - 17:00\"],\"thu\":[\"08:30 - 17:00\"],\"fri\":[\"08:30 - 17:00\"],\"sat\":[\"08:30 - 17:00\"],\"sun\":[\"08:30 - 17:00\"]}",
        "ordr": "0",
        "brand": null,
        "categories": "117",
        "days_str": "Mon, Tues, Wed, Thur, Fri, Sat, Sun"
    },
    {
        "id": "1641",
        "title": "06.A.IKHLEF",
        "description": "not available",
        "street": "Rue Boutekrabt Ahmed Souk Eltenine Bejaia. ",
        "city": "Souk Eltenine ",
        "state": "BEJAIA",
        "postal_code": "",
        "lat": "36.625652",
        "lng": "5.336022",
        "phone": "06 67 86 82 83",
        "fax": "",
        "email": "a06aikhlf@gam.dz",
        "website": "www.gam.dz",
        "logo_id": null,
        "path": null,
        "marker_id": "1",
        "description_2": "",
        "open_hours": "{\"mon\":[\"08:30 - 17:00\"],\"tue\":[\"08:30 - 17:00\"],\"wed\":[\"08:30 - 17:00\"],\"thu\":[\"08:30 - 17:00\"],\"fri\":[\"08:30 - 17:00\"],\"sat\":[\"08:30 - 17:00\"],\"sun\":[\"08:30 - 17:00\"]}",
        "ordr": "0",
        "brand": null,
        "categories": "117",
        "days_str": "Mon, Tues, Wed, Thur, Fri, Sat, Sun"
    },
    {
        "id": "1645",
        "title": "06.H.KHELIFATI",
        "description": "not available",
        "street": "Route Nationale N\u00b026 Hotel Syfax  -Tazamalt ",
        "city": "Tazmalt   ",
        "state": "BEJAIA",
        "postal_code": "",
        "lat": "36.379845",
        "lng": "4.396449",
        "phone": "07 82 29 15 08",
        "fax": "",
        "email": "a06hkhelifati@gam.dz",
        "website": "www.gam.dz",
        "logo_id": null,
        "path": null,
        "marker_id": "1",
        "description_2": "",
        "open_hours": "{\"mon\":[\"08:30 - 17:00\"],\"tue\":[\"08:30 - 17:00\"],\"wed\":[\"08:30 - 17:00\"],\"thu\":[\"08:30 - 17:00\"],\"fri\":[\"08:30 - 17:00\"],\"sat\":[\"08:30 - 17:00\"],\"sun\":[\"08:30 - 17:00\"]}",
        "ordr": "0",
        "brand": null,
        "categories": "117",
        "days_str": "Mon, Tues, Wed, Thur, Fri, Sat, Sun"
    },
    {
        "id": "1646",
        "title": "06.h.rabhi",
        "description": "not available",
        "street": "Cit\u00e998 logts Bloc 14 AMIZOUR ",
        "city": "Amizour ",
        "state": "BEJAIA",
        "postal_code": "",
        "lat": "36.642116",
        "lng": "4.903334",
        "phone": "07 82 29 15 53",
        "fax": "",
        "email": "a06hrabhi@gam.dz",
        "website": "www.gam.dz",
        "logo_id": null,
        "path": null,
        "marker_id": "1",
        "description_2": "",
        "open_hours": "{\"mon\":[\"08:30 - 17:00\"],\"tue\":[\"08:30 - 17:00\"],\"wed\":[\"08:30 - 17:00\"],\"thu\":[\"08:30 - 17:00\"],\"fri\":[\"08:30 - 17:00\"],\"sat\":[\"08:30 - 17:00\"],\"sun\":[\"08:30 - 17:00\"]}",
        "ordr": "0",
        "brand": null,
        "categories": "117",
        "days_str": "Mon, Tues, Wed, Thur, Fri, Sat, Sun"
    },
    {
        "id": "1642",
        "title": "06.I.CHERIFI",
        "description": "not available",
        "street": "ct\u00e9 130 \/ 200 logt RHP BT E N\u00b015 et 16 Akbou Bejaia",
        "city": "Akbou",
        "state": "BEJAIA",
        "postal_code": "",
        "lat": "36.459016",
        "lng": "4.533478",
        "phone": "07 78 72 51 49",
        "fax": "",
        "email": "a06icherifi@gam.dz",
        "website": "www.gam.dz",
        "logo_id": null,
        "path": null,
        "marker_id": "1",
        "description_2": "",
        "open_hours": "{\"mon\":[\"08:30 - 17:00\"],\"tue\":[\"08:30 - 17:00\"],\"wed\":[\"08:30 - 17:00\"],\"thu\":[\"08:30 - 17:00\"],\"fri\":[\"08:30 - 17:00\"],\"sat\":[\"08:30 - 17:00\"],\"sun\":[\"08:30 - 17:00\"]}",
        "ordr": "0",
        "brand": null,
        "categories": "117",
        "days_str": "Mon, Tues, Wed, Thur, Fri, Sat, Sun"
    },
    {
        "id": "1647",
        "title": "06.L.OUHENDI",
        "description": "not available",
        "street": "56 logts la grande baie local N\u00b023 RD CITE TOBALE ",
        "city": "Bedjaia ",
        "state": "BEJAIA",
        "postal_code": "",
        "lat": "36.750008",
        "lng": "5.071744",
        "phone": "07 82 29 15 06",
        "fax": "",
        "email": "a06louhendi@gam.dz",
        "website": "www.gam.dz",
        "logo_id": null,
        "path": null,
        "marker_id": "1",
        "description_2": "",
        "open_hours": "{\"mon\":[\"08:30 - 17:00\"],\"tue\":[\"08:30 - 17:00\"],\"wed\":[\"08:30 - 17:00\"],\"thu\":[\"08:30 - 17:00\"],\"fri\":[\"08:30 - 17:00\"],\"sat\":[\"08:30 - 17:00\"],\"sun\":[\"08:30 - 17:00\"]}",
        "ordr": "0",
        "brand": null,
        "categories": "117",
        "days_str": "Mon, Tues, Wed, Thur, Fri, Sat, Sun"
    },
    {
        "id": "1638",
        "title": "06.M.ABDELKADER",
        "description": "not available",
        "street": " RC Tichy centre,route nationale N\u00b005 commune et daira de Tichy wilaya de BEJAIA",
        "city": "Tychy ",
        "state": "BEJAIA",
        "postal_code": "",
        "lat": "36.668272",
        "lng": "5.155088",
        "phone": "07 82 29 16 14 ",
        "fax": "",
        "email": "a06mabdelkader@gam.dz",
        "website": "www.gam.dz",
        "logo_id": null,
        "path": null,
        "marker_id": "1",
        "description_2": "",
        "open_hours": "{\"mon\":[\"08:30 - 17:00\"],\"tue\":[\"08:30 - 17:00\"],\"wed\":[\"08:30 - 17:00\"],\"thu\":[\"08:30 - 17:00\"],\"fri\":[\"08:30 - 17:00\"],\"sat\":[\"08:30 - 17:00\"],\"sun\":[\"08:30 - 17:00\"]}",
        "ordr": "0",
        "brand": null,
        "categories": "117",
        "days_str": "Mon, Tues, Wed, Thur, Fri, Sat, Sun"
    },
    {
        "id": "1640",
        "title": "06.R.BENZAID",
        "description": "not available",
        "street": "Agmoune commune Barbacha W BEJAIA",
        "city": "Berbacha",
        "state": "BEJAIA",
        "postal_code": "",
        "lat": "36.484172",
        "lng": "4.747158",
        "phone": "0560 77 47 59 ",
        "fax": "",
        "email": "a06rbenzaid@gam.dz",
        "website": "www.gam.dz",
        "logo_id": null,
        "path": null,
        "marker_id": "1",
        "description_2": "",
        "open_hours": "{\"mon\":[\"08:30 - 17:00\"],\"tue\":[\"08:30 - 17:00\"],\"wed\":[\"08:30 - 17:00\"],\"thu\":[\"08:30 - 17:00\"],\"fri\":[\"08:30 - 17:00\"],\"sat\":[\"08:30 - 17:00\"],\"sun\":[\"08:30 - 17:00\"]}",
        "ordr": "0",
        "brand": null,
        "categories": "117",
        "days_str": "Mon, Tues, Wed, Thur, Fri, Sat, Sun"
    },
    {
        "id": "1648",
        "title": "06.W.HAMMAOUI",
        "description": "not available",
        "street": "Centre Commercial Lot 130-131 El Kseur Bejaia",
        "city": "El Kseur",
        "state": "BEJAIA",
        "postal_code": "",
        "lat": "36.677564",
        "lng": "4.849324",
        "phone": "07 82 29 15 07",
        "fax": "",
        "email": "a06whammaoui@gam.dz",
        "website": "www.gam.dz",
        "logo_id": null,
        "path": null,
        "marker_id": "1",
        "description_2": "",
        "open_hours": "{\"mon\":[\"08:30 - 17:00\"],\"tue\":[\"08:30 - 17:00\"],\"wed\":[\"08:30 - 17:00\"],\"thu\":[\"08:30 - 17:00\"],\"fri\":[\"08:30 - 17:00\"],\"sat\":[\"08:30 - 17:00\"],\"sun\":[\"08:30 - 17:00\"]}",
        "ordr": "0",
        "brand": null,
        "categories": "117",
        "days_str": "Mon, Tues, Wed, Thur, Fri, Sat, Sun"
    },
    {
        "id": "1617",
        "title": "07-01.10 - Agence BISKRA",
        "description": "not available",
        "street": "Rue AISSA OUAER N\u00b001 Biskra",
        "city": "Biskra  ",
        "state": "BISKRA",
        "postal_code": "",
        "lat": "34.8551757",
        "lng": "5.724128",
        "phone": "07 82 29 14 78 \/ 05 54 80 30 67",
        "fax": "",
        "email": "a070110@gam.dz",
        "website": "www.gam.dz",
        "logo_id": null,
        "path": null,
        "marker_id": "1",
        "description_2": "",
        "open_hours": "{\"mon\":[\"08:30 - 17:00\"],\"tue\":[\"08:30 - 17:00\"],\"wed\":[\"08:30 - 17:00\"],\"thu\":[\"08:30 - 17:00\"],\"fri\":[\"08:30 - 17:00\"],\"sat\":[\"08:30 - 17:00\"],\"sun\":[\"08:30 - 17:00\"]}",
        "ordr": "0",
        "brand": null,
        "categories": "109",
        "days_str": "Mon, Tues, Wed, Thur, Fri, Sat, Sun"
    },
    {
        "id": "1538",
        "title": "09-01.20 - Agence LES PALMIERS ",
        "description": "not available",
        "street": "Avenue Kritli  Mokhtar  N\u00b017 B     Blida ",
        "city": "Blida    ",
        "state": "BLIDA",
        "postal_code": "",
        "lat": "36.475039",
        "lng": "2.832578",
        "phone": "07 82 29 14 70 \/ 05 54 80 38 23",
        "fax": "",
        "email": "a090120@gma.dz",
        "website": "www.gam.dz",
        "logo_id": null,
        "path": null,
        "marker_id": "1",
        "description_2": "",
        "open_hours": "{\"mon\":[\"08:30 - 17:00\"],\"tue\":[\"08:30 - 17:00\"],\"wed\":[\"08:30 - 17:00\"],\"thu\":[\"08:30 - 17:00\"],\"fri\":[\"08:30 - 17:00\"],\"sat\":[\"08:30 - 17:00\"],\"sun\":[\"08:30 - 17:00\"]}",
        "ordr": "0",
        "brand": null,
        "categories": "96",
        "days_str": "Mon, Tues, Wed, Thur, Fri, Sat, Sun"
    },
    {
        "id": "1540",
        "title": "09-04.20 - Agence OUED EL ALLEUG",
        "description": "not available",
        "street": "Boulevard principal, Royal Groupe N\u00b0175. Section 10 commune Oued El Alleug BLIDA",
        "city": "Oued El Alleug",
        "state": "BLIDA",
        "postal_code": "",
        "lat": "36.566583",
        "lng": "2.768025",
        "phone": "07 82 29 13 43 \/ 05 54 80 21 19 ",
        "fax": "",
        "email": "a090420@gam.dz",
        "website": "www.gam.dz",
        "logo_id": null,
        "path": null,
        "marker_id": "1",
        "description_2": "",
        "open_hours": "{\"mon\":[\"08:30 - 17:00\"],\"tue\":[\"08:30 - 17:00\"],\"wed\":[\"08:30 - 17:00\"],\"thu\":[\"08:30 - 17:00\"],\"fri\":[\"08:30 - 17:00\"],\"sat\":[\"08:30 - 17:00\"],\"sun\":[\"08:30 - 17:00\"]}",
        "ordr": "0",
        "brand": null,
        "categories": "96",
        "days_str": "Mon, Tues, Wed, Thur, Fri, Sat, Sun"
    },
    {
        "id": "1531",
        "title": "09-07.10 - Agence OULED YAICH",
        "description": "not available",
        "street": "Cit\u00e9 1652 LGTS AADL BT 10 local N\u00b003 OULED YAICH",
        "city": "Ouled Yaich   ",
        "state": "BLIDA",
        "postal_code": "",
        "lat": "36.475793",
        "lng": "2.829758",
        "phone": "07 82 29 14 57",
        "fax": "",
        "email": "bl001@gam.dz",
        "website": "www.gam.dz",
        "logo_id": null,
        "path": null,
        "marker_id": "1",
        "description_2": "",
        "open_hours": "{\"mon\":[\"08:30 - 17:00\"],\"tue\":[\"08:30 - 17:00\"],\"wed\":[\"08:30 - 17:00\"],\"thu\":[\"08:30 - 17:00\"],\"fri\":[\"08:30 - 17:00\"],\"sat\":[\"08:30 - 17:00\"],\"sun\":[\"08:30 - 17:00\"]}",
        "ordr": "0",
        "brand": null,
        "categories": "96",
        "days_str": "Mon, Tues, Wed, Thur, Fri, Sat, Sun"
    },
    {
        "id": "1536",
        "title": "09-14.10 - Agence SOUMAA",
        "description": "not available",
        "street": "Route Nationale n\u00b029 local 1 lot soumaa-BLIDA ",
        "city": "Soumaa ",
        "state": "BLIDA",
        "postal_code": "",
        "lat": "36.498475",
        "lng": "2.907609",
        "phone": "07 82 29 14 56 \/ 05 54 84 87 18",
        "fax": "",
        "email": "a091410@gam.dz",
        "website": "www.gam.dz",
        "logo_id": null,
        "path": null,
        "marker_id": "1",
        "description_2": "",
        "open_hours": "{\"mon\":[\"08:30 - 17:00\"],\"tue\":[\"08:30 - 17:00\"],\"wed\":[\"08:30 - 17:00\"],\"thu\":[\"08:30 - 17:00\"],\"fri\":[\"08:30 - 17:00\"],\"sat\":[\"08:30 - 17:00\"],\"sun\":[\"08:30 - 17:00\"]}",
        "ordr": "0",
        "brand": null,
        "categories": "96",
        "days_str": "Mon, Tues, Wed, Thur, Fri, Sat, Sun"
    },
    {
        "id": "1535",
        "title": "09-20.10 - Agence BOUFARIK",
        "description": "not available",
        "street": "03 Rue des fr\u00e8res Bouza  Boufarik  W. Blida ",
        "city": "Boufarik ",
        "state": "BLIDA",
        "postal_code": "",
        "lat": "36.584859",
        "lng": "2.907609",
        "phone": "07 82 29 14 58",
        "fax": "",
        "email": "a092010@gam.dz",
        "website": "www.gam.dz",
        "logo_id": null,
        "path": null,
        "marker_id": "1",
        "description_2": "",
        "open_hours": "{\"mon\":[\"08:30 - 17:00\"],\"tue\":[\"08:30 - 17:00\"],\"wed\":[\"08:30 - 17:00\"],\"thu\":[\"08:30 - 17:00\"],\"fri\":[\"08:30 - 17:00\"],\"sat\":[\"08:30 - 17:00\"],\"sun\":[\"08:30 - 17:00\"]}",
        "ordr": "0",
        "brand": null,
        "categories": "96",
        "days_str": "Mon, Tues, Wed, Thur, Fri, Sat, Sun"
    },
    {
        "id": "1588",
        "title": "10-01.10 - Agence BOUIRA",
        "description": "not available",
        "street": "Cit\u00e9 l'indepenance BT A N\u00b006 BOUIRA ",
        "city": "Bouira  ",
        "state": "BOUIRA",
        "postal_code": "",
        "lat": "36.374022",
        "lng": "3.898986",
        "phone": "07 82 29 14 43 \/ 05 54 80 28 38",
        "fax": "",
        "email": "a100110@gam.dz",
        "website": "www.gam.dz",
        "logo_id": null,
        "path": null,
        "marker_id": "1",
        "description_2": "",
        "open_hours": "{\"mon\":[\"08:30 - 17:00\"],\"tue\":[\"08:30 - 17:00\"],\"wed\":[\"08:30 - 17:00\"],\"thu\":[\"08:30 - 17:00\"],\"fri\":[\"08:30 - 17:00\"],\"sat\":[\"08:30 - 17:00\"],\"sun\":[\"08:30 - 17:00\"]}",
        "ordr": "0",
        "brand": null,
        "categories": "104",
        "days_str": "Mon, Tues, Wed, Thur, Fri, Sat, Sun"
    },
    {
        "id": "1671",
        "title": "11-01.10 - Agence TAMANRASSET",
        "description": "not available",
        "street": "Hai el Kaser el Fougani Tamanrast",
        "city": "Tamanrast",
        "state": "TAMANRASSET",
        "postal_code": "",
        "lat": "22.799724",
        "lng": "5.524223",
        "phone": "07 82 29 15 15 \/ 05 54 84 18 07",
        "fax": "",
        "email": "a110110@gam.dz",
        "website": "www.gam.dz",
        "logo_id": null,
        "path": null,
        "marker_id": "1",
        "description_2": "",
        "open_hours": "{\"mon\":[\"08:30 - 17:00\"],\"tue\":[\"08:30 - 17:00\"],\"wed\":[\"08:30 - 17:00\"],\"thu\":[\"08:30 - 17:00\"],\"fri\":[\"08:30 - 17:00\"],\"sat\":[\"08:30 - 17:00\"],\"sun\":[\"08:30 - 17:00\"]}",
        "ordr": "0",
        "brand": null,
        "categories": "127",
        "days_str": "Mon, Tues, Wed, Thur, Fri, Sat, Sun"
    },
    {
        "id": "1635",
        "title": "12-01.10 - Agence TEBESSA CENTRE",
        "description": "not available",
        "street": "Rue El Amir Abdelkader Route de Constantine Tebessa",
        "city": "Tebessa",
        "state": "TEBESSA",
        "postal_code": "",
        "lat": "35.4078",
        "lng": "8.112599",
        "phone": "07 82 29 14 79 \/ 05 54 80 31 82",
        "fax": "",
        "email": "a120110@gam.dz",
        "website": "www.gam.dz",
        "logo_id": null,
        "path": null,
        "marker_id": "1",
        "description_2": "",
        "open_hours": "{\"mon\":[\"08:30 - 17:00\"],\"tue\":[\"08:30 - 17:00\"],\"wed\":[\"08:30 - 17:00\"],\"thu\":[\"08:30 - 17:00\"],\"fri\":[\"08:30 - 17:00\"],\"sat\":[\"08:30 - 17:00\"],\"sun\":[\"08:30 - 17:00\"]}",
        "ordr": "0",
        "brand": null,
        "categories": "115",
        "days_str": "Mon, Tues, Wed, Thur, Fri, Sat, Sun"
    },
    {
        "id": "1634",
        "title": "12-02.10 - Agence BIR EL ATER",
        "description": "not available",
        "street": "Cit\u00e9 150 logts, Centre Bir el Ater Tebessa",
        "city": "Bir El Ater ",
        "state": "TEBESSA",
        "postal_code": "",
        "lat": "34.761089",
        "lng": "8.05743",
        "phone": "07 82 29 14 80 \/ 05 54 84 87 27",
        "fax": "",
        "email": "a120210@gam.dz",
        "website": "www.gam.dz",
        "logo_id": null,
        "path": null,
        "marker_id": "1",
        "description_2": "",
        "open_hours": "{\"mon\":[\"08:30 - 17:00\"],\"tue\":[\"08:30 - 17:00\"],\"wed\":[\"08:30 - 17:00\"],\"thu\":[\"08:30 - 17:00\"],\"fri\":[\"08:30 - 17:00\"],\"sat\":[\"08:30 - 17:00\"],\"sun\":[\"08:30 - 17:00\"]}",
        "ordr": "0",
        "brand": null,
        "categories": "115",
        "days_str": "Mon, Tues, Wed, Thur, Fri, Sat, Sun"
    },
    {
        "id": "1631",
        "title": "12.A.CHAIB",
        "description": "not available",
        "street": "Cit\u00e9 nouvelle el Biadha,rue 1er novembre -el ouenza-tebessa",
        "city": "Ouenza",
        "state": "TEBESSA",
        "postal_code": "",
        "lat": "35.948996",
        "lng": "8.139318",
        "phone": "07 82 29 16 21 ",
        "fax": "",
        "email": "a12achaib@gam.dz",
        "website": "www.gam.dz",
        "logo_id": null,
        "path": null,
        "marker_id": "1",
        "description_2": "",
        "open_hours": "{\"mon\":[\"08:30 - 17:00\"],\"tue\":[\"08:30 - 17:00\"],\"wed\":[\"08:30 - 17:00\"],\"thu\":[\"08:30 - 17:00\"],\"fri\":[\"08:30 - 17:00\"],\"sat\":[\"08:30 - 17:00\"],\"sun\":[\"08:30 - 17:00\"]}",
        "ordr": "0",
        "brand": null,
        "categories": "115",
        "days_str": "Mon, Tues, Wed, Thur, Fri, Sat, Sun"
    },
    {
        "id": "1692",
        "title": "13-01.20 - Agence TLEMCEN",
        "description": "not available",
        "street": "Rue BOULVARD DERRAR ANBDERAHMANE  KIFANE  -TELEMCEN",
        "city": "Tlemcen",
        "state": "TLEMCEN",
        "postal_code": "",
        "lat": "34.889277",
        "lng": "-1.335138",
        "phone": "05 54 80 39 02 \/ 07 82 29 15 61  ",
        "fax": "",
        "email": "a130120@gam.dz",
        "website": "www.gam.dz",
        "logo_id": null,
        "path": null,
        "marker_id": "1",
        "description_2": "",
        "open_hours": "{\"mon\":[\"08:30 - 17:00\"],\"tue\":[\"08:30 - 17:00\"],\"wed\":[\"08:30 - 17:00\"],\"thu\":[\"08:30 - 17:00\"],\"fri\":[\"08:30 - 17:00\"],\"sat\":[\"08:30 - 17:00\"],\"sun\":[\"08:30 - 17:00\"]}",
        "ordr": "0",
        "brand": null,
        "categories": "130",
        "days_str": "Mon, Tues, Wed, Thur, Fri, Sat, Sun"
    },
    {
        "id": "1693",
        "title": "14-01.10 - Agence TIARET",
        "description": "not available",
        "street": "Boulevard Maouf Ahmed D117  n\u00b06 Tiaret",
        "city": "Tiaret   ",
        "state": "TIARET",
        "postal_code": "",
        "lat": "35.366873",
        "lng": "1.317641",
        "phone": "07 82 29 15 18 \/ 05 54 80 40 58",
        "fax": "",
        "email": "a140110@gam.dz",
        "website": "www.gam.dz",
        "logo_id": null,
        "path": null,
        "marker_id": "1",
        "description_2": "",
        "open_hours": "{\"mon\":[\"08:30 - 17:00\"],\"tue\":[\"08:30 - 17:00\"],\"wed\":[\"08:30 - 17:00\"],\"thu\":[\"08:30 - 17:00\"],\"fri\":[\"08:30 - 17:00\"],\"sat\":[\"08:30 - 17:00\"],\"sun\":[\"08:30 - 17:00\"]}",
        "ordr": "0",
        "brand": null,
        "categories": "131",
        "days_str": "Mon, Tues, Wed, Thur, Fri, Sat, Sun"
    },
    {
        "id": "1589",
        "title": "15-01.10 - Agence LE DRUGSTORE",
        "description": "not available",
        "street": " Centre Commercial \"Le Drugstore\" Tizi Ouzou",
        "city": "Tizi Ouzou  ",
        "state": "TIZI OUZOU",
        "postal_code": "",
        "lat": "36.705504",
        "lng": "4.056044",
        "phone": "07 82 29 14 31 \/ 05 54 84 86 68",
        "fax": "",
        "email": "a150110@gam.dz",
        "website": "www.gam.dz",
        "logo_id": null,
        "path": null,
        "marker_id": "1",
        "description_2": "",
        "open_hours": "{\"mon\":[\"08:30 - 17:00\"],\"tue\":[\"08:30 - 17:00\"],\"wed\":[\"08:30 - 17:00\"],\"thu\":[\"08:30 - 17:00\"],\"fri\":[\"08:30 - 17:00\"],\"sat\":[\"08:30 - 17:00\"],\"sun\":[\"08:30 - 17:00\"]}",
        "ordr": "0",
        "brand": null,
        "categories": "102",
        "days_str": "Mon, Tues, Wed, Thur, Fri, Sat, Sun"
    },
    {
        "id": "1583",
        "title": "15-01.20 - Agence CITE 05 JUILLET",
        "description": "not available",
        "street": "Cit\u00e9 5 juillet Bt 05 local 01 Tizi Ouzou",
        "city": "Tizi Ouzou  ",
        "state": "TIZI OUZOU",
        "postal_code": "",
        "lat": "36.711821",
        "lng": "4.051717",
        "phone": "07 82 29 14 32 \/ 05 54 80 16 26",
        "fax": "",
        "email": "a150120@gam.dz",
        "website": "www.gam.dz",
        "logo_id": null,
        "path": null,
        "marker_id": "1",
        "description_2": "",
        "open_hours": "{\"mon\":[\"08:30 - 17:00\"],\"tue\":[\"08:30 - 17:00\"],\"wed\":[\"08:30 - 17:00\"],\"thu\":[\"08:30 - 17:00\"],\"fri\":[\"08:30 - 17:00\"],\"sat\":[\"08:30 - 17:00\"],\"sun\":[\"08:30 - 17:00\"]}",
        "ordr": "0",
        "brand": null,
        "categories": "102",
        "days_str": "Mon, Tues, Wed, Thur, Fri, Sat, Sun"
    },
    {
        "id": "1585",
        "title": "15-01.30 - Agence NOUVELLE VILLE ",
        "description": "not available",
        "street": "Rue des fr\u00e9res OUDAHMANE, nouvelle ville Tizi Ouzou",
        "city": "Tizi Ouzou  ",
        "state": "TIZI OUZOU",
        "postal_code": "",
        "lat": "36.707375",
        "lng": "4.043373",
        "phone": "07 82 29 14 33 \/ 05 54 80 21 01",
        "fax": "",
        "email": "a150130@gam.dz",
        "website": "www.gam.dz",
        "logo_id": null,
        "path": null,
        "marker_id": "1",
        "description_2": "",
        "open_hours": "{\"mon\":[\"08:30 - 17:00\"],\"tue\":[\"08:30 - 17:00\"],\"wed\":[\"08:30 - 17:00\"],\"thu\":[\"08:30 - 17:00\"],\"fri\":[\"08:30 - 17:00\"],\"sat\":[\"08:30 - 17:00\"],\"sun\":[\"08:30 - 17:00\"]}",
        "ordr": "0",
        "brand": null,
        "categories": "102",
        "days_str": "Mon, Tues, Wed, Thur, Fri, Sat, Sun"
    },
    {
        "id": "1584",
        "title": "15-34.10 - Agence BOUZEGUENE",
        "description": "not available",
        "street": "Centre de Bouzeguene Tizi Ouzou",
        "city": "Bouzeguene  ",
        "state": "TIZI OUZOU",
        "postal_code": "",
        "lat": "36.61413",
        "lng": "4.472591",
        "phone": "07 82 29 14 65 \/ 05 54 83 16 98",
        "fax": "",
        "email": "a153410@gam.dz",
        "website": "www.gam.dz",
        "logo_id": null,
        "path": null,
        "marker_id": "1",
        "description_2": "",
        "open_hours": "{\"mon\":[\"08:30 - 17:00\"],\"tue\":[\"08:30 - 17:00\"],\"wed\":[\"08:30 - 17:00\"],\"thu\":[\"08:30 - 17:00\"],\"fri\":[\"08:30 - 17:00\"],\"sat\":[\"08:30 - 17:00\"],\"sun\":[\"08:30 - 17:00\"]}",
        "ordr": "0",
        "brand": null,
        "categories": "102",
        "days_str": "Mon, Tues, Wed, Thur, Fri, Sat, Sun"
    },
    {
        "id": "1587",
        "title": "15-38.10 - Agence TIGZIRT",
        "description": "not available",
        "street": "04, Rue Ghers Bousbene Tigzirt",
        "city": "Tigzirt  ",
        "state": "TIZI OUZOU",
        "postal_code": "",
        "lat": "36.890586",
        "lng": "4.126784",
        "phone": "07 82 29 14 74 \/ 05 54 80 28 53",
        "fax": "",
        "email": "a153810@gam.dz",
        "website": "www.gam.dz",
        "logo_id": null,
        "path": null,
        "marker_id": "1",
        "description_2": "",
        "open_hours": "{\"mon\":[\"08:30 - 17:00\"],\"tue\":[\"08:30 - 17:00\"],\"wed\":[\"08:30 - 17:00\"],\"thu\":[\"08:30 - 17:00\"],\"fri\":[\"08:30 - 17:00\"],\"sat\":[\"08:30 - 17:00\"],\"sun\":[\"08:30 - 17:00\"]}",
        "ordr": "0",
        "brand": null,
        "categories": "102",
        "days_str": "Mon, Tues, Wed, Thur, Fri, Sat, Sun"
    },
    {
        "id": "1582",
        "title": "15-40.10 - Agence BOUGHNI",
        "description": "not available",
        "street": "Rue  des fr\u00e9res BENAKLI 15003 cne BOGHNI",
        "city": "Boghni  ",
        "state": "TIZI OUZOU",
        "postal_code": "",
        "lat": "36.541055",
        "lng": "3.955875",
        "phone": "07 82 29 14 34 \/ 05 54 80 41 06",
        "fax": "",
        "email": "a154010@gam.dz",
        "website": "www.gam.dz",
        "logo_id": null,
        "path": null,
        "marker_id": "1",
        "description_2": "",
        "open_hours": "{\"mon\":[\"08:30 - 17:00\"],\"tue\":[\"08:30 - 17:00\"],\"wed\":[\"08:30 - 17:00\"],\"thu\":[\"08:30 - 17:00\"],\"fri\":[\"08:30 - 17:00\"],\"sat\":[\"08:30 - 17:00\"],\"sun\":[\"08:30 - 17:00\"]}",
        "ordr": "0",
        "brand": null,
        "categories": "102",
        "days_str": "Mon, Tues, Wed, Thur, Fri, Sat, Sun"
    },
    {
        "id": "1569",
        "title": "15.1.Achabni",
        "description": "not available",
        "street": "Immeuble Ait Ali locale n\u00b0 3 Tikobiene ; ouaguenoune . Tizi Ouzou ",
        "city": "Ouaguenoune",
        "state": "TIZI OUZOU",
        "postal_code": "",
        "lat": "36.770094",
        "lng": "4.175088",
        "phone": "07 82 29 15 33",
        "fax": "",
        "email": "a15achabni@gam.dz",
        "website": "www.gam.dz",
        "logo_id": null,
        "path": null,
        "marker_id": "1",
        "description_2": "",
        "open_hours": "{\"mon\":[\"08:30 - 17:00\"],\"tue\":[\"08:30 - 17:00\"],\"wed\":[\"08:30 - 17:00\"],\"thu\":[\"08:30 - 17:00\"],\"fri\":[\"08:30 - 17:00\"],\"sat\":[\"08:30 - 17:00\"],\"sun\":[\"08:30 - 17:00\"]}",
        "ordr": "0",
        "brand": null,
        "categories": "102",
        "days_str": "Mon, Tues, Wed, Thur, Fri, Sat, Sun"
    },
    {
        "id": "1570",
        "title": "15.3.A.CHABNI",
        "description": "not available",
        "street": "N\u00b07 1er \u00e9tage bouhamdoune maatkas w Tiziouzou",
        "city": "Meatka ",
        "state": "TIZI OUZOU",
        "postal_code": "",
        "lat": "36.619436",
        "lng": "3.957237",
        "phone": "07 82 29 15 33",
        "fax": "",
        "email": "a15achabni@gam.dz",
        "website": "www.gam.dz",
        "logo_id": null,
        "path": null,
        "marker_id": "1",
        "description_2": "",
        "open_hours": "{\"mon\":[\"08:30 - 17:00\"],\"tue\":[\"08:30 - 17:00\"],\"wed\":[\"08:30 - 17:00\"],\"thu\":[\"08:30 - 17:00\"],\"fri\":[\"08:30 - 17:00\"],\"sat\":[\"08:30 - 17:00\"],\"sun\":[\"08:30 - 17:00\"]}",
        "ordr": "0",
        "brand": null,
        "categories": "102",
        "days_str": "Mon, Tues, Wed, Thur, Fri, Sat, Sun"
    },
    {
        "id": "1571",
        "title": "15.5.ACHABNI",
        "description": "not available",
        "street": "Zone industrielle AISSET Idir,Taadja immeuble YEFSAF lot 95 local n\u00b013CNE Tizi Rached ",
        "city": "Tizi Rached ",
        "state": "TIZI OUZOU",
        "postal_code": "",
        "lat": "36.692784",
        "lng": "4.137303",
        "phone": "07 82 29 15 33",
        "fax": "",
        "email": "a15achabni@gam.dz",
        "website": "www.gam.dz",
        "logo_id": null,
        "path": null,
        "marker_id": "1",
        "description_2": "",
        "open_hours": "{\"mon\":[\"08:30 - 17:00\"],\"tue\":[\"08:30 - 17:00\"],\"wed\":[\"08:30 - 17:00\"],\"thu\":[\"08:30 - 17:00\"],\"fri\":[\"08:30 - 17:00\"],\"sat\":[\"08:30 - 17:00\"],\"sun\":[\"08:30 - 17:00\"]}",
        "ordr": "0",
        "brand": null,
        "categories": "102",
        "days_str": "Mon, Tues, Wed, Thur, Fri, Sat, Sun"
    },
    {
        "id": "1572",
        "title": "15.6.A.CHABNI",
        "description": "not available",
        "street": "B7 Route Nationnale N\u00b015 Larabaa Nathirathen W-Tiziouzou",
        "city": "Larabaa Natherathen",
        "state": "TIZI OUZOU",
        "postal_code": "",
        "lat": "36.617812",
        "lng": "4.315422",
        "phone": "07 82 29 15 33",
        "fax": "",
        "email": "a15achabni@gam.dz",
        "website": "www.gam.dz",
        "logo_id": null,
        "path": null,
        "marker_id": "1",
        "description_2": "",
        "open_hours": "{\"mon\":[\"08:30 - 17:00\"],\"tue\":[\"08:30 - 17:00\"],\"wed\":[\"08:30 - 17:00\"],\"thu\":[\"08:30 - 17:00\"],\"fri\":[\"08:30 - 17:00\"],\"sat\":[\"08:30 - 17:00\"],\"sun\":[\"08:30 - 17:00\"]}",
        "ordr": "0",
        "brand": null,
        "categories": "102",
        "days_str": "Mon, Tues, Wed, Thur, Fri, Sat, Sun"
    },
    {
        "id": "1568",
        "title": "15.A.Chabni",
        "description": "not available",
        "street": "9, Avenue Abane Ramdane - Tizi Ouzou - W.Tizi Ouzou",
        "city": "Tizi Ouzou  ",
        "state": "TIZI OUZOU",
        "postal_code": "",
        "lat": "36.712903",
        "lng": "4.048736",
        "phone": "07 82 29 15 33",
        "fax": "",
        "email": "a15achabni@gam.dz",
        "website": "www.gam.dz",
        "logo_id": null,
        "path": null,
        "marker_id": "1",
        "description_2": "",
        "open_hours": "{\"mon\":[\"08:30 - 17:00\"],\"tue\":[\"08:30 - 17:00\"],\"wed\":[\"08:30 - 17:00\"],\"thu\":[\"08:30 - 17:00\"],\"fri\":[\"08:30 - 17:00\"],\"sat\":[\"08:30 - 17:00\"],\"sun\":[\"08:30 - 17:00\"]}",
        "ordr": "0",
        "brand": null,
        "categories": "102",
        "days_str": "Mon, Tues, Wed, Thur, Fri, Sat, Sun"
    },
    {
        "id": "1573",
        "title": "15.A.MESSAOUDENE",
        "description": "not available",
        "street": "Route de A\u00efn El Hammam - Azazga - W.Tizi Ouzou",
        "city": "Azazga",
        "state": "TIZI OUZOU",
        "postal_code": "",
        "lat": "36.558442",
        "lng": "4.274197",
        "phone": "07 82 29 15 46",
        "fax": "",
        "email": "a15amessaoudene@gam.dz",
        "website": "www.gam.dz",
        "logo_id": null,
        "path": null,
        "marker_id": "1",
        "description_2": "",
        "open_hours": "{\"mon\":[\"08:30 - 17:00\"],\"tue\":[\"08:30 - 17:00\"],\"wed\":[\"08:30 - 17:00\"],\"thu\":[\"08:30 - 17:00\"],\"fri\":[\"08:30 - 17:00\"],\"sat\":[\"08:30 - 17:00\"],\"sun\":[\"08:30 - 17:00\"]}",
        "ordr": "0",
        "brand": null,
        "categories": "102",
        "days_str": "Mon, Tues, Wed, Thur, Fri, Sat, Sun"
    },
    {
        "id": "1567",
        "title": "15.B.AITIDDIR",
        "description": "not available",
        "street": "Freha centre sur ancienne route d'AZAZGA Tizi Ouzou",
        "city": "Freha",
        "state": "TIZI OUZOU",
        "postal_code": "",
        "lat": "36.734386",
        "lng": "4.366791",
        "phone": "07 82 29 14 35",
        "fax": "",
        "email": "a115baitiddir@gam.dz",
        "website": "www.gam.dz",
        "logo_id": null,
        "path": null,
        "marker_id": "1",
        "description_2": "",
        "open_hours": "{\"mon\":[\"08:30 - 17:00\"],\"tue\":[\"08:30 - 17:00\"],\"wed\":[\"08:30 - 17:00\"],\"thu\":[\"08:30 - 17:00\"],\"fri\":[\"08:30 - 17:00\"],\"sat\":[\"08:30 - 17:00\"],\"sun\":[\"08:30 - 17:00\"]}",
        "ordr": "0",
        "brand": null,
        "categories": "102",
        "days_str": "Mon, Tues, Wed, Thur, Fri, Sat, Sun"
    },
    {
        "id": "1578",
        "title": "15.M.AMMAD",
        "description": "not available",
        "street": "Arkoub Nath Kaci Village Timizart loghbar, N\u00b005 commune Ait Aissa Mimoune. Tizi ouzou",
        "city": "Ait Aissa Mimoune",
        "state": "TIZI OUZOU",
        "postal_code": "",
        "lat": "36.725451",
        "lng": "4.087435",
        "phone": "05 57 92 35 53 ",
        "fax": "",
        "email": "a15mammad@gam.dz",
        "website": "www.gam.dz",
        "logo_id": null,
        "path": null,
        "marker_id": "1",
        "description_2": "",
        "open_hours": "{\"mon\":[\"08:30 - 17:00\"],\"tue\":[\"08:30 - 17:00\"],\"wed\":[\"08:30 - 17:00\"],\"thu\":[\"08:30 - 17:00\"],\"fri\":[\"08:30 - 17:00\"],\"sat\":[\"08:30 - 17:00\"],\"sun\":[\"08:30 - 17:00\"]}",
        "ordr": "0",
        "brand": null,
        "categories": "102",
        "days_str": "Mon, Tues, Wed, Thur, Fri, Sat, Sun"
    },
    {
        "id": "1562",
        "title": "16-09.10 - Agence LES SOURCES ",
        "description": "not available",
        "street": "KADAT LES SOURCES BIRMOURAD RAIS",
        "city": "Les Sources",
        "state": "ALGER",
        "postal_code": "",
        "lat": "36.735349",
        "lng": "3.050374",
        "phone": " 07 82 29 14 62 \/ 05 54 80 30 91 ",
        "fax": "",
        "email": "a160910@gam.dz",
        "website": "www.gam.dz",
        "logo_id": null,
        "path": null,
        "marker_id": "1",
        "description_2": "",
        "open_hours": "{\"mon\":[\"08:30 - 17:00\"],\"tue\":[\"08:30 - 17:00\"],\"wed\":[\"08:30 - 17:00\"],\"thu\":[\"08:30 - 17:00\"],\"fri\":[\"08:30 - 17:00\"],\"sat\":[\"08:30 - 17:00\"],\"sun\":[\"08:30 - 17:00\"]}",
        "ordr": "0",
        "brand": null,
        "categories": "91",
        "days_str": "Mon, Tues, Wed, Thur, Fri, Sat, Sun"
    },
    {
        "id": "1563",
        "title": "16-12.10 - Agence BIR KHADEM",
        "description": "not available",
        "street": " Place taleb mohamed ameziane commune et daira de bir khadel ",
        "city": "Birkhadem ",
        "state": "ALGER",
        "postal_code": "",
        "lat": "36.717067",
        "lng": "3.049006",
        "phone": "07 82 29 14 69 \/ 05 54 84 87 20",
        "fax": "",
        "email": "a161210@gam.dz",
        "website": "www.gam.dz",
        "logo_id": null,
        "path": null,
        "marker_id": "1",
        "description_2": "",
        "open_hours": "{\"mon\":[\"08:30 - 17:00\"],\"tue\":[\"08:30 - 17:00\"],\"wed\":[\"08:30 - 17:00\"],\"thu\":[\"08:30 - 17:00\"],\"fri\":[\"08:30 - 17:00\"],\"sat\":[\"08:30 - 17:00\"],\"sun\":[\"08:30 - 17:00\"]}",
        "ordr": "0",
        "brand": null,
        "categories": "91",
        "days_str": "Mon, Tues, Wed, Thur, Fri, Sat, Sun"
    },
    {
        "id": "1558",
        "title": "16-13.20 - Agence BELLE VUE",
        "description": "not available",
        "street": "15, Rue Abderrahmane Sebaa Bellevue El Harrach",
        "city": "El Harrach ",
        "state": "ALGER",
        "postal_code": "",
        "lat": "36.725893",
        "lng": "3.139072",
        "phone": "07 82 29 14 60 \/ 05 54 80 31 28",
        "fax": "",
        "email": "a161320@gam.dz",
        "website": "www.gam.dz",
        "logo_id": null,
        "path": null,
        "marker_id": "1",
        "description_2": "",
        "open_hours": "{\"mon\":[\"08:30 - 17:00\"],\"tue\":[\"08:30 - 17:00\"],\"wed\":[\"08:30 - 17:00\"],\"thu\":[\"08:30 - 17:00\"],\"fri\":[\"08:30 - 17:00\"],\"sat\":[\"08:30 - 17:00\"],\"sun\":[\"08:30 - 17:00\"]}",
        "ordr": "0",
        "brand": null,
        "categories": "91",
        "days_str": "Mon, Tues, Wed, Thur, Fri, Sat, Sun"
    },
    {
        "id": "1559",
        "title": "16-18.10 - Agence BAB EZZOUAR",
        "description": "not available",
        "street": "cit\u00e9 1200 logts cop\u00e9rative ESSANOUBER lot N\u00b0 02 BAB EZZOUAR  ",
        "city": "Bab Ezouar",
        "state": "ALGER",
        "postal_code": "",
        "lat": "36.720625",
        "lng": "3.185497",
        "phone": " 07 82 29 14 68 \/ 05 54 84 85 42 ",
        "fax": "",
        "email": "a161810@gam.dz",
        "website": "www.gam.dz",
        "logo_id": null,
        "path": null,
        "marker_id": "1",
        "description_2": "",
        "open_hours": "{\"mon\":[\"08:30 - 17:00\"],\"tue\":[\"08:30 - 17:00\"],\"wed\":[\"08:30 - 17:00\"],\"thu\":[\"08:30 - 17:00\"],\"fri\":[\"08:30 - 17:00\"],\"sat\":[\"08:30 - 17:00\"],\"sun\":[\"08:30 - 17:00\"]}",
        "ordr": "0",
        "brand": null,
        "categories": "91",
        "days_str": "Mon, Tues, Wed, Thur, Fri, Sat, Sun"
    },
    {
        "id": "1561",
        "title": "16-20.10 - Agence DAR EL BEIDA",
        "description": "not available",
        "street": "18,Rue Mohamed Khemisti, Local 49 dar el beida",
        "city": "Dar El Beida",
        "state": "ALGER",
        "postal_code": "",
        "lat": "36.715659",
        "lng": "3.208498",
        "phone": " 07 82 29 14 53 \/ 05 54 84 86 61",
        "fax": "",
        "email": "a162010@gam.dz",
        "website": "www.gam.dz",
        "logo_id": null,
        "path": null,
        "marker_id": "1",
        "description_2": "",
        "open_hours": "{\"mon\":[\"08:30 - 17:00\"],\"tue\":[\"08:30 - 17:00\"],\"wed\":[\"08:30 - 17:00\"],\"thu\":[\"08:30 - 17:00\"],\"fri\":[\"08:30 - 17:00\"],\"sat\":[\"08:30 - 17:00\"],\"sun\":[\"08:30 - 17:00\"]}",
        "ordr": "0",
        "brand": null,
        "categories": "91",
        "days_str": "Mon, Tues, Wed, Thur, Fri, Sat, Sun"
    },
    {
        "id": "1560",
        "title": "16-30.10 - Agence BORDJ EL KIFANE ",
        "description": "not available",
        "street": "Cit\u00e9 les Hirondelles Bloc 24 local N\u00b002 lido Bordj el kifan",
        "city": "Bordj el kifan  ",
        "state": "ALGER",
        "postal_code": "",
        "lat": "36.747187",
        "lng": "3.190432",
        "phone": "07 82 29 14 47",
        "fax": "",
        "email": "a163010@gam.dz",
        "website": "www.gam.dz",
        "logo_id": null,
        "path": null,
        "marker_id": "1",
        "description_2": "",
        "open_hours": "{\"mon\":[\"08:30 - 17:00\"],\"tue\":[\"08:30 - 17:00\"],\"wed\":[\"08:30 - 17:00\"],\"thu\":[\"08:30 - 17:00\"],\"fri\":[\"08:30 - 17:00\"],\"sat\":[\"08:30 - 17:00\"],\"sun\":[\"08:30 - 17:00\"]}",
        "ordr": "0",
        "brand": null,
        "categories": "91",
        "days_str": "Mon, Tues, Wed, Thur, Fri, Sat, Sun"
    },
    {
        "id": "1546",
        "title": "16.1.N.MEDJOUTI",
        "description": "not available",
        "street": "Route Nationale N\u00b024 Brise Marine Bordj el bahri",
        "city": "Bordj el bahri",
        "state": "ALGER",
        "postal_code": "",
        "lat": "36.785524",
        "lng": "3.249345",
        "phone": "07 71 15 00 10 ",
        "fax": "",
        "email": "a16nmedjouti@gam.dz",
        "website": "www.gam.dz",
        "logo_id": null,
        "path": null,
        "marker_id": "1",
        "description_2": "",
        "open_hours": "{\"mon\":[\"08:30 - 17:00\"],\"tue\":[\"08:30 - 17:00\"],\"wed\":[\"08:30 - 17:00\"],\"thu\":[\"08:30 - 17:00\"],\"fri\":[\"08:30 - 17:00\"],\"sat\":[\"08:30 - 17:00\"],\"sun\":[\"08:30 - 17:00\"]}",
        "ordr": "0",
        "brand": null,
        "categories": "91",
        "days_str": "Mon, Tues, Wed, Thur, Fri, Sat, Sun"
    },
    {
        "id": "1547",
        "title": "16.1.r.amroun",
        "description": "not available",
        "street": "coop 05 juillet N\u00b0 70 route de bougara sidi moussa",
        "city": "Sidi moussa ",
        "state": "ALGER",
        "postal_code": "",
        "lat": "36.622979",
        "lng": "3.107728",
        "phone": "07 82 29 13 50 ",
        "fax": "",
        "email": "a16ramroun@gam.dz",
        "website": "www.gam.dz",
        "logo_id": null,
        "path": null,
        "marker_id": "1",
        "description_2": "",
        "open_hours": "{\"mon\":[\"08:30 - 17:00\"],\"tue\":[\"08:30 - 17:00\"],\"wed\":[\"08:30 - 17:00\"],\"thu\":[\"08:30 - 17:00\"],\"fri\":[\"08:30 - 17:00\"],\"sat\":[\"08:30 - 17:00\"],\"sun\":[\"08:30 - 17:00\"]}",
        "ordr": "0",
        "brand": null,
        "categories": "91",
        "days_str": "Mon, Tues, Wed, Thur, Fri, Sat, Sun"
    },
    {
        "id": "1503",
        "title": "16.1.Y.YOUNSI",
        "description": "not available",
        "street": "Rue Djaiche Ettahrir El Watani N\u00b003 Tassala El Merdja-Alger",
        "city": "Tassala Elmerdja",
        "state": "ALGER",
        "postal_code": "",
        "lat": "36.622256",
        "lng": "2.922589",
        "phone": "07 82 29 15 32 ",
        "fax": "",
        "email": "a16yyounsi@gam.dz",
        "website": "www.gam.dz",
        "logo_id": null,
        "path": null,
        "marker_id": "1",
        "description_2": "",
        "open_hours": "{\"mon\":[\"08:30 - 17:00\"],\"tue\":[\"08:30 - 17:00\"],\"wed\":[\"08:30 - 17:00\"],\"thu\":[\"08:30 - 17:00\"],\"fri\":[\"08:30 - 17:00\"],\"sat\":[\"08:30 - 17:00\"],\"sun\":[\"08:30 - 17:00\"]}",
        "ordr": "0",
        "brand": null,
        "categories": "91",
        "days_str": "Mon, Tues, Wed, Thur, Fri, Sat, Sun"
    },
    {
        "id": "1548",
        "title": "16.2.R.AMROUN",
        "description": "not available",
        "street": "Cit\u00e9 la montagne bloc 1 E 15 BOUROUBA - Alger",
        "city": "Bourouba",
        "state": "ALGER",
        "postal_code": "",
        "lat": "36.711707",
        "lng": "3.115248",
        "phone": "07 82 29 13 50 ",
        "fax": "",
        "email": "a16ramroun@gam.dz",
        "website": "www.gam.dz",
        "logo_id": null,
        "path": null,
        "marker_id": "1",
        "description_2": "",
        "open_hours": "{\"mon\":[\"08:30 - 17:00\"],\"tue\":[\"08:30 - 17:00\"],\"wed\":[\"08:30 - 17:00\"],\"thu\":[\"08:30 - 17:00\"],\"fri\":[\"08:30 - 17:00\"],\"sat\":[\"08:30 - 17:00\"],\"sun\":[\"08:30 - 17:00\"]}",
        "ordr": "0",
        "brand": null,
        "categories": "91",
        "days_str": "Mon, Tues, Wed, Thur, Fri, Sat, Sun"
    },
    {
        "id": "1505",
        "title": "16.3.N.OMARI",
        "description": "not available",
        "street": "116 Rue des Fr\u00e8res Nadir Baba-Hassen  ALGER",
        "city": "Baba Hassen",
        "state": "ALGER",
        "postal_code": "",
        "lat": "36.732998",
        "lng": "3.085546",
        "phone": "06 61 51 12 53",
        "fax": "",
        "email": "a16nomari@gam.dz",
        "website": "www.gam.dz",
        "logo_id": null,
        "path": null,
        "marker_id": "1",
        "description_2": "",
        "open_hours": "{\"mon\":[\"08:30 - 17:00\"],\"tue\":[\"08:30 - 17:00\"],\"wed\":[\"08:30 - 17:00\"],\"thu\":[\"08:30 - 17:00\"],\"fri\":[\"08:30 - 17:00\"],\"sat\":[\"08:30 - 17:00\"],\"sun\":[\"08:30 - 17:00\"]}",
        "ordr": "0",
        "brand": null,
        "categories": "91",
        "days_str": "Mon, Tues, Wed, Thur, Fri, Sat, Sun"
    },
    {
        "id": "1554",
        "title": "16.4.N.OMARI",
        "description": "not available",
        "street": "Cit\u00e9 632 logts BT37 n\u00b01 EL MOHAMMADIA ",
        "city": "El Mohammadia ",
        "state": "ALGER",
        "postal_code": "",
        "lat": "36.730390",
        "lng": "3.147224",
        "phone": "0661 51 12 53",
        "fax": "",
        "email": "a16nomari@gam.dz",
        "website": "www.gam.dz",
        "logo_id": null,
        "path": null,
        "marker_id": "1",
        "description_2": "",
        "open_hours": "{\"mon\":[\"08:30 - 17:00\"],\"tue\":[\"08:30 - 17:00\"],\"wed\":[\"08:30 - 17:00\"],\"thu\":[\"08:30 - 17:00\"],\"fri\":[\"08:30 - 17:00\"],\"sat\":[\"08:30 - 17:00\"],\"sun\":[\"08:30 - 17:00\"]}",
        "ordr": "0",
        "brand": null,
        "categories": "91",
        "days_str": "Mon, Tues, Wed, Thur, Fri, Sat, Sun"
    },
    {
        "id": "1551",
        "title": "16.B.BERBAR",
        "description": "not available",
        "street": "10, Rue des Fr\u00e9res Oughlis el mouradia W.Alger ",
        "city": "El Mouaradia",
        "state": "ALGER",
        "postal_code": "",
        "lat": "36.745235",
        "lng": "3.050518",
        "phone": " 05 41 13 84 22",
        "fax": "",
        "email": "a16bberbar@gmail.dz",
        "website": "www.gam.dz",
        "logo_id": null,
        "path": null,
        "marker_id": "1",
        "description_2": "",
        "open_hours": "{\"mon\":[\"08:30 - 17:00\"],\"tue\":[\"08:30 - 17:00\"],\"wed\":[\"08:30 - 17:00\"],\"thu\":[\"08:30 - 17:00\"],\"fri\":[\"08:30 - 17:00\"],\"sat\":[\"08:30 - 17:00\"],\"sun\":[\"08:30 - 17:00\"]}",
        "ordr": "0",
        "brand": null,
        "categories": "91",
        "days_str": "Mon, Tues, Wed, Thur, Fri, Sat, Sun"
    },
    {
        "id": "1549",
        "title": "16.B.GRIBI",
        "description": "not available",
        "street": " Lot A7 LOT 7 BIS Ain-naadja local N\u00b0 01 W-Alger ",
        "city": "Gue de constantine",
        "state": "ALGER",
        "postal_code": "",
        "lat": "36.704473",
        "lng": "3.082667",
        "phone": "07 82 29 14 50",
        "fax": "",
        "email": "a16bgribi@gmail.dz",
        "website": "www.gam.dz",
        "logo_id": null,
        "path": null,
        "marker_id": "1",
        "description_2": "",
        "open_hours": "{\"mon\":[\"08:30 - 17:00\"],\"tue\":[\"08:30 - 17:00\"],\"wed\":[\"08:30 - 17:00\"],\"thu\":[\"08:30 - 17:00\"],\"fri\":[\"08:30 - 17:00\"],\"sat\":[\"08:30 - 17:00\"],\"sun\":[\"08:30 - 17:00\"]}",
        "ordr": "0",
        "brand": null,
        "categories": "91",
        "days_str": "Mon, Tues, Wed, Thur, Fri, Sat, Sun"
    },
    {
        "id": "1552",
        "title": "16.F.KACED",
        "description": "not available",
        "street": "14, Avenue Abdelhamid Khodja Kouba",
        "city": "Kouba  ",
        "state": "ALGER",
        "postal_code": "",
        "lat": "36.726673",
        "lng": "3.081495",
        "phone": "07 82 29 14 49",
        "fax": "",
        "email": "a16fkaced@gmail.dz",
        "website": "www.gam.dz",
        "logo_id": null,
        "path": null,
        "marker_id": "1",
        "description_2": "",
        "open_hours": "{\"mon\":[\"08:30 - 17:00\"],\"tue\":[\"08:30 - 17:00\"],\"wed\":[\"08:30 - 17:00\"],\"thu\":[\"08:30 - 17:00\"],\"fri\":[\"08:30 - 17:00\"],\"sat\":[\"08:30 - 17:00\"],\"sun\":[\"08:30 - 17:00\"]}",
        "ordr": "0",
        "brand": null,
        "categories": "91",
        "days_str": "Mon, Tues, Wed, Thur, Fri, Sat, Sun"
    },
    {
        "id": "1504",
        "title": "16.M.BOULASBAA",
        "description": "not available",
        "street": "Oued el tarfa route el achour Bt 07 S3 -Draria -Alger.",
        "city": "Draria",
        "state": "ALGER",
        "postal_code": "",
        "lat": "36.719165",
        "lng": "2.981306",
        "phone": "05 50 10 11 05",
        "fax": "",
        "email": "a16mboulasbaa@gam.dz",
        "website": "www.gam.dz",
        "logo_id": null,
        "path": null,
        "marker_id": "1",
        "description_2": "",
        "open_hours": "{\"mon\":[\"08:30 - 17:00\"],\"tue\":[\"08:30 - 17:00\"],\"wed\":[\"08:30 - 17:00\"],\"thu\":[\"08:30 - 17:00\"],\"fri\":[\"08:30 - 17:00\"],\"sat\":[\"08:30 - 17:00\"],\"sun\":[\"08:30 - 17:00\"]}",
        "ordr": "0",
        "brand": null,
        "categories": "91",
        "days_str": "Mon, Tues, Wed, Thur, Fri, Sat, Sun"
    },
    {
        "id": "1502",
        "title": "16.n.berraf",
        "description": "not available",
        "street": "13 Route de Cheraga Ouled fayet ALGER ",
        "city": "Ouled Fayet ",
        "state": "ALGER",
        "postal_code": "",
        "lat": "36.758156",
        "lng": "2.933685",
        "phone": "05 51 15 48 32 ",
        "fax": "",
        "email": "a16ramroun@gam.dz",
        "website": "www.gam.dz",
        "logo_id": null,
        "path": null,
        "marker_id": "1",
        "description_2": "",
        "open_hours": "{\"mon\":[\"08:30 - 17:00\"],\"tue\":[\"08:30 - 17:00\"],\"wed\":[\"08:30 - 17:00\"],\"thu\":[\"08:30 - 17:00\"],\"fri\":[\"08:30 - 17:00\"],\"sat\":[\"08:30 - 17:00\"],\"sun\":[\"08:30 - 17:00\"]}",
        "ordr": "0",
        "brand": null,
        "categories": "91",
        "days_str": "Mon, Tues, Wed, Thur, Fri, Sat, Sun"
    },
    {
        "id": "1545",
        "title": "16.N.MEDJOUTI",
        "description": "not available",
        "street": "Lot du lyc\u00e9e Abdelmoum\u00e8ne n\u00b097 \u2013 Rouiba",
        "city": "Rouiba",
        "state": "ALGER",
        "postal_code": "",
        "lat": "36.740930",
        "lng": "3.287165",
        "phone": "07 71 15 00 10 ",
        "fax": "",
        "email": "a16nmedjouti@gam.dz",
        "website": "www.gam.dz",
        "logo_id": null,
        "path": null,
        "marker_id": "1",
        "description_2": "",
        "open_hours": "{\"mon\":[\"08:30 - 17:00\"],\"tue\":[\"08:30 - 17:00\"],\"wed\":[\"08:30 - 17:00\"],\"thu\":[\"08:30 - 17:00\"],\"fri\":[\"08:30 - 17:00\"],\"sat\":[\"08:30 - 17:00\"],\"sun\":[\"08:30 - 17:00\"]}",
        "ordr": "0",
        "brand": null,
        "categories": "91",
        "days_str": "Mon, Tues, Wed, Thur, Fri, Sat, Sun"
    },
    {
        "id": "1557",
        "title": "16.N.NACERI",
        "description": "not available",
        "street": "35 Coop\u00e9rative Erroched Vieux Kouba, Kouba - Alger.",
        "city": "Kouba  ",
        "state": "ALGER",
        "postal_code": "",
        "lat": "36.730015",
        "lng": "3.078247",
        "phone": "07 71 93 79 33",
        "fax": "",
        "email": "a16nnaceri@gmail.dz",
        "website": "www.gam.dz",
        "logo_id": null,
        "path": null,
        "marker_id": "1",
        "description_2": "",
        "open_hours": "{\"mon\":[\"08:30 - 17:00\"],\"tue\":[\"08:30 - 17:00\"],\"wed\":[\"08:30 - 17:00\"],\"thu\":[\"08:30 - 17:00\"],\"fri\":[\"08:30 - 17:00\"],\"sat\":[\"08:30 - 17:00\"],\"sun\":[\"08:30 - 17:00\"]}",
        "ordr": "0",
        "brand": null,
        "categories": "91",
        "days_str": "Mon, Tues, Wed, Thur, Fri, Sat, Sun"
    },
    {
        "id": "1500",
        "title": "16.N.OMARI",
        "description": "not available",
        "street": "56, lotissement Souk El Fellah - Dou\u00e9ra - W.Alger",
        "city": "Douera",
        "state": "ALGER",
        "postal_code": "",
        "lat": "36.649094",
        "lng": "2.927584",
        "phone": "0661 51 12 53",
        "fax": "",
        "email": "a16nomari@gam.dz",
        "website": "www.gam.dz",
        "logo_id": null,
        "path": null,
        "marker_id": "1",
        "description_2": "",
        "open_hours": "{\"mon\":[\"08:30 - 17:00\"],\"tue\":[\"08:30 - 17:00\"],\"wed\":[\"08:30 - 17:00\"],\"thu\":[\"08:30 - 17:00\"],\"fri\":[\"08:30 - 17:00\"],\"sat\":[\"08:30 - 17:00\"],\"sun\":[\"08:30 - 17:00\"]}",
        "ordr": "0",
        "brand": null,
        "categories": "91",
        "days_str": "Mon, Tues, Wed, Thur, Fri, Sat, Sun"
    },
    {
        "id": "1553",
        "title": "16.N.SAIDI",
        "description": "not available",
        "street": "454 Baraki, Route de l'Arbaa Alger",
        "city": "Beraki ",
        "state": "ALGER",
        "postal_code": "",
        "lat": "36.667295",
        "lng": "3.098580",
        "phone": "07 82 29 15 39",
        "fax": "",
        "email": "a16nsaidi@gam.dz",
        "website": "www.gam.dz",
        "logo_id": null,
        "path": null,
        "marker_id": "1",
        "description_2": "",
        "open_hours": "{\"mon\":[\"08:30 - 17:00\"],\"tue\":[\"08:30 - 17:00\"],\"wed\":[\"08:30 - 17:00\"],\"thu\":[\"08:30 - 17:00\"],\"fri\":[\"08:30 - 17:00\"],\"sat\":[\"08:30 - 17:00\"],\"sun\":[\"08:30 - 17:00\"]}",
        "ordr": "0",
        "brand": null,
        "categories": "91",
        "days_str": "Mon, Tues, Wed, Thur, Fri, Sat, Sun"
    },
    {
        "id": "1501",
        "title": "16.R.amroun",
        "description": "not available",
        "street": "20, Rue El Djamila Ain el Benian Alger",
        "city": "Ain Benian ",
        "state": "ALGER",
        "postal_code": "",
        "lat": "36.803256",
        "lng": "2.900121",
        "phone": "07 82 29 13 50 ",
        "fax": "",
        "email": "a16ramroun@gam.dz",
        "website": "www.gam.dz",
        "logo_id": null,
        "path": null,
        "marker_id": "1",
        "description_2": "",
        "open_hours": "{\"mon\":[\"08:30 - 17:00\"],\"tue\":[\"08:30 - 17:00\"],\"wed\":[\"08:30 - 17:00\"],\"thu\":[\"08:30 - 17:00\"],\"fri\":[\"08:30 - 17:00\"],\"sat\":[\"08:30 - 17:00\"],\"sun\":[\"08:30 - 17:00\"]}",
        "ordr": "0",
        "brand": null,
        "categories": "91",
        "days_str": "Mon, Tues, Wed, Thur, Fri, Sat, Sun"
    },
    {
        "id": "1556",
        "title": "16.R.MADDOUI",
        "description": "not available",
        "street": "Cit\u00e9 ravanal lot n\u00b018 BEN TALHA -BERRAKI ",
        "city": "Berraki ",
        "state": "ALGER",
        "postal_code": "",
        "lat": "36.648084",
        "lng": "3.075152",
        "phone": "05 41 60 72 05",
        "fax": "",
        "email": "a16rmaddoui@gmail.dz",
        "website": "www.gam.dz",
        "logo_id": null,
        "path": null,
        "marker_id": "1",
        "description_2": "",
        "open_hours": "{\"mon\":[\"08:30 - 17:00\"],\"tue\":[\"08:30 - 17:00\"],\"wed\":[\"08:30 - 17:00\"],\"thu\":[\"08:30 - 17:00\"],\"fri\":[\"08:30 - 17:00\"],\"sat\":[\"08:30 - 17:00\"],\"sun\":[\"08:30 - 17:00\"]}",
        "ordr": "0",
        "brand": null,
        "categories": "91",
        "days_str": "Mon, Tues, Wed, Thur, Fri, Sat, Sun"
    },
    {
        "id": "1498",
        "title": "16.Y.YOUNSI",
        "description": "not available",
        "street": "Cit\u00e9 297 logts CNEP Birtouta",
        "city": "Birtouta ",
        "state": "ALGER",
        "postal_code": "",
        "lat": "36.646094",
        "lng": "3.047605",
        "phone": "07 82 29 15 32 ",
        "fax": "",
        "email": "a16yyounsi@gam.dz",
        "website": "www.gam.dz",
        "logo_id": null,
        "path": null,
        "marker_id": "1",
        "description_2": "",
        "open_hours": "{\"mon\":[\"08:30 - 17:00\"],\"tue\":[\"08:30 - 17:00\"],\"wed\":[\"08:30 - 17:00\"],\"thu\":[\"08:30 - 17:00\"],\"fri\":[\"08:30 - 17:00\"],\"sat\":[\"08:30 - 17:00\"],\"sun\":[\"08:30 - 17:00\"]}",
        "ordr": "0",
        "brand": null,
        "categories": "91",
        "days_str": "Mon, Tues, Wed, Thur, Fri, Sat, Sun"
    },
    {
        "id": "1555",
        "title": "16.Z.SIDAZARA",
        "description": "not available",
        "street": "Cit\u00e9 406 logts AADL Bt 01 local N\u00b004 eucalyptus Alger",
        "city": "Eucalyptus",
        "state": "ALGER",
        "postal_code": "",
        "lat": "36.664526",
        "lng": "3.167926",
        "phone": "07 82 29 15 34",
        "fax": "",
        "email": "a16zsidazara@gmail.dz",
        "website": "www.gam.dz",
        "logo_id": null,
        "path": null,
        "marker_id": "1",
        "description_2": "",
        "open_hours": "{\"mon\":[\"08:30 - 17:00\"],\"tue\":[\"08:30 - 17:00\"],\"wed\":[\"08:30 - 17:00\"],\"thu\":[\"08:30 - 17:00\"],\"fri\":[\"08:30 - 17:00\"],\"sat\":[\"08:30 - 17:00\"],\"sun\":[\"08:30 - 17:00\"]}",
        "ordr": "0",
        "brand": null,
        "categories": "91",
        "days_str": "Mon, Tues, Wed, Thur, Fri, Sat, Sun"
    },
    {
        "id": "1630",
        "title": "17-01.20 - Agence Djelfa",
        "description": "not available",
        "street": "Local cit\u00e9 Chaabani mohamed coop\u00e9ratif\u00a0Ahmed Zabana 999 N\u00b0 14 section 161 lot\u00a0746 (B) Wilaya Djelfa",
        "city": "Djelfa",
        "state": "DJELFA",
        "postal_code": "",
        "lat": "34.663222",
        "lng": "3.260500",
        "phone": "07 82 29 13 85 \/ 05 54 82 03 69 ",
        "fax": "",
        "email": "a170120@gam.dz",
        "website": "www.gam.dz",
        "logo_id": null,
        "path": null,
        "marker_id": "1",
        "description_2": "",
        "open_hours": "{\"mon\":[\"08:30 - 17:00\"],\"tue\":[\"08:30 - 17:00\"],\"wed\":[\"08:30 - 17:00\"],\"thu\":[\"08:30 - 17:00\"],\"fri\":[\"08:30 - 17:00\"],\"sat\":[\"08:30 - 17:00\"],\"sun\":[\"08:30 - 17:00\"]}",
        "ordr": "0",
        "brand": null,
        "categories": null,
        "days_str": "Mon, Tues, Wed, Thur, Fri, Sat, Sun"
    },
    {
        "id": "1608",
        "title": "18.B.DJAOUI",
        "description": "not available",
        "street": "14 Rue Amra taher tahir jijel",
        "city": "Taher   ",
        "state": "JIJEL",
        "postal_code": "18000",
        "lat": "36.77536",
        "lng": "5.909275",
        "phone": "07 82 29 14 83",
        "fax": "",
        "email": "a18bdjaoui@gam.dz",
        "website": "www.gam.dz",
        "logo_id": null,
        "path": null,
        "marker_id": "1",
        "description_2": "",
        "open_hours": "{\"mon\":[\"08:30 - 17:00\"],\"tue\":[\"08:30 - 17:00\"],\"wed\":[\"08:30 - 17:00\"],\"thu\":[\"08:30 - 17:00\"],\"fri\":[\"08:30 - 17:00\"],\"sat\":[\"08:30 - 17:00\"],\"sun\":[\"08:30 - 17:00\"]}",
        "ordr": "0",
        "brand": null,
        "categories": "107",
        "days_str": "Mon, Tues, Wed, Thur, Fri, Sat, Sun"
    },
    {
        "id": "1672",
        "title": "19-01.10 - Agence DALLAS",
        "description": "not available",
        "street": "24 Brarma Abdellah Cit\u00e9 1er novembre 1954 Dalas-w-SETIF",
        "city": "Setif  ",
        "state": "SETIF",
        "postal_code": "",
        "lat": "36.191775",
        "lng": "5.429484",
        "phone": "07 82 29 15 04 \/ 05 54 84 85 22",
        "fax": "",
        "email": "a190110@gam.dz",
        "website": "www.gam.dz",
        "logo_id": null,
        "path": null,
        "marker_id": "1",
        "description_2": "",
        "open_hours": "{\"mon\":[\"08:30 - 17:00\"],\"tue\":[\"08:30 - 17:00\"],\"wed\":[\"08:30 - 17:00\"],\"thu\":[\"08:30 - 17:00\"],\"fri\":[\"08:30 - 17:00\"],\"sat\":[\"08:30 - 17:00\"],\"sun\":[\"08:30 - 17:00\"]}",
        "ordr": "0",
        "brand": null,
        "categories": "93",
        "days_str": "Mon, Tues, Wed, Thur, Fri, Sat, Sun"
    },
    {
        "id": "1673",
        "title": "19-01.40 - Agence COOPERATIVE EL AMEL",
        "description": "not available",
        "street": "Cit\u00e9 Hachemi cooperative EL AMEL rue ALEM Mokhtar n\u00b0 05 -SETIF",
        "city": "S\u00e9tif ",
        "state": "SETIF",
        "postal_code": "",
        "lat": "36.179269",
        "lng": "5.398209",
        "phone": "07 82 29 15 14 \/ 05 54 84 86 46",
        "fax": "",
        "email": "a190140@gam.dz",
        "website": "www.gam.dz",
        "logo_id": null,
        "path": null,
        "marker_id": "1",
        "description_2": "",
        "open_hours": "{\"mon\":[\"08:30 - 17:00\"],\"tue\":[\"08:30 - 17:00\"],\"wed\":[\"08:30 - 17:00\"],\"thu\":[\"08:30 - 17:00\"],\"fri\":[\"08:30 - 17:00\"],\"sat\":[\"08:30 - 17:00\"],\"sun\":[\"08:30 - 17:00\"]}",
        "ordr": "0",
        "brand": null,
        "categories": "93",
        "days_str": "Mon, Tues, Wed, Thur, Fri, Sat, Sun"
    },
    {
        "id": "1675",
        "title": "19-03.10 - Agence BENI AZIZ",
        "description": "not available",
        "street": "rue khemkhoum saadi -beni Aziz w setif",
        "city": "Beni Azize",
        "state": "SETIF",
        "postal_code": "",
        "lat": "36.196903",
        "lng": "5.415087",
        "phone": "07 82 29 15 13 \/ 05 54 84 85 75",
        "fax": "",
        "email": "190310@gam.dz",
        "website": "www.gam.dz",
        "logo_id": null,
        "path": null,
        "marker_id": "1",
        "description_2": "",
        "open_hours": "{\"mon\":[\"08:30 - 17:00\"],\"tue\":[\"08:30 - 17:00\"],\"wed\":[\"08:30 - 17:00\"],\"thu\":[\"08:30 - 17:00\"],\"fri\":[\"08:30 - 17:00\"],\"sat\":[\"08:30 - 17:00\"],\"sun\":[\"08:30 - 17:00\"]}",
        "ordr": "0",
        "brand": null,
        "categories": "93",
        "days_str": "Mon, Tues, Wed, Thur, Fri, Sat, Sun"
    },
    {
        "id": "1676",
        "title": "19-20.20 - Agence EL EULMA",
        "description": "not available",
        "street": "Rue du 1er novembre 54 El Eulma",
        "city": "El Eulma   ",
        "state": "SETIF",
        "postal_code": "",
        "lat": "36.152913",
        "lng": "5.679733",
        "phone": "07 82 29 15 11 \/ 05 54 84 85 21",
        "fax": "",
        "email": "a192020@gam.dz",
        "website": "www.gam.dz",
        "logo_id": null,
        "path": null,
        "marker_id": "1",
        "description_2": "",
        "open_hours": "{\"mon\":[\"08:30 - 17:00\"],\"tue\":[\"08:30 - 17:00\"],\"wed\":[\"08:30 - 17:00\"],\"thu\":[\"08:30 - 17:00\"],\"fri\":[\"08:30 - 17:00\"],\"sat\":[\"08:30 - 17:00\"],\"sun\":[\"08:30 - 17:00\"]}",
        "ordr": "0",
        "brand": null,
        "categories": "93",
        "days_str": "Mon, Tues, Wed, Thur, Fri, Sat, Sun"
    },
    {
        "id": "1654",
        "title": "19.1.H.DOUADI",
        "description": "not available",
        "street": "Cit\u00e9 100 logts Bt El-Eulma S\u00e9tif. ",
        "city": "El Eulma  ",
        "state": "SETIF",
        "postal_code": "",
        "lat": "36.160301",
        "lng": "5.698398",
        "phone": "07 82 29 13 95",
        "fax": "",
        "email": "a19hdouadi@gam.dz",
        "website": "www.gam.dz",
        "logo_id": null,
        "path": null,
        "marker_id": "1",
        "description_2": "",
        "open_hours": "{\"mon\":[\"08:30 - 17:00\"],\"tue\":[\"08:30 - 17:00\"],\"wed\":[\"08:30 - 17:00\"],\"thu\":[\"08:30 - 17:00\"],\"fri\":[\"08:30 - 17:00\"],\"sat\":[\"08:30 - 17:00\"],\"sun\":[\"08:30 - 17:00\"]}",
        "ordr": "0",
        "brand": null,
        "categories": "93",
        "days_str": "Mon, Tues, Wed, Thur, Fri, Sat, Sun"
    },
    {
        "id": "1655",
        "title": "19.2.H.DOUADI",
        "description": "not available",
        "street": "Cit\u00e9 des 400 Logements Commune et Da\u00efra de S\u00e9tif wilaya de S\u00e9tif",
        "city": "Setif   ",
        "state": "SETIF",
        "postal_code": "",
        "lat": "36.160325",
        "lng": "5.448174",
        "phone": "07 82 29 13 95",
        "fax": "",
        "email": "a19hdouadi@gam.dz",
        "website": "www.gam.dz",
        "logo_id": null,
        "path": null,
        "marker_id": "1",
        "description_2": "",
        "open_hours": "{\"mon\":[\"08:30 - 17:00\"],\"tue\":[\"08:30 - 17:00\"],\"wed\":[\"08:30 - 17:00\"],\"thu\":[\"08:30 - 17:00\"],\"fri\":[\"08:30 - 17:00\"],\"sat\":[\"08:30 - 17:00\"],\"sun\":[\"08:30 - 17:00\"]}",
        "ordr": "0",
        "brand": null,
        "categories": "93",
        "days_str": "Mon, Tues, Wed, Thur, Fri, Sat, Sun"
    },
    {
        "id": "1652",
        "title": "19.F.AIFA",
        "description": "not available",
        "street": "02 Rue Ouari Mokhtar Cit\u00e9 Yahyaoui EX C A3 N\u00b062 setif",
        "city": "Setif   ",
        "state": "SETIF",
        "postal_code": "",
        "lat": "36.198737",
        "lng": "5.424066",
        "phone": "07 82 29 15 05",
        "fax": "",
        "email": "a19faifa@gam.dz",
        "website": "www.gam.dz",
        "logo_id": null,
        "path": null,
        "marker_id": "1",
        "description_2": "",
        "open_hours": "{\"mon\":[\"08:30 - 17:00\"],\"tue\":[\"08:30 - 17:00\"],\"wed\":[\"08:30 - 17:00\"],\"thu\":[\"08:30 - 17:00\"],\"fri\":[\"08:30 - 17:00\"],\"sat\":[\"08:30 - 17:00\"],\"sun\":[\"08:30 - 17:00\"]}",
        "ordr": "0",
        "brand": null,
        "categories": "93",
        "days_str": "Mon, Tues, Wed, Thur, Fri, Sat, Sun"
    },
    {
        "id": "1653",
        "title": "19.H.DOUADI",
        "description": "not available",
        "street": "COMMUNE HAMMAM SOKHNA CENTRE W-SETIF",
        "city": "Hammam Soukhna",
        "state": "SETIF",
        "postal_code": "",
        "lat": "35.9756954",
        "lng": "5.8058058",
        "phone": "07 82 29 13 95",
        "fax": "",
        "email": "a19hdouadi@gam.dz",
        "website": "www.gam.dz",
        "logo_id": null,
        "path": null,
        "marker_id": "1",
        "description_2": "",
        "open_hours": "{\"mon\":[\"08:30 - 17:00\"],\"tue\":[\"08:30 - 17:00\"],\"wed\":[\"08:30 - 17:00\"],\"thu\":[\"08:30 - 17:00\"],\"fri\":[\"08:30 - 17:00\"],\"sat\":[\"08:30 - 17:00\"],\"sun\":[\"08:30 - 17:00\"]}",
        "ordr": "0",
        "brand": null,
        "categories": "93",
        "days_str": "Mon, Tues, Wed, Thur, Fri, Sat, Sun"
    },
    {
        "id": "1650",
        "title": "19.S.GUELLATI",
        "description": "not available",
        "street": "Cit\u00e9 Houari Boumedienne Rue OUADA El hanachi El Eulma",
        "city": "El Eulma",
        "state": "SETIF",
        "postal_code": "",
        "lat": "36.162341",
        "lng": "5.683927",
        "phone": "07 82 29 15 47",
        "fax": "",
        "email": "a19sguellati@gam.dz",
        "website": "www.gam.dz",
        "logo_id": null,
        "path": null,
        "marker_id": "1",
        "description_2": "",
        "open_hours": "{\"mon\":[\"08:30 - 17:00\"],\"tue\":[\"08:30 - 17:00\"],\"wed\":[\"08:30 - 17:00\"],\"thu\":[\"08:30 - 17:00\"],\"fri\":[\"08:30 - 17:00\"],\"sat\":[\"08:30 - 17:00\"],\"sun\":[\"08:30 - 17:00\"]}",
        "ordr": "0",
        "brand": null,
        "categories": "93",
        "days_str": "Mon, Tues, Wed, Thur, Fri, Sat, Sun"
    },
    {
        "id": "1656",
        "title": "19.Z.YAHIA",
        "description": "not available",
        "street": "cit\u00e9 Houari Boumediene Rue Amar Goumidi N\u00b01- El Eulma",
        "city": "El Eulma  ",
        "state": "SETIF",
        "postal_code": "",
        "lat": "36.160301",
        "lng": "5.698398",
        "phone": "07 82 29 15 10",
        "fax": "",
        "email": "a19zyahia@gam.dz",
        "website": "www.gam.dz",
        "logo_id": null,
        "path": null,
        "marker_id": "1",
        "description_2": "",
        "open_hours": "{\"mon\":[\"08:30 - 17:00\"],\"tue\":[\"08:30 - 17:00\"],\"wed\":[\"08:30 - 17:00\"],\"thu\":[\"08:30 - 17:00\"],\"fri\":[\"08:30 - 17:00\"],\"sat\":[\"08:30 - 17:00\"],\"sun\":[\"08:30 - 17:00\"]}",
        "ordr": "0",
        "brand": null,
        "categories": "93",
        "days_str": "Mon, Tues, Wed, Thur, Fri, Sat, Sun"
    },
    {
        "id": "1685",
        "title": "20-01.20 - Agence Sa\u00efda",
        "description": "not available",
        "street": "La rue de la r\u00e9volution N\u00b023 commune et daira de Saida W-SAIDA",
        "city": "Sa\u00efda",
        "state": "SAIDA",
        "postal_code": "",
        "lat": "34.829672",
        "lng": "0.153324",
        "phone": "07 82 89 76 39 \/ 05 54 80 37 31",
        "fax": "",
        "email": "a200120@gam.dz",
        "website": "www.gam.dz",
        "logo_id": null,
        "path": null,
        "marker_id": "1",
        "description_2": "",
        "open_hours": "{\"mon\":[\"08:30 - 17:00\"],\"tue\":[\"08:30 - 17:00\"],\"wed\":[\"08:30 - 17:00\"],\"thu\":[\"08:30 - 17:00\"],\"fri\":[\"08:30 - 17:00\"],\"sat\":[\"08:30 - 17:00\"],\"sun\":[\"08:30 - 17:00\"]}",
        "ordr": "0",
        "brand": null,
        "categories": "129",
        "days_str": "Mon, Tues, Wed, Thur, Fri, Sat, Sun"
    },
    {
        "id": "1632",
        "title": "21-01.10 - Agence SKIKDA",
        "description": "not available",
        "street": "Hay salah Boukeroua maison N\u00b033 local N\u00b003 Skikda",
        "city": "Skikda  ",
        "state": "SKIKDA",
        "postal_code": "",
        "lat": "36.87152",
        "lng": "6.910181",
        "phone": "07 82 29 14 84 \/ 05 54 80 21 46",
        "fax": "",
        "email": "a210110@gam.dz",
        "website": "www.gam.dz",
        "logo_id": null,
        "path": null,
        "marker_id": "1",
        "description_2": "",
        "open_hours": "{\"mon\":[\"08:30 - 17:00\"],\"tue\":[\"08:30 - 17:00\"],\"wed\":[\"08:30 - 17:00\"],\"thu\":[\"08:30 - 17:00\"],\"fri\":[\"08:30 - 17:00\"],\"sat\":[\"08:30 - 17:00\"],\"sun\":[\"08:30 - 17:00\"]}",
        "ordr": "0",
        "brand": null,
        "categories": "110",
        "days_str": "Mon, Tues, Wed, Thur, Fri, Sat, Sun"
    },
    {
        "id": "1618",
        "title": "21.1.Y.BOULECHFAR",
        "description": "not available",
        "street": "Cit\u00e9 20 ao\u00fbt 1956 - Sidi Mezghiche - W.Skikda",
        "city": "El Hrouche",
        "state": "SKIKDA",
        "postal_code": "",
        "lat": "36.680092",
        "lng": "6.718628",
        "phone": "07 70 99 41 07",
        "fax": "",
        "email": "a25yboulechfar@gam.dz",
        "website": "www.gam.dz",
        "logo_id": null,
        "path": null,
        "marker_id": "1",
        "description_2": "",
        "open_hours": "{\"mon\":[\"08:30 - 17:00\"],\"tue\":[\"08:30 - 17:00\"],\"wed\":[\"08:30 - 17:00\"],\"thu\":[\"08:30 - 17:00\"],\"fri\":[\"08:30 - 17:00\"],\"sat\":[\"08:30 - 17:00\"],\"sun\":[\"08:30 - 17:00\"]}",
        "ordr": "0",
        "brand": null,
        "categories": "110",
        "days_str": "Mon, Tues, Wed, Thur, Fri, Sat, Sun"
    },
    {
        "id": "1622",
        "title": "21.B.1.BOULGAMH",
        "description": "not available",
        "street": "Les all\u00e9es du 20 Ao\u00fbt 1955 - Minitour n\u00b05 - Skikda - W.Skikda",
        "city": "Skikda",
        "state": "SKIKDA",
        "postal_code": "",
        "lat": "36.871325",
        "lng": "6.912445",
        "phone": "07 82 29 14 86",
        "fax": "",
        "email": "a21bboulgamh@gam.dz",
        "website": "www.gam.dz",
        "logo_id": null,
        "path": null,
        "marker_id": "1",
        "description_2": "",
        "open_hours": "{\"mon\":[\"08:30 - 17:00\"],\"tue\":[\"08:30 - 17:00\"],\"wed\":[\"08:30 - 17:00\"],\"thu\":[\"08:30 - 17:00\"],\"fri\":[\"08:30 - 17:00\"],\"sat\":[\"08:30 - 17:00\"],\"sun\":[\"08:30 - 17:00\"]}",
        "ordr": "0",
        "brand": null,
        "categories": "110",
        "days_str": "Mon, Tues, Wed, Thur, Fri, Sat, Sun"
    },
    {
        "id": "1620",
        "title": "21.B.2.BOULGAMH",
        "description": "not available",
        "street": "Cit\u00e9 Rahouadj - Tamalous - W.Skikda",
        "city": "Tamalous",
        "state": "SKIKDA",
        "postal_code": "",
        "lat": "36.835754",
        "lng": "6.645105",
        "phone": "07 82 29 14 85",
        "fax": "",
        "email": "a21bboulgamh@gam.dz",
        "website": "www.gam.dz",
        "logo_id": null,
        "path": null,
        "marker_id": "1",
        "description_2": "",
        "open_hours": "{\"mon\":[\"08:30 - 17:00\"],\"tue\":[\"08:30 - 17:00\"],\"wed\":[\"08:30 - 17:00\"],\"thu\":[\"08:30 - 17:00\"],\"fri\":[\"08:30 - 17:00\"],\"sat\":[\"08:30 - 17:00\"],\"sun\":[\"08:30 - 17:00\"]}",
        "ordr": "0",
        "brand": null,
        "categories": "110",
        "days_str": "Mon, Tues, Wed, Thur, Fri, Sat, Sun"
    },
    {
        "id": "1619",
        "title": "21.B.BOULGAMH",
        "description": "not available",
        "street": "Kerkra, Ziroud Youcef wilaya de  SKIKDA",
        "city": "Skikda",
        "state": "SKIKDA",
        "postal_code": "",
        "lat": "36.931331",
        "lng": "6.587682",
        "phone": "07 82 29 14 84",
        "fax": "",
        "email": "a21bboulgamh@gam.dz",
        "website": "www.gam.dz",
        "logo_id": null,
        "path": null,
        "marker_id": "1",
        "description_2": "",
        "open_hours": "{\"mon\":[\"08:30 - 17:00\"],\"tue\":[\"08:30 - 17:00\"],\"wed\":[\"08:30 - 17:00\"],\"thu\":[\"08:30 - 17:00\"],\"fri\":[\"08:30 - 17:00\"],\"sat\":[\"08:30 - 17:00\"],\"sun\":[\"08:30 - 17:00\"]}",
        "ordr": "0",
        "brand": null,
        "categories": "110",
        "days_str": "Mon, Tues, Wed, Thur, Fri, Sat, Sun"
    },
    {
        "id": "1694",
        "title": "22-01.20 - Agence MAQAM ECHAHID",
        "description": "not available",
        "street": "N\u00b0 07; Cit\u00e9 des 119 Villas, Maqam' Echahid;SIDI BELABBES",
        "city": "Sidi Belabbes ",
        "state": "SIDI BELABES",
        "postal_code": "",
        "lat": "35.202225",
        "lng": "-0.629892",
        "phone": "07 82 29 16 09 \/ 05 54 80 31 98",
        "fax": "",
        "email": "a220120@gam.dz",
        "website": "www.gam.dz",
        "logo_id": null,
        "path": null,
        "marker_id": "1",
        "description_2": "",
        "open_hours": "{\"mon\":[\"08:30 - 17:00\"],\"tue\":[\"08:30 - 17:00\"],\"wed\":[\"08:30 - 17:00\"],\"thu\":[\"08:30 - 17:00\"],\"fri\":[\"08:30 - 17:00\"],\"sat\":[\"08:30 - 17:00\"],\"sun\":[\"08:30 - 17:00\"]}",
        "ordr": "0",
        "brand": null,
        "categories": "132",
        "days_str": "Mon, Tues, Wed, Thur, Fri, Sat, Sun"
    },
    {
        "id": "1633",
        "title": "23-01.20 - Agence ANNABA",
        "description": "not available",
        "street": "154 Maatar Lakhdar ex Rue des viollettes Annaba",
        "city": "Annaba  ",
        "state": "ANNABA",
        "postal_code": "",
        "lat": "36.902302",
        "lng": "7.768223",
        "phone": " 07 82 29 14 88 \/ 05 54 80 36 43",
        "fax": "",
        "email": "a230120@gam.dz",
        "website": "www.gam.dz",
        "logo_id": null,
        "path": null,
        "marker_id": "1",
        "description_2": "",
        "open_hours": "{\"mon\":[\"08:30 - 17:00\"],\"tue\":[\"08:30 - 17:00\"],\"wed\":[\"08:30 - 17:00\"],\"thu\":[\"08:30 - 17:00\"],\"fri\":[\"08:30 - 17:00\"],\"sat\":[\"08:30 - 17:00\"],\"sun\":[\"08:30 - 17:00\"]}",
        "ordr": "0",
        "brand": null,
        "categories": "112",
        "days_str": "Mon, Tues, Wed, Thur, Fri, Sat, Sun"
    },
    {
        "id": "1624",
        "title": "23.1.a.LAOUBI",
        "description": "not available",
        "street": "11 Rue SAYOUD Achour ; Annaba",
        "city": "Annaba",
        "state": "ANNABA",
        "postal_code": "",
        "lat": "36.908243",
        "lng": "7.759208",
        "phone": "05 61 75 71 88",
        "fax": "",
        "email": "a23alaoubi@gam.dz",
        "website": "www.gam.dz",
        "logo_id": null,
        "path": null,
        "marker_id": "1",
        "description_2": "",
        "open_hours": "{\"mon\":[\"08:30 - 17:00\"],\"tue\":[\"08:30 - 17:00\"],\"wed\":[\"08:30 - 17:00\"],\"thu\":[\"08:30 - 17:00\"],\"fri\":[\"08:30 - 17:00\"],\"sat\":[\"08:30 - 17:00\"],\"sun\":[\"08:30 - 17:00\"]}",
        "ordr": "0",
        "brand": null,
        "categories": "112",
        "days_str": "Mon, Tues, Wed, Thur, Fri, Sat, Sun"
    },
    {
        "id": "1625",
        "title": "23.5.a.laoubi",
        "description": "not available",
        "street": "3 rue el Moukrani ain berda Annaba ",
        "city": "Ain El Berda",
        "state": "ANNABA",
        "postal_code": "",
        "lat": "36.644917",
        "lng": "7.590099",
        "phone": "05 61 75 71 88",
        "fax": "",
        "email": "a23alaoubi@gam.dz",
        "website": "www.gam.dz",
        "logo_id": null,
        "path": null,
        "marker_id": "1",
        "description_2": "",
        "open_hours": "{\"mon\":[\"08:30 - 17:00\"],\"tue\":[\"08:30 - 17:00\"],\"wed\":[\"08:30 - 17:00\"],\"thu\":[\"08:30 - 17:00\"],\"fri\":[\"08:30 - 17:00\"],\"sat\":[\"08:30 - 17:00\"],\"sun\":[\"08:30 - 17:00\"]}",
        "ordr": "0",
        "brand": null,
        "categories": "112",
        "days_str": "Mon, Tues, Wed, Thur, Fri, Sat, Sun"
    },
    {
        "id": "1626",
        "title": "23.6.a.laoubi",
        "description": "not available",
        "street": "Route nationale locale, N\u00b001 El Chat - El Taref",
        "city": "El Taref",
        "state": "EL TAREF",
        "postal_code": "",
        "lat": "36.755858",
        "lng": "8.221298",
        "phone": "05 61 75 71 88",
        "fax": "",
        "email": "a23alaoubi@gmail.dz",
        "website": "www.gam.dz",
        "logo_id": null,
        "path": null,
        "marker_id": "1",
        "description_2": "",
        "open_hours": "{\"mon\":[\"08:30 - 17:00\"],\"tue\":[\"08:30 - 17:00\"],\"wed\":[\"08:30 - 17:00\"],\"thu\":[\"08:30 - 17:00\"],\"fri\":[\"08:30 - 17:00\"],\"sat\":[\"08:30 - 17:00\"],\"sun\":[\"08:30 - 17:00\"]}",
        "ordr": "0",
        "brand": null,
        "categories": "113",
        "days_str": "Mon, Tues, Wed, Thur, Fri, Sat, Sun"
    },
    {
        "id": "1623",
        "title": "23.A.LAOUBI",
        "description": "not available",
        "street": "Boulevard 1er novembre coop\u00e9rayive El Wafa El Bouni  Annaba",
        "city": "Annaba",
        "state": "ANNABA",
        "postal_code": "",
        "lat": "36.908017",
        "lng": "7.760500",
        "phone": "05 61 75 71 88",
        "fax": "",
        "email": "a23alaoubi@gam.dz",
        "website": "www.gam.dz",
        "logo_id": null,
        "path": null,
        "marker_id": "1",
        "description_2": "",
        "open_hours": "{\"mon\":[\"08:30 - 17:00\"],\"tue\":[\"08:30 - 17:00\"],\"wed\":[\"08:30 - 17:00\"],\"thu\":[\"08:30 - 17:00\"],\"fri\":[\"08:30 - 17:00\"],\"sat\":[\"08:30 - 17:00\"],\"sun\":[\"08:30 - 17:00\"]}",
        "ordr": "0",
        "brand": null,
        "categories": "112",
        "days_str": "Mon, Tues, Wed, Thur, Fri, Sat, Sun"
    },
    {
        "id": "1599",
        "title": "24-01.10 - Agence Guelma",
        "description": "not available",
        "street": "Cit\u00e9 19 Juin rue Bounar Salah N\u00b01 commune et daira de Guelma Wilaya de GUELMA",
        "city": "Guelma",
        "state": "Guelma",
        "postal_code": "",
        "lat": "36.4506801",
        "lng": "7.4181747",
        "phone": "0782 29 15 06 \/ 05 54 84 86 96",
        "fax": "",
        "email": "a240110@gam.dz",
        "website": "www.gam.dz",
        "logo_id": null,
        "path": null,
        "marker_id": "1",
        "description_2": "",
        "open_hours": "{\"mon\":[\"08:30 - 17:00\"],\"tue\":[\"08:30 - 17:00\"],\"wed\":[\"08:30 - 17:00\"],\"thu\":[\"08:30 - 17:00\"],\"fri\":[\"08:30 - 17:00\"],\"sat\":[\"08:30 - 17:00\"],\"sun\":[\"08:30 - 17:00\"]}",
        "ordr": "0",
        "brand": null,
        "categories": null,
        "days_str": "Mon, Tues, Wed, Thur, Fri, Sat, Sun"
    },
    {
        "id": "1613",
        "title": "25-01.10",
        "description": "not available",
        "street": " Cit\u00e9 filali les arcades Emir Abdelkader Constantine",
        "city": "Constantine  ",
        "state": "CONSTANTINE",
        "postal_code": "",
        "lat": "36.360155",
        "lng": "6.642433",
        "phone": "07 82 29 14 90 \/ 05 54 80 17 14",
        "fax": "",
        "email": "a250110@gam.dz",
        "website": "www.gam.dz",
        "logo_id": null,
        "path": null,
        "marker_id": "1",
        "description_2": "",
        "open_hours": "{\"mon\":[\"08:30 - 17:00\"],\"tue\":[\"08:30 - 17:00\"],\"wed\":[\"08:30 - 17:00\"],\"thu\":[\"08:30 - 17:00\"],\"fri\":[\"08:30 - 17:00\"],\"sat\":[\"08:30 - 17:00\"],\"sun\":[\"08:30 - 17:00\"]}",
        "ordr": "0",
        "brand": null,
        "categories": "105",
        "days_str": "Mon, Tues, Wed, Thur, Fri, Sat, Sun"
    },
    {
        "id": "1609",
        "title": "25-01.60 - Agence SIDI MABROUK",
        "description": "not available",
        "street": "31, Cit\u00e9 Ali Besbes sidi mabrouk Constantine",
        "city": "Sidi Mabrouk ",
        "state": "CONSTANTINE",
        "postal_code": "",
        "lat": "36.35663",
        "lng": "6.633082",
        "phone": "07 82 29 14 94 \/ 05 54 80 21 00",
        "fax": "",
        "email": "a250160@gam.dz",
        "website": "www.gam.dz",
        "logo_id": null,
        "path": null,
        "marker_id": "1",
        "description_2": "",
        "open_hours": "{\"mon\":[\"08:30 - 17:00\"],\"tue\":[\"08:30 - 17:00\"],\"wed\":[\"08:30 - 17:00\"],\"thu\":[\"08:30 - 17:00\"],\"fri\":[\"08:30 - 17:00\"],\"sat\":[\"08:30 - 17:00\"],\"sun\":[\"08:30 - 17:00\"]}",
        "ordr": "0",
        "brand": null,
        "categories": "105",
        "days_str": "Mon, Tues, Wed, Thur, Fri, Sat, Sun"
    },
    {
        "id": "1610",
        "title": "25-01.90 - Agence CITE ALI MENJEL",
        "description": "not available",
        "street": "Cit\u00e9 ALI MENDJELI 392 Lgts N\u00b01-Constantine ",
        "city": "Constantine  ",
        "state": "CONSTANTINE",
        "postal_code": "",
        "lat": "36.245553",
        "lng": "6.567662",
        "phone": "07 82 29 15 82 \/ 05 54 83 29 43",
        "fax": "",
        "email": "a250190@gam.dz",
        "website": "www.gam.dz",
        "logo_id": null,
        "path": null,
        "marker_id": "1",
        "description_2": "",
        "open_hours": "{\"mon\":[\"08:30 - 17:00\"],\"tue\":[\"08:30 - 17:00\"],\"wed\":[\"08:30 - 17:00\"],\"thu\":[\"08:30 - 17:00\"],\"fri\":[\"08:30 - 17:00\"],\"sat\":[\"08:30 - 17:00\"],\"sun\":[\"08:30 - 17:00\"]}",
        "ordr": "0",
        "brand": null,
        "categories": "105",
        "days_str": "Mon, Tues, Wed, Thur, Fri, Sat, Sun"
    },
    {
        "id": "1612",
        "title": "25-02.10 - Agence HAMMAM BOUZIANE ",
        "description": "not available",
        "street": "Cit\u00e9 Ain Sidera  N\u00b0142 Hamma Bouziane   Constantine",
        "city": "Hamma Bouziane  ",
        "state": "CONSTANTINE",
        "postal_code": "",
        "lat": "36.418199",
        "lng": "6.567662",
        "phone": "07 82 29 14 99 \/ 05 54 84 87 61",
        "fax": "",
        "email": "a250210@gam.dz",
        "website": "www.gam.dz",
        "logo_id": null,
        "path": null,
        "marker_id": "1",
        "description_2": "",
        "open_hours": "{\"mon\":[\"08:30 - 17:00\"],\"tue\":[\"08:30 - 17:00\"],\"wed\":[\"08:30 - 17:00\"],\"thu\":[\"08:30 - 17:00\"],\"fri\":[\"08:30 - 17:00\"],\"sat\":[\"08:30 - 17:00\"],\"sun\":[\"08:30 - 17:00\"]}",
        "ordr": "0",
        "brand": null,
        "categories": "105",
        "days_str": "Mon, Tues, Wed, Thur, Fri, Sat, Sun"
    },
    {
        "id": "1611",
        "title": "25-03.10 - Agence AIN ABID",
        "description": "not available",
        "street": "Cit\u00e9 Bouguetaia Med N\u00b072 Ain Abid Constantine",
        "city": "Ain Abid ",
        "state": "CONSTANTINE",
        "postal_code": "",
        "lat": "36.213591",
        "lng": "6.942384",
        "phone": "07 82 29 14 96 \/ 05 54 84 87 45",
        "fax": "",
        "email": "a250310@gam.dz",
        "website": "www.gam.dz",
        "logo_id": null,
        "path": null,
        "marker_id": "1",
        "description_2": "",
        "open_hours": "{\"mon\":[\"08:30 - 17:00\"],\"tue\":[\"08:30 - 17:00\"],\"wed\":[\"08:30 - 17:00\"],\"thu\":[\"08:30 - 17:00\"],\"fri\":[\"08:30 - 17:00\"],\"sat\":[\"08:30 - 17:00\"],\"sun\":[\"08:30 - 17:00\"]}",
        "ordr": "0",
        "brand": null,
        "categories": "105",
        "days_str": "Mon, Tues, Wed, Thur, Fri, Sat, Sun"
    },
    {
        "id": "1595",
        "title": "25.D.BENOTMANE",
        "description": "not available",
        "street": "Cit\u00e9 Bchir Hamma Bouziene Constantine",
        "city": "Hamma Bouziane  ",
        "state": "CONSTANTINE",
        "postal_code": "",
        "lat": "36.418199",
        "lng": "6.567662",
        "phone": "07 82 29 16 22",
        "fax": "",
        "email": "a25idjouabi@gam.dz",
        "website": "www.gam.dz",
        "logo_id": null,
        "path": null,
        "marker_id": "1",
        "description_2": "",
        "open_hours": "{\"mon\":[\"08:30 - 17:00\"],\"tue\":[\"08:30 - 17:00\"],\"wed\":[\"08:30 - 17:00\"],\"thu\":[\"08:30 - 17:00\"],\"fri\":[\"08:30 - 17:00\"],\"sat\":[\"08:30 - 17:00\"],\"sun\":[\"08:30 - 17:00\"]}",
        "ordr": "0",
        "brand": null,
        "categories": "105",
        "days_str": "Mon, Tues, Wed, Thur, Fri, Sat, Sun"
    },
    {
        "id": "1592",
        "title": "25.D.DERARDJA",
        "description": "not available",
        "street": "Cit\u00e9 el meleh N\u00b0372 Constantine",
        "city": "Constantine  ",
        "state": "CONSTANTINE",
        "postal_code": "",
        "lat": "36.360155",
        "lng": "6.642433",
        "phone": "07 82 29 15 54",
        "fax": "",
        "email": "a25ddetatdja@gam.dz",
        "website": "www.gam.dz",
        "logo_id": null,
        "path": null,
        "marker_id": "1",
        "description_2": "",
        "open_hours": "{\"mon\":[\"08:30 - 17:00\"],\"tue\":[\"08:30 - 17:00\"],\"wed\":[\"08:30 - 17:00\"],\"thu\":[\"08:30 - 17:00\"],\"fri\":[\"08:30 - 17:00\"],\"sat\":[\"08:30 - 17:00\"],\"sun\":[\"08:30 - 17:00\"]}",
        "ordr": "0",
        "brand": null,
        "categories": "105",
        "days_str": "Mon, Tues, Wed, Thur, Fri, Sat, Sun"
    },
    {
        "id": "1596",
        "title": "25.F.MAGRAOUI",
        "description": "not available",
        "street": "11 Cit\u00e9 Bouhali Laid, El Khroub Constantine",
        "city": "El Khroub ",
        "state": "CONSTANTINE",
        "postal_code": "",
        "lat": "36.264492",
        "lng": "6.687879",
        "phone": "07 82 29 14 97",
        "fax": "",
        "email": "a25fmagraoui@gam.dz",
        "website": "www.gam.dz",
        "logo_id": null,
        "path": null,
        "marker_id": "1",
        "description_2": "",
        "open_hours": "{\"mon\":[\"08:30 - 17:00\"],\"tue\":[\"08:30 - 17:00\"],\"wed\":[\"08:30 - 17:00\"],\"thu\":[\"08:30 - 17:00\"],\"fri\":[\"08:30 - 17:00\"],\"sat\":[\"08:30 - 17:00\"],\"sun\":[\"08:30 - 17:00\"]}",
        "ordr": "0",
        "brand": null,
        "categories": "105",
        "days_str": "Mon, Tues, Wed, Thur, Fri, Sat, Sun"
    },
    {
        "id": "1593",
        "title": "25.I.DJOUABI",
        "description": "not available",
        "street": "Route Nationale N\u00b005 Ain Smara Constantine",
        "city": "Ain Smara ",
        "state": "CONSTANTINE",
        "postal_code": "",
        "lat": "36.283187",
        "lng": "6.471658",
        "phone": "07 82 29 14 98",
        "fax": "",
        "email": "a25idjouabi@gam.dz",
        "website": "www.gam.dz",
        "logo_id": null,
        "path": null,
        "marker_id": "1",
        "description_2": "",
        "open_hours": "{\"mon\":[\"08:30 - 17:00\"],\"tue\":[\"08:30 - 17:00\"],\"wed\":[\"08:30 - 17:00\"],\"thu\":[\"08:30 - 17:00\"],\"fri\":[\"08:30 - 17:00\"],\"sat\":[\"08:30 - 17:00\"],\"sun\":[\"08:30 - 17:00\"]}",
        "ordr": "0",
        "brand": null,
        "categories": "105",
        "days_str": "Mon, Tues, Wed, Thur, Fri, Sat, Sun"
    },
    {
        "id": "1597",
        "title": "25.S.BEZIANE",
        "description": "not available",
        "street": "Cit\u00e9 DAHDOUH Hocine n\u00b081  Didouche Mourad",
        "city": "Didouche Mourad  ",
        "state": "CONSTANTINE",
        "postal_code": "",
        "lat": "36.456566",
        "lng": "6.653122",
        "phone": "07 82 29 14 91",
        "fax": "",
        "email": "a25fmagraoui@gam.dz",
        "website": "www.gam.dz",
        "logo_id": null,
        "path": null,
        "marker_id": "1",
        "description_2": "",
        "open_hours": "{\"mon\":[\"08:30 - 17:00\"],\"tue\":[\"08:30 - 17:00\"],\"wed\":[\"08:30 - 17:00\"],\"thu\":[\"08:30 - 17:00\"],\"fri\":[\"08:30 - 17:00\"],\"sat\":[\"08:30 - 17:00\"],\"sun\":[\"08:30 - 17:00\"]}",
        "ordr": "0",
        "brand": null,
        "categories": "105",
        "days_str": "Mon, Tues, Wed, Thur, Fri, Sat, Sun"
    },
    {
        "id": "1590",
        "title": "25.Y.BOULECHFAR",
        "description": "not available",
        "street": "Cit\u00e9 55 logements n\u00b032 - Zighoud Youcef - W.Constantine",
        "city": "Constantine ",
        "state": "CONSTANTINE",
        "postal_code": "",
        "lat": "36.530919",
        "lng": "6.70289",
        "phone": "07 70 99 41 07",
        "fax": "",
        "email": "a25yboulechfar@gam.dz",
        "website": "www.gam.dz",
        "logo_id": null,
        "path": null,
        "marker_id": "1",
        "description_2": "",
        "open_hours": "{\"mon\":[\"08:30 - 17:00\"],\"tue\":[\"08:30 - 17:00\"],\"wed\":[\"08:30 - 17:00\"],\"thu\":[\"08:30 - 17:00\"],\"fri\":[\"08:30 - 17:00\"],\"sat\":[\"08:30 - 17:00\"],\"sun\":[\"08:30 - 17:00\"]}",
        "ordr": "0",
        "brand": null,
        "categories": "105",
        "days_str": "Mon, Tues, Wed, Thur, Fri, Sat, Sun"
    },
    {
        "id": "1518",
        "title": "26.1.M.L.HAMMOUDI",
        "description": "not available",
        "street": "Cit\u00e9 mohamedi N\u00b043 Berrouaghia Medea",
        "city": "Berrouaghia",
        "state": "MEDEA",
        "postal_code": "",
        "lat": "36.162565",
        "lng": "2.917596",
        "phone": "07 82 29 15 36",
        "fax": "",
        "email": "a26mlhammoudi@gam.dz",
        "website": "www.gam.dz",
        "logo_id": null,
        "path": null,
        "marker_id": "1",
        "description_2": "",
        "open_hours": "{\"mon\":[\"08:30 - 17:00\"],\"tue\":[\"08:30 - 17:00\"],\"wed\":[\"08:30 - 17:00\"],\"thu\":[\"08:30 - 17:00\"],\"fri\":[\"08:30 - 17:00\"],\"sat\":[\"08:30 - 17:00\"],\"sun\":[\"08:30 - 17:00\"]}",
        "ordr": "0",
        "brand": null,
        "categories": "97",
        "days_str": "Mon, Tues, Wed, Thur, Fri, Sat, Sun"
    },
    {
        "id": "1517",
        "title": "26.M.L.HAMMOUDI",
        "description": "not available",
        "street": "Rue Mokadem  Ben Youcef  ( Hammam Bouchou ) Medea ",
        "city": "M\u00e9d\u00e9a ",
        "state": "MEDEA",
        "postal_code": "",
        "lat": "36.285385",
        "lng": "2.768025",
        "phone": "07 82 29 15 36",
        "fax": "",
        "email": "a26mlhammoudi@gam.dz",
        "website": "www.gam.dz",
        "logo_id": null,
        "path": null,
        "marker_id": "1",
        "description_2": "",
        "open_hours": "{\"mon\":[\"08:30 - 17:00\"],\"tue\":[\"08:30 - 17:00\"],\"wed\":[\"08:30 - 17:00\"],\"thu\":[\"08:30 - 17:00\"],\"fri\":[\"08:30 - 17:00\"],\"sat\":[\"08:30 - 17:00\"],\"sun\":[\"08:30 - 17:00\"]}",
        "ordr": "0",
        "brand": null,
        "categories": "97",
        "days_str": "Mon, Tues, Wed, Thur, Fri, Sat, Sun"
    },
    {
        "id": "1679",
        "title": "27.A.REZALI",
        "description": "not available",
        "street": "Cit\u00e9 72 logts, route d'Oran, b\u00e2timent B N\u00b013 Mostaganem.",
        "city": "Mostaganem",
        "state": "MOSTAGANEM",
        "postal_code": "",
        "lat": "35.917746",
        "lng": "0.075159",
        "phone": "07 72 90 44 43",
        "fax": "",
        "email": "a27arezali@gam.dz",
        "website": "www.gam.dz",
        "logo_id": null,
        "path": null,
        "marker_id": "1",
        "description_2": "",
        "open_hours": "{\"mon\":[\"08:30 - 17:00\"],\"tue\":[\"08:30 - 17:00\"],\"wed\":[\"08:30 - 17:00\"],\"thu\":[\"08:30 - 17:00\"],\"fri\":[\"08:30 - 17:00\"],\"sat\":[\"08:30 - 17:00\"],\"sun\":[\"08:30 - 17:00\"]}",
        "ordr": "0",
        "brand": null,
        "categories": "128",
        "days_str": "Mon, Tues, Wed, Thur, Fri, Sat, Sun"
    },
    {
        "id": "1680",
        "title": "27.S.BENMEHAL",
        "description": "not available",
        "street": " Ct\u00e9 122 \u00a0logts Bt A5 N\u00b024 Mechouma Mostaganem.",
        "city": "Mostaganem  ",
        "state": "MOSTAGANEM",
        "postal_code": "",
        "lat": "36.013124",
        "lng": "0.140138",
        "phone": "07 82 29 15 21",
        "fax": "",
        "email": "a27sbenmehal@gam.dz",
        "website": "www.gam.dz",
        "logo_id": null,
        "path": null,
        "marker_id": "1",
        "description_2": "",
        "open_hours": "{\"mon\":[\"08:30 - 17:00\"],\"tue\":[\"08:30 - 17:00\"],\"wed\":[\"08:30 - 17:00\"],\"thu\":[\"08:30 - 17:00\"],\"fri\":[\"08:30 - 17:00\"],\"sat\":[\"08:30 - 17:00\"],\"sun\":[\"08:30 - 17:00\"]}",
        "ordr": "0",
        "brand": null,
        "categories": "128",
        "days_str": "Mon, Tues, Wed, Thur, Fri, Sat, Sun"
    },
    {
        "id": "1670",
        "title": "28-01.10 - Agence M'SILA",
        "description": "not available",
        "street": "Cit\u00e9 administratif M'sila",
        "city": "M'sila  ",
        "state": "M'SILA",
        "postal_code": "",
        "lat": "35.707783",
        "lng": "4.535624",
        "phone": "07 82 29 16 23 \/ 05 54 80 34 24",
        "fax": "",
        "email": "a280110@gam.dz",
        "website": "www.gam.dz",
        "logo_id": null,
        "path": null,
        "marker_id": "1",
        "description_2": "",
        "open_hours": "{\"mon\":[\"08:30 - 17:00\"],\"tue\":[\"08:30 - 17:00\"],\"wed\":[\"08:30 - 17:00\"],\"thu\":[\"08:30 - 17:00\"],\"fri\":[\"08:30 - 17:00\"],\"sat\":[\"08:30 - 17:00\"],\"sun\":[\"08:30 - 17:00\"]}",
        "ordr": "0",
        "brand": null,
        "categories": null,
        "days_str": "Mon, Tues, Wed, Thur, Fri, Sat, Sun"
    },
    {
        "id": "1658",
        "title": "28.1.R.TIOUB",
        "description": "not available",
        "street": "Cit\u00e9 110 LSP BTS E local E5 - M'sila",
        "city": "M'sila",
        "state": "M'SILA",
        "postal_code": "",
        "lat": "35.677109",
        "lng": "4.541814",
        "phone": "07 82 29 15 45",
        "fax": "",
        "email": "a28rtioub@gam.dz",
        "website": "www.gam.dz",
        "logo_id": null,
        "path": null,
        "marker_id": "1",
        "description_2": "",
        "open_hours": "{\"mon\":[\"08:30 - 17:00\"],\"tue\":[\"08:30 - 17:00\"],\"wed\":[\"08:30 - 17:00\"],\"thu\":[\"08:30 - 17:00\"],\"fri\":[\"08:30 - 17:00\"],\"sat\":[\"08:30 - 17:00\"],\"sun\":[\"08:30 - 17:00\"]}",
        "ordr": "0",
        "brand": null,
        "categories": null,
        "days_str": "Mon, Tues, Wed, Thur, Fri, Sat, Sun"
    },
    {
        "id": "1659",
        "title": "28.2.R.TIOUB",
        "description": "not available",
        "street": "Local N\u00b051\/37  RDC Bat N\u00b007 Ouled Derradj Wilaya de M'sila ",
        "city": "Ouled Derradj  ",
        "state": "M'SILA",
        "postal_code": "",
        "lat": "35.623889",
        "lng": "4.789873",
        "phone": "07 82 29 15 45",
        "fax": "",
        "email": "a28rtioub@gam.dz",
        "website": "www.gam.dz",
        "logo_id": null,
        "path": null,
        "marker_id": "1",
        "description_2": "",
        "open_hours": "{\"mon\":[\"08:30 - 17:00\"],\"tue\":[\"08:30 - 17:00\"],\"wed\":[\"08:30 - 17:00\"],\"thu\":[\"08:30 - 17:00\"],\"fri\":[\"08:30 - 17:00\"],\"sat\":[\"08:30 - 17:00\"],\"sun\":[\"08:30 - 17:00\"]}",
        "ordr": "0",
        "brand": null,
        "categories": null,
        "days_str": "Mon, Tues, Wed, Thur, Fri, Sat, Sun"
    },
    {
        "id": "1660",
        "title": "28.3.R.TIOUB",
        "description": "not available",
        "street": "Cit\u00e9 Houari Boumedienne Berhoum  - M'sila",
        "city": "Berhoum",
        "state": "M'SILA",
        "postal_code": "",
        "lat": "35.647765",
        "lng": "5.007845",
        "phone": "07 82 29 15 45",
        "fax": "",
        "email": "a28rtioub@gam.dz",
        "website": "www.gam.dz",
        "logo_id": null,
        "path": null,
        "marker_id": "1",
        "description_2": "",
        "open_hours": "{\"mon\":[\"08:30 - 17:00\"],\"tue\":[\"08:30 - 17:00\"],\"wed\":[\"08:30 - 17:00\"],\"thu\":[\"08:30 - 17:00\"],\"fri\":[\"08:30 - 17:00\"],\"sat\":[\"08:30 - 17:00\"],\"sun\":[\"08:30 - 17:00\"]}",
        "ordr": "0",
        "brand": null,
        "categories": null,
        "days_str": "Mon, Tues, Wed, Thur, Fri, Sat, Sun"
    },
    {
        "id": "1661",
        "title": "28.B.BOUCHERIF",
        "description": "not available",
        "street": "Cit\u00e9\u00a0 19\u00a0 juin 1965 baladiat\u00a0 Sidi\u00a0 Aissa\u00a0 W.\u00a0 M\u2019SILA",
        "city": "Sidi Aissa",
        "state": "M'SILA",
        "postal_code": "",
        "lat": "35.814777",
        "lng": "3.702900",
        "phone": "07 82 29 15 50 ",
        "fax": "",
        "email": "a28bboucherif@gam.dz",
        "website": "www.gam.dz",
        "logo_id": null,
        "path": null,
        "marker_id": "1",
        "description_2": "",
        "open_hours": "{\"mon\":[\"08:30 - 17:00\"],\"tue\":[\"08:30 - 17:00\"],\"wed\":[\"08:30 - 17:00\"],\"thu\":[\"08:30 - 17:00\"],\"fri\":[\"08:30 - 17:00\"],\"sat\":[\"08:30 - 17:00\"],\"sun\":[\"08:30 - 17:00\"]}",
        "ordr": "0",
        "brand": null,
        "categories": null,
        "days_str": "Mon, Tues, Wed, Thur, Fri, Sat, Sun"
    },
    {
        "id": "1657",
        "title": "28.R.TIOUB",
        "description": "not available",
        "street": "CITE ELHOURANE HAMMAM DALAA",
        "city": "Hammam Delaa",
        "state": "M'SILA",
        "postal_code": "",
        "lat": "35.944519",
        "lng": "4.37707",
        "phone": "07 82 29 15 45",
        "fax": "",
        "email": "a28rtioub@gam.dz",
        "website": "www.gam.dz",
        "logo_id": null,
        "path": null,
        "marker_id": "1",
        "description_2": "",
        "open_hours": "{\"mon\":[\"08:30 - 17:00\"],\"tue\":[\"08:30 - 17:00\"],\"wed\":[\"08:30 - 17:00\"],\"thu\":[\"08:30 - 17:00\"],\"fri\":[\"08:30 - 17:00\"],\"sat\":[\"08:30 - 17:00\"],\"sun\":[\"08:30 - 17:00\"]}",
        "ordr": "0",
        "brand": null,
        "categories": null,
        "days_str": "Mon, Tues, Wed, Thur, Fri, Sat, Sun"
    },
    {
        "id": "1695",
        "title": "29-01.10 - Agence MASCARA",
        "description": "not available",
        "street": "03, rue IKHLEF B\u00e9laid - Mascara",
        "city": "Mascara",
        "state": "MASCARA",
        "postal_code": "",
        "lat": "35.394474",
        "lng": "0.141020",
        "phone": "07 82 29 15 22 \/ 05 54 80 32 44",
        "fax": "",
        "email": "a290110@gam.dz",
        "website": "www.gam.dz",
        "logo_id": null,
        "path": null,
        "marker_id": "1",
        "description_2": "",
        "open_hours": "{\"mon\":[\"08:30 - 17:00\"],\"tue\":[\"08:30 - 17:00\"],\"wed\":[\"08:30 - 17:00\"],\"thu\":[\"08:30 - 17:00\"],\"fri\":[\"08:30 - 17:00\"],\"sat\":[\"08:30 - 17:00\"],\"sun\":[\"08:30 - 17:00\"]}",
        "ordr": "0",
        "brand": null,
        "categories": "133",
        "days_str": "Mon, Tues, Wed, Thur, Fri, Sat, Sun"
    },
    {
        "id": "1515",
        "title": "30.L.Merizgui",
        "description": "not available",
        "street": " Cit\u00e9 Fadila Saadane commune et daira de Hassi Massaoud wilaya de OUARGLA",
        "city": "Hassi Messaoud",
        "state": "HASSI MESSAOUD",
        "postal_code": "",
        "lat": "30.416772",
        "lng": "5.393955",
        "phone": "07 70 63 29 63",
        "fax": "",
        "email": "a30lmerizgui@gam.dz",
        "website": "www.gam.dz",
        "logo_id": null,
        "path": null,
        "marker_id": "1",
        "description_2": "",
        "open_hours": "{\"mon\":[\"08:30 - 17:00\"],\"tue\":[\"08:30 - 17:00\"],\"wed\":[\"08:30 - 17:00\"],\"thu\":[\"08:30 - 17:00\"],\"fri\":[\"08:30 - 17:00\"],\"sat\":[\"08:30 - 17:00\"],\"sun\":[\"08:30 - 17:00\"]}",
        "ordr": "0",
        "brand": null,
        "categories": "95",
        "days_str": "Mon, Tues, Wed, Thur, Fri, Sat, Sun"
    },
    {
        "id": "1686",
        "title": "31-01.10 - Agence POINT DU JOUR",
        "description": "not available",
        "street": "123 Rue A cit\u00e9 point du jour Oran ",
        "city": "Oran",
        "state": "ORAN",
        "postal_code": "",
        "lat": "35.709364",
        "lng": "-0.601621",
        "phone": "07 82 29 15 23 \/ 05 54 80 22 64",
        "fax": "",
        "email": "a310110@gam.dz",
        "website": "www.gam.dz",
        "logo_id": null,
        "path": null,
        "marker_id": "1",
        "description_2": "",
        "open_hours": "{\"mon\":[\"08:30 - 17:00\"],\"tue\":[\"08:30 - 17:00\"],\"wed\":[\"08:30 - 17:00\"],\"thu\":[\"08:30 - 17:00\"],\"fri\":[\"08:30 - 17:00\"],\"sat\":[\"08:30 - 17:00\"],\"sun\":[\"08:30 - 17:00\"]}",
        "ordr": "0",
        "brand": null,
        "categories": "92",
        "days_str": "Mon, Tues, Wed, Thur, Fri, Sat, Sun"
    },
    {
        "id": "1687",
        "title": "31-01.20 - Agence GENERAL FERRADO",
        "description": "not available",
        "street": "88 rue G\u00e9n\u00e9ral HAMRI (EX G\u00e9n\u00e9ral FERRADO ) SEDDIKIA  -Oran",
        "city": "Oran",
        "state": "ORAN",
        "postal_code": "",
        "lat": "35.710145",
        "lng": "-0.611252",
        "phone": "07 82 29 15 24 \/ 05 54 80 33 17",
        "fax": "",
        "email": "a310120@gam.dz",
        "website": "www.gam.dz",
        "logo_id": null,
        "path": null,
        "marker_id": "1",
        "description_2": "",
        "open_hours": "{\"mon\":[\"08:30 - 17:00\"],\"tue\":[\"08:30 - 17:00\"],\"wed\":[\"08:30 - 17:00\"],\"thu\":[\"08:30 - 17:00\"],\"fri\":[\"08:30 - 17:00\"],\"sat\":[\"08:30 - 17:00\"],\"sun\":[\"08:30 - 17:00\"]}",
        "ordr": "0",
        "brand": null,
        "categories": "92",
        "days_str": "Mon, Tues, Wed, Thur, Fri, Sat, Sun"
    },
    {
        "id": "1688",
        "title": "31-01.30 - Agence MUSTAPHA BEN BOULAID",
        "description": "not available",
        "street": "88, Avenue Mustapha  Ben Boulaid; ORAN ",
        "city": "Oran ",
        "state": "ORAN",
        "postal_code": "",
        "lat": "35.687611",
        "lng": "-0.661744",
        "phone": "07 82 29 15 25 \/ 05 54 80 39 86",
        "fax": "",
        "email": "a310130@gam.dz",
        "website": "www.gam.dz",
        "logo_id": null,
        "path": null,
        "marker_id": "1",
        "description_2": "",
        "open_hours": "{\"mon\":[\"08:30 - 17:00\"],\"tue\":[\"08:30 - 17:00\"],\"wed\":[\"08:30 - 17:00\"],\"thu\":[\"08:30 - 17:00\"],\"fri\":[\"08:30 - 17:00\"],\"sat\":[\"08:30 - 17:00\"],\"sun\":[\"08:30 - 17:00\"]}",
        "ordr": "0",
        "brand": null,
        "categories": "92",
        "days_str": "Mon, Tues, Wed, Thur, Fri, Sat, Sun"
    },
    {
        "id": "1689",
        "title": "31-01.50 - Agence AIN TURK",
        "description": "not available",
        "street": "Plateau de trouville nich n\u00b0871 Ain Turck -Oran",
        "city": "Ain turk",
        "state": "ORAN",
        "postal_code": "",
        "lat": "35.735737",
        "lng": "-0.744172",
        "phone": "07 82 29 15 31 \/ 05 54 80 20 87",
        "fax": "",
        "email": "a310150@gam.dz",
        "website": "www.gam.dz",
        "logo_id": null,
        "path": null,
        "marker_id": "1",
        "description_2": "",
        "open_hours": "{\"mon\":[\"08:30 - 17:00\"],\"tue\":[\"08:30 - 17:00\"],\"wed\":[\"08:30 - 17:00\"],\"thu\":[\"08:30 - 17:00\"],\"fri\":[\"08:30 - 17:00\"],\"sat\":[\"08:30 - 17:00\"],\"sun\":[\"08:30 - 17:00\"]}",
        "ordr": "0",
        "brand": null,
        "categories": "92",
        "days_str": "Mon, Tues, Wed, Thur, Fri, Sat, Sun"
    },
    {
        "id": "1678",
        "title": "31.1 .K.BENNOURA",
        "description": "not available",
        "street": "Cit\u00e9 287 logts (USTO) husn el djiwar BT C\/3 local N\u00b004 Oran",
        "city": "Maraval",
        "state": "ORAN",
        "postal_code": "",
        "lat": "35.725774",
        "lng": "-0.572924",
        "phone": "07 82 29 15 26",
        "fax": "",
        "email": "a31kbennoura@gam.dz",
        "website": "www.gam.dz",
        "logo_id": null,
        "path": null,
        "marker_id": "1",
        "description_2": "",
        "open_hours": "{\"mon\":[\"08:30 - 17:00\"],\"tue\":[\"08:30 - 17:00\"],\"wed\":[\"08:30 - 17:00\"],\"thu\":[\"08:30 - 17:00\"],\"fri\":[\"08:30 - 17:00\"],\"sat\":[\"08:30 - 17:00\"],\"sun\":[\"08:30 - 17:00\"]}",
        "ordr": "0",
        "brand": null,
        "categories": "92",
        "days_str": "Mon, Tues, Wed, Thur, Fri, Sat, Sun"
    },
    {
        "id": "1677",
        "title": "31.K.BENNOURA",
        "description": "not available",
        "street": "02 Cit\u00e9 Kastor Maraval Oran. J38",
        "city": "Oran",
        "state": "ORAN",
        "postal_code": "",
        "lat": "35.670659",
        "lng": "-0.651221",
        "phone": "07 82 29 15 26",
        "fax": "",
        "email": "a31kbennoura@gam.dz",
        "website": "www.gam.dz",
        "logo_id": null,
        "path": null,
        "marker_id": "1",
        "description_2": "",
        "open_hours": "{\"mon\":[\"08:30 - 17:00\"],\"tue\":[\"08:30 - 17:00\"],\"wed\":[\"08:30 - 17:00\"],\"thu\":[\"08:30 - 17:00\"],\"fri\":[\"08:30 - 17:00\"],\"sat\":[\"08:30 - 17:00\"],\"sun\":[\"08:30 - 17:00\"]}",
        "ordr": "0",
        "brand": null,
        "categories": "92",
        "days_str": "Mon, Tues, Wed, Thur, Fri, Sat, Sun"
    },
    {
        "id": "1683",
        "title": "31.M.Bendella",
        "description": "not available",
        "street": " Hai Khemisti lot N\u00b0290 plan de morcellement 283 lot, Bir Eldjir Oran. ",
        "city": "Bir Eldjir",
        "state": "ORAN",
        "postal_code": "",
        "lat": "35.736515",
        "lng": "-0.570441",
        "phone": " 05 52 38 06 01",
        "fax": "",
        "email": "a31mbendella@gam.dz",
        "website": "www.gam.dz",
        "logo_id": null,
        "path": null,
        "marker_id": "1",
        "description_2": "",
        "open_hours": "{\"mon\":[\"08:30 - 17:00\"],\"tue\":[\"08:30 - 17:00\"],\"wed\":[\"08:30 - 17:00\"],\"thu\":[\"08:30 - 17:00\"],\"fri\":[\"08:30 - 17:00\"],\"sat\":[\"08:30 - 17:00\"],\"sun\":[\"08:30 - 17:00\"]}",
        "ordr": "0",
        "brand": null,
        "categories": "92",
        "days_str": "Mon, Tues, Wed, Thur, Fri, Sat, Sun"
    },
    {
        "id": "1664",
        "title": "34.1.B.MERZOUGUI",
        "description": "not available",
        "street": "Cit\u00e9 KELALECH AHMIMID HARRACH commune Bordj Bou Arreredj",
        "city": "Mhir BBA",
        "state": "BORDJ BOU ARREEIDJ",
        "postal_code": "",
        "lat": "36.070419",
        "lng": "4.756405",
        "phone": "07 82 29 13 77",
        "fax": "",
        "email": "a34bmerzougui@gam.dz",
        "website": "www.gam.dz",
        "logo_id": null,
        "path": null,
        "marker_id": "1",
        "description_2": "",
        "open_hours": "{\"mon\":[\"08:30 - 17:00\"],\"tue\":[\"08:30 - 17:00\"],\"wed\":[\"08:30 - 17:00\"],\"thu\":[\"08:30 - 17:00\"],\"fri\":[\"08:30 - 17:00\"],\"sat\":[\"08:30 - 17:00\"],\"sun\":[\"08:30 - 17:00\"]}",
        "ordr": "0",
        "brand": null,
        "categories": "125",
        "days_str": "Mon, Tues, Wed, Thur, Fri, Sat, Sun"
    },
    {
        "id": "1666",
        "title": "34.1.H.DERRARDJA",
        "description": "not available",
        "street": "Cit\u00e9 64 logts cop N\u00b0 17 bordj Ghedir Bordj Bou Arreredj",
        "city": "Bordj el guedir",
        "state": "BORDJ BOU ARREEIDJ",
        "postal_code": "",
        "lat": "35.91248",
        "lng": "4.924707",
        "phone": "07 82 29 15 12",
        "fax": "",
        "email": "a34hderrardja@gam.dz",
        "website": "www.gam.dz",
        "logo_id": null,
        "path": null,
        "marker_id": "1",
        "description_2": "",
        "open_hours": "{\"mon\":[\"08:30 - 17:00\"],\"tue\":[\"08:30 - 17:00\"],\"wed\":[\"08:30 - 17:00\"],\"thu\":[\"08:30 - 17:00\"],\"fri\":[\"08:30 - 17:00\"],\"sat\":[\"08:30 - 17:00\"],\"sun\":[\"08:30 - 17:00\"]}",
        "ordr": "0",
        "brand": null,
        "categories": "125",
        "days_str": "Mon, Tues, Wed, Thur, Fri, Sat, Sun"
    },
    {
        "id": "1663",
        "title": "34.B.MERZOUGUI",
        "description": "not available",
        "street": "1ere rue zone urbaine Bourdj Bou Arreridj",
        "city": "Bordj Bou Arerridj   ",
        "state": "BORDJ BOU ARREEIDJ",
        "postal_code": "",
        "lat": "36.070419",
        "lng": "4.756405",
        "phone": "07 82 29 13 77",
        "fax": "",
        "email": "a34bmerzougui@gam.dz",
        "website": "www.gam.dz",
        "logo_id": null,
        "path": null,
        "marker_id": "1",
        "description_2": "",
        "open_hours": "{\"mon\":[\"08:30 - 17:00\"],\"tue\":[\"08:30 - 17:00\"],\"wed\":[\"08:30 - 17:00\"],\"thu\":[\"08:30 - 17:00\"],\"fri\":[\"08:30 - 17:00\"],\"sat\":[\"08:30 - 17:00\"],\"sun\":[\"08:30 - 17:00\"]}",
        "ordr": "0",
        "brand": null,
        "categories": "125",
        "days_str": "Mon, Tues, Wed, Thur, Fri, Sat, Sun"
    },
    {
        "id": "1665",
        "title": "34.H.DERRARDJA",
        "description": "not available",
        "street": "29 BDV HOUARI BOUMEDIEN BBA",
        "city": "Bordj Bou Arerridj   ",
        "state": "BORDJ BOU ARREEIDJ",
        "postal_code": "",
        "lat": "36.073790",
        "lng": "4.758967",
        "phone": "07 82 29 15 12",
        "fax": "",
        "email": "a34hderrardja@gam.dz",
        "website": "www.gam.dz",
        "logo_id": null,
        "path": null,
        "marker_id": "1",
        "description_2": "",
        "open_hours": "{\"mon\":[\"08:30 - 17:00\"],\"tue\":[\"08:30 - 17:00\"],\"wed\":[\"08:30 - 17:00\"],\"thu\":[\"08:30 - 17:00\"],\"fri\":[\"08:30 - 17:00\"],\"sat\":[\"08:30 - 17:00\"],\"sun\":[\"08:30 - 17:00\"]}",
        "ordr": "0",
        "brand": null,
        "categories": "125",
        "days_str": "Mon, Tues, Wed, Thur, Fri, Sat, Sun"
    },
    {
        "id": "1667",
        "title": "34.S.MOHAMEDSEGHIR",
        "description": "not available",
        "street": "Lotissement Bouda, RUE A N\u00b049 Bordj Bou Arreredj",
        "city": "Bordj Bou Arerridj   ",
        "state": "BORDJ BOU ARREEIDJ",
        "postal_code": "",
        "lat": "36.070419",
        "lng": "4.756405",
        "phone": "07 82 29 15 09",
        "fax": "",
        "email": "a34smohamedseghir@gam.dz",
        "website": "www.gam.dz",
        "logo_id": null,
        "path": null,
        "marker_id": "1",
        "description_2": "",
        "open_hours": "{\"mon\":[\"08:30 - 17:00\"],\"tue\":[\"08:30 - 17:00\"],\"wed\":[\"08:30 - 17:00\"],\"thu\":[\"08:30 - 17:00\"],\"fri\":[\"08:30 - 17:00\"],\"sat\":[\"08:30 - 17:00\"],\"sun\":[\"08:30 - 17:00\"]}",
        "ordr": "0",
        "brand": null,
        "categories": "125",
        "days_str": "Mon, Tues, Wed, Thur, Fri, Sat, Sun"
    },
    {
        "id": "1586",
        "title": "35-02.10 - Agence BOUDOUAOU",
        "description": "not available",
        "street": "Cit\u00e9 El Merdja 08 mai 1945 , Coop\u00e9rative N\u00b0127 ,Section 16 Lot N\u00b003 , Boudouaou , BOUMERDES ",
        "city": "Boudouaou",
        "state": "BOUMERDES",
        "postal_code": "",
        "lat": "36.7004",
        "lng": "3.429645",
        "phone": "07 99 12 95 04  \/ 05 54 84 87 39",
        "fax": "",
        "email": "a350210@gam.dz",
        "website": "www.gam.dz",
        "logo_id": null,
        "path": null,
        "marker_id": "1",
        "description_2": "",
        "open_hours": "{\"mon\":[\"08:30 - 17:00\"],\"tue\":[\"08:30 - 17:00\"],\"wed\":[\"08:30 - 17:00\"],\"thu\":[\"08:30 - 17:00\"],\"fri\":[\"08:30 - 17:00\"],\"sat\":[\"08:30 - 17:00\"],\"sun\":[\"08:30 - 17:00\"]}",
        "ordr": "0",
        "brand": null,
        "categories": "103",
        "days_str": "Mon, Tues, Wed, Thur, Fri, Sat, Sun"
    },
    {
        "id": "1581",
        "title": "35-10.30 - Agence ROUTE N\u00b03",
        "description": "not available",
        "street": "Route nationale N\u00b024 local N\u00b003- Boumerdes,",
        "city": "Boumerdes",
        "state": "BOUMERDES",
        "postal_code": "",
        "lat": "36.751256",
        "lng": "3.472567",
        "phone": "07 82 29 16 10 \/ 05 54 84 85 37",
        "fax": "",
        "email": "a351030@gam.dz",
        "website": "www.gam.dz",
        "logo_id": null,
        "path": null,
        "marker_id": "1",
        "description_2": "",
        "open_hours": "{\"mon\":[\"08:30 - 17:00\"],\"tue\":[\"08:30 - 17:00\"],\"wed\":[\"08:30 - 17:00\"],\"thu\":[\"08:30 - 17:00\"],\"fri\":[\"08:30 - 17:00\"],\"sat\":[\"08:30 - 17:00\"],\"sun\":[\"08:30 - 17:00\"]}",
        "ordr": "0",
        "brand": null,
        "categories": "103",
        "days_str": "Mon, Tues, Wed, Thur, Fri, Sat, Sun"
    },
    {
        "id": "1580",
        "title": "35-20.10 - Agence OULED MOUSSA",
        "description": "not available",
        "street": "Rue de la pacerelle ouled moussa",
        "city": "Ouled Moussa  ",
        "state": "BOUMERDES",
        "postal_code": "",
        "lat": "36.680005",
        "lng": "3.389289",
        "phone": "07 82 29 14 73 \/ 05 54 84 85 58",
        "fax": "",
        "email": "a352010@gam.dz",
        "website": "www.gam.dz",
        "logo_id": null,
        "path": null,
        "marker_id": "1",
        "description_2": "",
        "open_hours": "{\"mon\":[\"08:30 - 17:00\"],\"tue\":[\"08:30 - 17:00\"],\"wed\":[\"08:30 - 17:00\"],\"thu\":[\"08:30 - 17:00\"],\"fri\":[\"08:30 - 17:00\"],\"sat\":[\"08:30 - 17:00\"],\"sun\":[\"08:30 - 17:00\"]}",
        "ordr": "0",
        "brand": null,
        "categories": "103",
        "days_str": "Mon, Tues, Wed, Thur, Fri, Sat, Sun"
    },
    {
        "id": "1575",
        "title": "35.1.GBOUDERBALA",
        "description": "not available",
        "street": "04 DELLYS -Boumerdes ",
        "city": "Dellys ",
        "state": "BOUMERDES",
        "postal_code": "",
        "lat": "36.9064414",
        "lng": "3.9011635",
        "phone": "07 82 29 15 52 ",
        "fax": "",
        "email": "a35gbouderbala@gam.dz",
        "website": "www.gam.dz",
        "logo_id": null,
        "path": null,
        "marker_id": "1",
        "description_2": "",
        "open_hours": "{\"mon\":[\"08:30 - 17:00\"],\"tue\":[\"08:30 - 17:00\"],\"wed\":[\"08:30 - 17:00\"],\"thu\":[\"08:30 - 17:00\"],\"fri\":[\"08:30 - 17:00\"],\"sat\":[\"08:30 - 17:00\"],\"sun\":[\"08:30 - 17:00\"]}",
        "ordr": "0",
        "brand": null,
        "categories": "103",
        "days_str": "Mon, Tues, Wed, Thur, Fri, Sat, Sun"
    },
    {
        "id": "1577",
        "title": "35.2.A.DJADEL",
        "description": "not available",
        "street": "cit\u00e9 11 Decembre 1960 coop\u00e9rative el Badr bt 63 commune -wilaya Boumerdes",
        "city": "Boumerdes",
        "state": "BOUMERDES",
        "postal_code": "",
        "lat": "36.756782",
        "lng": "3.458039",
        "phone": "07 82 19 16 34",
        "fax": "",
        "email": "a35adjadel@gam.dz",
        "website": "www.gam.dz",
        "logo_id": null,
        "path": null,
        "marker_id": "1",
        "description_2": "",
        "open_hours": "{\"mon\":[\"08:30 - 17:00\"],\"tue\":[\"08:30 - 17:00\"],\"wed\":[\"08:30 - 17:00\"],\"thu\":[\"08:30 - 17:00\"],\"fri\":[\"08:30 - 17:00\"],\"sat\":[\"08:30 - 17:00\"],\"sun\":[\"08:30 - 17:00\"]}",
        "ordr": "0",
        "brand": null,
        "categories": "103",
        "days_str": "Mon, Tues, Wed, Thur, Fri, Sat, Sun"
    },
    {
        "id": "1576",
        "title": "35.A.DJADEL",
        "description": "not available",
        "street": "Coop\u00e9rative El Moustaqbel - Rue Colonel Amirouche - Les Issers - W.Boumerdes",
        "city": "Les Issers",
        "state": "BOUMERDES",
        "postal_code": "",
        "lat": "36.69318",
        "lng": "3.672465",
        "phone": "07 82 19 16 34",
        "fax": "",
        "email": "a35adjadel@gam.dz",
        "website": "www.gam.dz",
        "logo_id": null,
        "path": null,
        "marker_id": "1",
        "description_2": "",
        "open_hours": "{\"mon\":[\"08:30 - 17:00\"],\"tue\":[\"08:30 - 17:00\"],\"wed\":[\"08:30 - 17:00\"],\"thu\":[\"08:30 - 17:00\"],\"fri\":[\"08:30 - 17:00\"],\"sat\":[\"08:30 - 17:00\"],\"sun\":[\"08:30 - 17:00\"]}",
        "ordr": "0",
        "brand": null,
        "categories": "103",
        "days_str": "Mon, Tues, Wed, Thur, Fri, Sat, Sun"
    },
    {
        "id": "1574",
        "title": "35.G.BOUDERBALA",
        "description": "not available",
        "street": "Rue principale - Baghlia - W.Boumerdes",
        "city": "Baghlia",
        "state": "BOUMERDES",
        "postal_code": "",
        "lat": "36.794378",
        "lng": "3.875712",
        "phone": "07 82 29 15 52 ",
        "fax": "",
        "email": "a35gbouderbala@gam.dz",
        "website": "www.gam.dz",
        "logo_id": null,
        "path": null,
        "marker_id": "1",
        "description_2": "",
        "open_hours": "{\"mon\":[\"08:30 - 17:00\"],\"tue\":[\"08:30 - 17:00\"],\"wed\":[\"08:30 - 17:00\"],\"thu\":[\"08:30 - 17:00\"],\"fri\":[\"08:30 - 17:00\"],\"sat\":[\"08:30 - 17:00\"],\"sun\":[\"08:30 - 17:00\"]}",
        "ordr": "0",
        "brand": null,
        "categories": "103",
        "days_str": "Mon, Tues, Wed, Thur, Fri, Sat, Sun"
    },
    {
        "id": "1636",
        "title": "39-01.10 - Agence OUED SOUF",
        "description": "not available",
        "street": "Cit\u00e9 400 logts El Oued",
        "city": "Oued Souf ",
        "state": "EL OUED",
        "postal_code": "",
        "lat": "33.358833",
        "lng": "6.856208",
        "phone": "07 82 29 14 81 \/ 05 54 80 41 79",
        "fax": "",
        "email": "a390110@gam.dz",
        "website": "www.gam.dz",
        "logo_id": null,
        "path": null,
        "marker_id": "1",
        "description_2": "",
        "open_hours": "{\"mon\":[\"08:30 - 17:00\"],\"tue\":[\"08:30 - 17:00\"],\"wed\":[\"08:30 - 17:00\"],\"thu\":[\"08:30 - 17:00\"],\"fri\":[\"08:30 - 17:00\"],\"sat\":[\"08:30 - 17:00\"],\"sun\":[\"08:30 - 17:00\"]}",
        "ordr": "0",
        "brand": null,
        "categories": "116",
        "days_str": "Mon, Tues, Wed, Thur, Fri, Sat, Sun"
    },
    {
        "id": "1629",
        "title": "40.S.FILALI",
        "description": "not available",
        "street": "Rue Abbas Leghrour Khenchela",
        "city": "Khenchela  ",
        "state": "KHENCHELA",
        "postal_code": "",
        "lat": "35.430515",
        "lng": "7.148818",
        "phone": "07 82 29 14 82",
        "fax": "",
        "email": "a40sfilali@gam.dz",
        "website": "www.gam.dz",
        "logo_id": null,
        "path": null,
        "marker_id": "1",
        "description_2": "",
        "open_hours": "{\"mon\":[\"08:30 - 17:00\"],\"tue\":[\"08:30 - 17:00\"],\"wed\":[\"08:30 - 17:00\"],\"thu\":[\"08:30 - 17:00\"],\"fri\":[\"08:30 - 17:00\"],\"sat\":[\"08:30 - 17:00\"],\"sun\":[\"08:30 - 17:00\"]}",
        "ordr": "0",
        "brand": null,
        "categories": "114",
        "days_str": "Mon, Tues, Wed, Thur, Fri, Sat, Sun"
    },
    {
        "id": "1543",
        "title": "42-01.10 - Agence RUE DU STADE",
        "description": "not available",
        "street": "Cit\u00e9\u00a0 des 140 logts rue du stade Tipaza ",
        "city": "Tipaza",
        "state": "TIPAZA",
        "postal_code": "",
        "lat": "36.617879",
        "lng": "2.391236",
        "phone": "07 82 29 14 66 \/ 05 54 80 16 45",
        "fax": "",
        "email": "a420110@gam.dz",
        "website": "www.gam.dz",
        "logo_id": null,
        "path": null,
        "marker_id": "1",
        "description_2": "",
        "open_hours": "{\"mon\":[\"08:30 - 17:00\"],\"tue\":[\"08:30 - 17:00\"],\"wed\":[\"08:30 - 17:00\"],\"thu\":[\"08:30 - 17:00\"],\"fri\":[\"08:30 - 17:00\"],\"sat\":[\"08:30 - 17:00\"],\"sun\":[\"08:30 - 17:00\"]}",
        "ordr": "0",
        "brand": null,
        "categories": "100",
        "days_str": "Mon, Tues, Wed, Thur, Fri, Sat, Sun"
    },
    {
        "id": "1537",
        "title": "42-12.10 - Agence HADJOUT",
        "description": "not available",
        "street": "Rue LAARBI BOUKELFOUNE Hadjout Tipaza",
        "city": "Hadjout  ",
        "state": "TIPAZA",
        "postal_code": "",
        "lat": "36.5110787",
        "lng": "2.4083219",
        "phone": "07 82 29 14 71 \/ 05 54 80 17 07",
        "fax": "",
        "email": "a421210@gam.dz",
        "website": "www.gam.dz",
        "logo_id": null,
        "path": null,
        "marker_id": "1",
        "description_2": "",
        "open_hours": "{\"mon\":[\"08:30 - 17:00\"],\"tue\":[\"08:30 - 17:00\"],\"wed\":[\"08:30 - 17:00\"],\"thu\":[\"08:30 - 17:00\"],\"fri\":[\"08:30 - 17:00\"],\"sat\":[\"08:30 - 17:00\"],\"sun\":[\"08:30 - 17:00\"]}",
        "ordr": "0",
        "brand": null,
        "categories": "100",
        "days_str": "Mon, Tues, Wed, Thur, Fri, Sat, Sun"
    },
    {
        "id": "1542",
        "title": "42-22.10 - Agence CHERCHEL",
        "description": "not available",
        "street": "3 RUE YOUCEF KHOUDJA MOHAMED - Cherchell - W.Tipaza",
        "city": "Cherchel",
        "state": "TIPAZA",
        "postal_code": "",
        "lat": "36.567504",
        "lng": "2.203993",
        "phone": "07 82 29 14 18 \/ 05 54 84 87 24",
        "fax": "",
        "email": "a422210@gam.dz",
        "website": "www.gam.dz",
        "logo_id": null,
        "path": null,
        "marker_id": "1",
        "description_2": "",
        "open_hours": "{\"mon\":[\"08:30 - 17:00\"],\"tue\":[\"08:30 - 17:00\"],\"wed\":[\"08:30 - 17:00\"],\"thu\":[\"08:30 - 17:00\"],\"fri\":[\"08:30 - 17:00\"],\"sat\":[\"08:30 - 17:00\"],\"sun\":[\"08:30 - 17:00\"]}",
        "ordr": "0",
        "brand": null,
        "categories": "100",
        "days_str": "Mon, Tues, Wed, Thur, Fri, Sat, Sun"
    },
    {
        "id": "1541",
        "title": "42-26.10 - Agence BOUSMAIL",
        "description": "not available",
        "street": "Rue 1er novembre -Bousmail w Tipaza",
        "city": "Bou-Smail ",
        "state": "TIPAZA",
        "postal_code": "",
        "lat": "36.591737",
        "lng": "2.449262",
        "phone": "07 82 29 14 55 \/ 05 54 84 87 19",
        "fax": "",
        "email": "a422610@gam.dz",
        "website": "www.gam.dz",
        "logo_id": null,
        "path": null,
        "marker_id": "1",
        "description_2": "",
        "open_hours": "{\"mon\":[\"08:30 - 17:00\"],\"tue\":[\"08:30 - 17:00\"],\"wed\":[\"08:30 - 17:00\"],\"thu\":[\"08:30 - 17:00\"],\"fri\":[\"08:30 - 17:00\"],\"sat\":[\"08:30 - 17:00\"],\"sun\":[\"08:30 - 17:00\"]}",
        "ordr": "0",
        "brand": null,
        "categories": "100",
        "days_str": "Mon, Tues, Wed, Thur, Fri, Sat, Sun"
    },
    {
        "id": "1697",
        "title": "42-35.20 - Agence de Kolea",
        "description": "not available",
        "street": "Lotissement N\u00b030, Batiment 7\/A commune de Kolea TIPAZA ",
        "city": "Kolea",
        "state": "BLIDA",
        "postal_code": "",
        "lat": "36.643244",
        "lng": "2.770802",
        "phone": "07 82 29 16 08 \/ 05 54 80 39 12",
        "fax": "",
        "email": "a423520@gam.dz",
        "website": "www.gam.dz",
        "logo_id": null,
        "path": null,
        "marker_id": "1",
        "description_2": "",
        "open_hours": "{\"mon\":[\"08:30 - 17:00\"],\"tue\":[\"08:30 - 17:00\"],\"wed\":[\"08:30 - 17:00\"],\"thu\":[\"08:30 - 17:00\"],\"fri\":[\"08:30 - 17:00\"],\"sat\":[\"08:30 - 17:00\"],\"sun\":[\"08:30 - 17:00\"]}",
        "ordr": "0",
        "brand": null,
        "categories": "96",
        "days_str": "Mon, Tues, Wed, Thur, Fri, Sat, Sun"
    },
    {
        "id": "1615",
        "title": "43-01.10 - Agence MILA",
        "description": "not available",
        "street": "Lotissement Ouest  Cit\u00e9 Brik N\u00b079 Mila",
        "city": "Mila  ",
        "state": "MILA",
        "postal_code": "",
        "lat": "36.4527619",
        "lng": "6.2545798",
        "phone": "07 82 29 15 00 \/ 05 54 80 23 58",
        "fax": "",
        "email": "a430110@gam.dz",
        "website": "www.gam.dz",
        "logo_id": null,
        "path": null,
        "marker_id": "1",
        "description_2": "",
        "open_hours": "{\"mon\":[\"08:30 - 17:00\"],\"tue\":[\"08:30 - 17:00\"],\"wed\":[\"08:30 - 17:00\"],\"thu\":[\"08:30 - 17:00\"],\"fri\":[\"08:30 - 17:00\"],\"sat\":[\"08:30 - 17:00\"],\"sun\":[\"08:30 - 17:00\"]}",
        "ordr": "0",
        "brand": null,
        "categories": "106",
        "days_str": "Mon, Tues, Wed, Thur, Fri, Sat, Sun"
    },
    {
        "id": "1614",
        "title": "43-23.10 - Agence BAINEN ",
        "description": "not available",
        "street": "Bardou Beinen Wilaya de MILA",
        "city": "Bainen ",
        "state": "MILA",
        "postal_code": "",
        "lat": "36.360155",
        "lng": "6.642433",
        "phone": "07 82 29 15 03 \/ 05 54 83 25 08",
        "fax": "",
        "email": "a432310@gam.dz",
        "website": "www.gam.dz",
        "logo_id": null,
        "path": null,
        "marker_id": "1",
        "description_2": "",
        "open_hours": "{\"mon\":[\"08:30 - 17:00\"],\"tue\":[\"08:30 - 17:00\"],\"wed\":[\"08:30 - 17:00\"],\"thu\":[\"08:30 - 17:00\"],\"fri\":[\"08:30 - 17:00\"],\"sat\":[\"08:30 - 17:00\"],\"sun\":[\"08:30 - 17:00\"]}",
        "ordr": "0",
        "brand": null,
        "categories": "106",
        "days_str": "Mon, Tues, Wed, Thur, Fri, Sat, Sun"
    },
    {
        "id": "1603",
        "title": "43.1.L.FEKRAOUI",
        "description": "not available",
        "street": "Cit\u00e9 40 logts participatifs n\u00b053 ZEGHAIA-MILA",
        "city": "Zeghaia",
        "state": "MILA",
        "postal_code": "",
        "lat": "36.471539",
        "lng": "6.173912",
        "phone": "07 82 29 15 02",
        "fax": "",
        "email": "a43lfekraoui@gam.dz",
        "website": "www.gam.dz",
        "logo_id": null,
        "path": null,
        "marker_id": "1",
        "description_2": "",
        "open_hours": "{\"mon\":[\"08:30 - 17:00\"],\"tue\":[\"08:30 - 17:00\"],\"wed\":[\"08:30 - 17:00\"],\"thu\":[\"08:30 - 17:00\"],\"fri\":[\"08:30 - 17:00\"],\"sat\":[\"08:30 - 17:00\"],\"sun\":[\"08:30 - 17:00\"]}",
        "ordr": "0",
        "brand": null,
        "categories": "106",
        "days_str": "Mon, Tues, Wed, Thur, Fri, Sat, Sun"
    },
    {
        "id": "1621",
        "title": "43.1.M.ELHADJALI",
        "description": "not available",
        "street": "38 rue Bouchoua Ain M'lila -Oum El Bouaghi ",
        "city": "Ain M'lila",
        "state": "oum el bouaghi",
        "postal_code": "",
        "lat": "36.018952",
        "lng": "6.556988",
        "phone": "07 82 29 15 01 ",
        "fax": "",
        "email": "a43melhadjali@gam.dz",
        "website": "www.gam.dz",
        "logo_id": null,
        "path": null,
        "marker_id": "1",
        "description_2": "",
        "open_hours": "{\"mon\":[\"08:30 - 17:00\"],\"tue\":[\"08:30 - 17:00\"],\"wed\":[\"08:30 - 17:00\"],\"thu\":[\"08:30 - 17:00\"],\"fri\":[\"08:30 - 17:00\"],\"sat\":[\"08:30 - 17:00\"],\"sun\":[\"08:30 - 17:00\"]}",
        "ordr": "0",
        "brand": null,
        "categories": "111",
        "days_str": "Mon, Tues, Wed, Thur, Fri, Sat, Sun"
    },
    {
        "id": "1600",
        "title": "43.2.ARABHI",
        "description": "not available",
        "street": "07 Cit\u00e9 El Zeradab route nationale n\u00b05 Tadjnent-mila",
        "city": "Tadjnent",
        "state": "MILA",
        "postal_code": "",
        "lat": "36.117761",
        "lng": "5.970803",
        "phone": "07 93 36 94 00",
        "fax": "",
        "email": "a43arabhi@gam.dz",
        "website": "www.gam.dz",
        "logo_id": null,
        "path": null,
        "marker_id": "1",
        "description_2": "",
        "open_hours": "{\"mon\":[\"08:30 - 17:00\"],\"tue\":[\"08:30 - 17:00\"],\"wed\":[\"08:30 - 17:00\"],\"thu\":[\"08:30 - 17:00\"],\"fri\":[\"08:30 - 17:00\"],\"sat\":[\"08:30 - 17:00\"],\"sun\":[\"08:30 - 17:00\"]}",
        "ordr": "0",
        "brand": null,
        "categories": "106",
        "days_str": "Mon, Tues, Wed, Thur, Fri, Sat, Sun"
    },
    {
        "id": "1601",
        "title": "43.3.ARABHI",
        "description": "not available",
        "street": "Cit\u00e9 C\u00e9ramique Route de Mila Ibn Ziad Constantine",
        "city": "Iben Ziad",
        "state": "CONSTANTINE",
        "postal_code": "",
        "lat": "36.371828",
        "lng": "6.429036",
        "phone": "07 93 36 94 00",
        "fax": "",
        "email": "a43arabhi@gam.dz",
        "website": "www.gam.dz",
        "logo_id": null,
        "path": null,
        "marker_id": "1",
        "description_2": "",
        "open_hours": "{\"mon\":[\"08:30 - 17:00\"],\"tue\":[\"08:30 - 17:00\"],\"wed\":[\"08:30 - 17:00\"],\"thu\":[\"08:30 - 17:00\"],\"fri\":[\"08:30 - 17:00\"],\"sat\":[\"08:30 - 17:00\"],\"sun\":[\"08:30 - 17:00\"]}",
        "ordr": "0",
        "brand": null,
        "categories": "105",
        "days_str": "Mon, Tues, Wed, Thur, Fri, Sat, Sun"
    },
    {
        "id": "1598",
        "title": "43.A.RABHI",
        "description": "not available",
        "street": "Rue ahmed yahia rachid -Chelghoum laid",
        "city": "Chelghoum Laid  ",
        "state": "MILA",
        "postal_code": "",
        "lat": "36.159448 ",
        "lng": "6.173660",
        "phone": "07 93 36 94 00",
        "fax": "",
        "email": "a43arabhi@gam.dz",
        "website": "www.gam.dz",
        "logo_id": null,
        "path": null,
        "marker_id": "1",
        "description_2": "",
        "open_hours": "{\"mon\":[\"08:30 - 17:00\"],\"tue\":[\"08:30 - 17:00\"],\"wed\":[\"08:30 - 17:00\"],\"thu\":[\"08:30 - 17:00\"],\"fri\":[\"08:30 - 17:00\"],\"sat\":[\"08:30 - 17:00\"],\"sun\":[\"08:30 - 17:00\"]}",
        "ordr": "0",
        "brand": null,
        "categories": "106",
        "days_str": "Mon, Tues, Wed, Thur, Fri, Sat, Sun"
    },
    {
        "id": "1602",
        "title": "43.L.FEKRAOUI",
        "description": "not available",
        "street": "Cit\u00e9 el jnayene  Sidi Merouane Mila",
        "city": "Sidi Merouene",
        "state": "MILA",
        "postal_code": "",
        "lat": "36.499993",
        "lng": "6.248215",
        "phone": "07 82 29 15 02",
        "fax": "",
        "email": "a43lfekraoui@gam.dz",
        "website": "www.gam.dz",
        "logo_id": null,
        "path": null,
        "marker_id": "1",
        "description_2": "",
        "open_hours": "{\"mon\":[\"08:30 - 17:00\"],\"tue\":[\"08:30 - 17:00\"],\"wed\":[\"08:30 - 17:00\"],\"thu\":[\"08:30 - 17:00\"],\"fri\":[\"08:30 - 17:00\"],\"sat\":[\"08:30 - 17:00\"],\"sun\":[\"08:30 - 17:00\"]}",
        "ordr": "0",
        "brand": null,
        "categories": "106",
        "days_str": "Mon, Tues, Wed, Thur, Fri, Sat, Sun"
    },
    {
        "id": "1605",
        "title": "43.M.ELHADJALI",
        "description": "not available",
        "street": "Cit\u00e9 200 Logts Teleghma, Mila",
        "city": "Teleghma ",
        "state": "MILA",
        "postal_code": "",
        "lat": "36.073743",
        "lng": "6.343878",
        "phone": "07 82 29 15 01 ",
        "fax": "",
        "email": "a43melhadjali@gam.dz",
        "website": "www.gam.dz",
        "logo_id": null,
        "path": null,
        "marker_id": "1",
        "description_2": "",
        "open_hours": "{\"mon\":[\"08:30 - 17:00\"],\"tue\":[\"08:30 - 17:00\"],\"wed\":[\"08:30 - 17:00\"],\"thu\":[\"08:30 - 17:00\"],\"fri\":[\"08:30 - 17:00\"],\"sat\":[\"08:30 - 17:00\"],\"sun\":[\"08:30 - 17:00\"]}",
        "ordr": "0",
        "brand": null,
        "categories": "106",
        "days_str": "Mon, Tues, Wed, Thur, Fri, Sat, Sun"
    },
    {
        "id": "1522",
        "title": "44.1.A.SELMANE",
        "description": "not available",
        "street": "locale N\u00b02 RDC zone industrielle N\u00b016 commune Elamra -Aindefla,",
        "city": "Elamra",
        "state": "AIN DEFLA",
        "postal_code": "",
        "lat": "36.357192",
        "lng": "1.851343",
        "phone": "07 82 29 14 59",
        "fax": "",
        "email": "a44aselmane@gam.dz",
        "website": "www.gam.dz",
        "logo_id": null,
        "path": null,
        "marker_id": "1",
        "description_2": "",
        "open_hours": "{\"mon\":[\"08:30 - 17:00\"],\"tue\":[\"08:30 - 17:00\"],\"wed\":[\"08:30 - 17:00\"],\"thu\":[\"08:30 - 17:00\"],\"fri\":[\"08:30 - 17:00\"],\"sat\":[\"08:30 - 17:00\"],\"sun\":[\"08:30 - 17:00\"]}",
        "ordr": "0",
        "brand": null,
        "categories": "94",
        "days_str": "Mon, Tues, Wed, Thur, Fri, Sat, Sun"
    },
    {
        "id": "1521",
        "title": "44.A.SELMANE",
        "description": "not available",
        "street": "02,Rue de Martyrs, Ain Defla",
        "city": "Ain Defla   ",
        "state": "AIN DEFLA",
        "postal_code": "",
        "lat": "36.264479",
        "lng": "1.958570",
        "phone": "07 82 29 14 59",
        "fax": "",
        "email": "a44aselmane@gam.dz",
        "website": "www.gam.dz",
        "logo_id": null,
        "path": null,
        "marker_id": "1",
        "description_2": "",
        "open_hours": "{\"mon\":[\"08:30 - 17:00\"],\"tue\":[\"08:30 - 17:00\"],\"wed\":[\"08:30 - 17:00\"],\"thu\":[\"08:30 - 17:00\"],\"fri\":[\"08:30 - 17:00\"],\"sat\":[\"08:30 - 17:00\"],\"sun\":[\"08:30 - 17:00\"]}",
        "ordr": "0",
        "brand": null,
        "categories": "94",
        "days_str": "Mon, Tues, Wed, Thur, Fri, Sat, Sun"
    },
    {
        "id": "1520",
        "title": "44.M.ZERROUKI",
        "description": "not available",
        "street": "rue mohamed khmesti el Attaf ",
        "city": "El Attaf   ",
        "state": "AIN DEFLA",
        "postal_code": "",
        "lat": "36.225820",
        "lng": "1.677435",
        "phone": "07 82 29 15 49",
        "fax": "",
        "email": "a44mzerrouki@gam.dz",
        "website": "www.gam.dz",
        "logo_id": null,
        "path": null,
        "marker_id": "1",
        "description_2": "",
        "open_hours": "{\"mon\":[\"08:30 - 17:00\"],\"tue\":[\"08:30 - 17:00\"],\"wed\":[\"08:30 - 17:00\"],\"thu\":[\"08:30 - 17:00\"],\"fri\":[\"08:30 - 17:00\"],\"sat\":[\"08:30 - 17:00\"],\"sun\":[\"08:30 - 17:00\"]}",
        "ordr": "0",
        "brand": null,
        "categories": "94",
        "days_str": "Mon, Tues, Wed, Thur, Fri, Sat, Sun"
    },
    {
        "id": "1523",
        "title": "44.S.FERHAT",
        "description": "not available",
        "street": "Cit\u00e9 Nadjem - A\u00efn Defla - W.A\u00efn Defla",
        "city": "Ain Defla",
        "state": "AIN DEFLA",
        "postal_code": "",
        "lat": "36.257204",
        "lng": "1.957519",
        "phone": "07 82 29 15 42",
        "fax": "",
        "email": "sferhat@gam.dz",
        "website": "www.gam.dz",
        "logo_id": null,
        "path": null,
        "marker_id": "1",
        "description_2": "",
        "open_hours": "{\"mon\":[\"08:30 - 17:00\"],\"tue\":[\"08:30 - 17:00\"],\"wed\":[\"08:30 - 17:00\"],\"thu\":[\"08:30 - 17:00\"],\"fri\":[\"08:30 - 17:00\"],\"sat\":[\"08:30 - 17:00\"],\"sun\":[\"08:30 - 17:00\"]}",
        "ordr": "0",
        "brand": null,
        "categories": "94",
        "days_str": "Mon, Tues, Wed, Thur, Fri, Sat, Sun"
    },
    {
        "id": "1544",
        "title": "47-01.10 - Agence GHARDAIA",
        "description": "not available",
        "street": " Rue 05 Juillet Cit\u00e9 Thniyete El Makhzen  wilaya de GHARDAIA",
        "city": "Ghardaia  ",
        "state": "GHARDAIA",
        "postal_code": "",
        "lat": "32.475239",
        "lng": "3.696225",
        "phone": "07 82 29 14 46 \/ 05 54 84 36 25",
        "fax": "",
        "email": "a470110@gam.dz",
        "website": "www.gam.dz",
        "logo_id": null,
        "path": null,
        "marker_id": "1",
        "description_2": "",
        "open_hours": "{\"mon\":[\"08:30 - 17:00\"],\"tue\":[\"08:30 - 17:00\"],\"wed\":[\"08:30 - 17:00\"],\"thu\":[\"08:30 - 17:00\"],\"fri\":[\"08:30 - 17:00\"],\"sat\":[\"08:30 - 17:00\"],\"sun\":[\"08:30 - 17:00\"]}",
        "ordr": "0",
        "brand": null,
        "categories": "101",
        "days_str": "Mon, Tues, Wed, Thur, Fri, Sat, Sun"
    },
    {
        "id": "1674",
        "title": "BBA001 - Agence BORDJ BOU ARRERIDJ",
        "description": "not available",
        "street": "89 devision khelfaoui local n\u00b06 groupe propr",
        "city": "BORDJ BOU ARREEIDJ",
        "state": "BORDJ BOU ARREEIDJ",
        "postal_code": "",
        "lat": "36.072901",
        "lng": "4.773474",
        "phone": "07 82 29 14 09 \/ 05 54 83 63 34",
        "fax": "",
        "email": "abba001@gam.dz",
        "website": "www.gam.dz",
        "logo_id": null,
        "path": null,
        "marker_id": "1",
        "description_2": "",
        "open_hours": "{\"mon\":[\"08:30 - 17:00\"],\"tue\":[\"08:30 - 17:00\"],\"wed\":[\"08:30 - 17:00\"],\"thu\":[\"08:30 - 17:00\"],\"fri\":[\"08:30 - 17:00\"],\"sat\":[\"08:30 - 17:00\"],\"sun\":[\"08:30 - 17:00\"]}",
        "ordr": "0",
        "brand": null,
        "categories": "125",
        "days_str": "Mon, Tues, Wed, Thur, Fri, Sat, Sun"
    },
    {
        "id": "1532",
        "title": "BL0001",
        "description": "not available",
        "street": "Avenue MEKERKEB Ben YOUCEF ex lotissement(VIDAL CORNARY)",
        "city": "Blida    ",
        "state": "BLIDA",
        "postal_code": "",
        "lat": "36.472281",
        "lng": "2.816912",
        "phone": "07 82 29 16 24 \/ 05 54 80 28 81",
        "fax": "",
        "email": "bl001@gam.dz",
        "website": "www.gam.dz",
        "logo_id": null,
        "path": null,
        "marker_id": "1",
        "description_2": "",
        "open_hours": "{\"mon\":[\"08:30 - 17:00\"],\"tue\":[\"08:30 - 17:00\"],\"wed\":[\"08:30 - 17:00\"],\"thu\":[\"08:30 - 17:00\"],\"fri\":[\"08:30 - 17:00\"],\"sat\":[\"08:30 - 17:00\"],\"sun\":[\"08:30 - 17:00\"]}",
        "ordr": "0",
        "brand": null,
        "categories": "96",
        "days_str": "Mon, Tues, Wed, Thur, Fri, Sat, Sun"
    },
    {
        "id": "1668",
        "title": "BO.0001 - Agence BENI OURTTILANE",
        "description": "not available",
        "street": "14 Rue colonel Amirouche Beni Ourtilane-SETIF",
        "city": "Beni Ourtilane",
        "state": "SETIF",
        "postal_code": "",
        "lat": "36.442206",
        "lng": "4.852528",
        "phone": "07 82 29 13 90 \/ 05 54 84 67 88",
        "fax": "",
        "email": "bo0001@gam.dz",
        "website": "www.gam.dz",
        "logo_id": null,
        "path": null,
        "marker_id": "1",
        "description_2": "",
        "open_hours": "{\"mon\":[\"08:30 - 17:00\"],\"tue\":[\"08:30 - 17:00\"],\"wed\":[\"08:30 - 17:00\"],\"thu\":[\"08:30 - 17:00\"],\"fri\":[\"08:30 - 17:00\"],\"sat\":[\"08:30 - 17:00\"],\"sun\":[\"08:30 - 17:00\"]}",
        "ordr": "0",
        "brand": null,
        "categories": "93",
        "days_str": "Mon, Tues, Wed, Thur, Fri, Sat, Sun"
    },
    {
        "id": "1507",
        "title": "DZ003 - Agence EL BIAR",
        "description": "not available",
        "street": "Rue Mustapha Khalef  EL BIAR -ALGER ",
        "city": "EL Biar",
        "state": "ALGER",
        "postal_code": "",
        "lat": "36.763512",
        "lng": "3.020155",
        "phone": " 07 82 29 14 39 \/ 05 54 84 86 05",
        "fax": "",
        "email": "adz003@gam.dz",
        "website": "www.gam.dz",
        "logo_id": null,
        "path": null,
        "marker_id": "1",
        "description_2": "",
        "open_hours": "{\"mon\":[\"08:30 - 17:00\"],\"tue\":[\"08:30 - 17:00\"],\"wed\":[\"08:30 - 17:00\"],\"thu\":[\"08:30 - 17:00\"],\"fri\":[\"08:30 - 17:00\"],\"sat\":[\"08:30 - 17:00\"],\"sun\":[\"08:30 - 17:00\"]}",
        "ordr": "0",
        "brand": null,
        "categories": "91",
        "days_str": "Mon, Tues, Wed, Thur, Fri, Sat, Sun"
    },
    {
        "id": "1566",
        "title": "DZ004 - Agence KOUBA",
        "description": "not available",
        "street": "201 parc BEN OMAR 16050-KOUBA-Alger ",
        "city": "Kouba  ",
        "state": "ALGER",
        "postal_code": "",
        "lat": "36.725493",
        "lng": "3.091225",
        "phone": "07 82 29 15 28 \/ 05 54 84 86 02 ",
        "fax": "",
        "email": "adz004@gam.dz",
        "website": "www.gam.dz",
        "logo_id": null,
        "path": null,
        "marker_id": "1",
        "description_2": "",
        "open_hours": "{\"mon\":[\"08:30 - 17:00\"],\"tue\":[\"08:30 - 17:00\"],\"wed\":[\"08:30 - 17:00\"],\"thu\":[\"08:30 - 17:00\"],\"fri\":[\"08:30 - 17:00\"],\"sat\":[\"08:30 - 17:00\"],\"sun\":[\"08:30 - 17:00\"]}",
        "ordr": "0",
        "brand": null,
        "categories": "91",
        "days_str": "Mon, Tues, Wed, Thur, Fri, Sat, Sun"
    },
    {
        "id": "1508",
        "title": "DZ005 - Agence SIDI YAHIA",
        "description": "not available",
        "street": "Rue yahia belhayet bts 14-Hydra-Alger",
        "city": "Hydra",
        "state": "ALGER",
        "postal_code": "",
        "lat": "36.749192",
        "lng": "3.037872",
        "phone": " 07 82 29 14 93 \/ 05 54 84 85 26",
        "fax": "",
        "email": "adz005@gam.dz",
        "website": "www.gam.dz",
        "logo_id": null,
        "path": null,
        "marker_id": "1",
        "description_2": "",
        "open_hours": "{\"mon\":[\"08:30 - 17:00\"],\"tue\":[\"08:30 - 17:00\"],\"wed\":[\"08:30 - 17:00\"],\"thu\":[\"08:30 - 17:00\"],\"fri\":[\"08:30 - 17:00\"],\"sat\":[\"08:30 - 17:00\"],\"sun\":[\"08:30 - 17:00\"]}",
        "ordr": "0",
        "brand": null,
        "categories": "91",
        "days_str": "Mon, Tues, Wed, Thur, Fri, Sat, Sun"
    },
    {
        "id": "1509",
        "title": "DZ006 - Agence BOUZAREAH",
        "description": "not available",
        "street": "Rue Ali remli N 68\u00a0 Bouzeriah ex: pascal\u00a0 Alger",
        "city": "Bouzareah ",
        "state": "ALGER",
        "postal_code": "",
        "lat": "36.779899",
        "lng": "3.010268",
        "phone": " 07 82 29 14 67  \/ 05 54 82 30 54 ",
        "fax": "",
        "email": "adz006@gam.dz",
        "website": "www.gam.dz",
        "logo_id": null,
        "path": null,
        "marker_id": "1",
        "description_2": "",
        "open_hours": "{\"mon\":[\"08:30 - 17:00\"],\"tue\":[\"08:30 - 17:00\"],\"wed\":[\"08:30 - 17:00\"],\"thu\":[\"08:30 - 17:00\"],\"fri\":[\"08:30 - 17:00\"],\"sat\":[\"08:30 - 17:00\"],\"sun\":[\"08:30 - 17:00\"]}",
        "ordr": "0",
        "brand": null,
        "categories": "91",
        "days_str": "Mon, Tues, Wed, Thur, Fri, Sat, Sun"
    },
    {
        "id": "1495",
        "title": "DZ007 - Macir Vie",
        "description": "not available",
        "street": "40 Rue Boudjmaa Hayouna , Cit\u00e9 les Abatoires",
        "city": "Staouali",
        "state": "ALGER",
        "postal_code": "",
        "lat": "36.759129",
        "lng": "2.888891",
        "phone": "07 82 29 16 12",
        "fax": "",
        "email": "adz007@gam.dz",
        "website": "www.gam.dz",
        "logo_id": null,
        "path": null,
        "marker_id": "1",
        "description_2": "",
        "open_hours": "{\"mon\":[\"08:30 - 17:00\"],\"tue\":[\"08:30 - 17:00\"],\"wed\":[\"08:30 - 17:00\"],\"thu\":[\"08:30 - 17:00\"],\"fri\":[\"08:30 - 17:00\"],\"sat\":[\"08:30 - 17:00\"],\"sun\":[\"08:30 - 17:00\"]}",
        "ordr": "0",
        "brand": null,
        "categories": "91",
        "days_str": "Mon, Tues, Wed, Thur, Fri, Sat, Sun"
    },
    {
        "id": "1512",
        "title": "DZ009 - Agence ZERALDA",
        "description": "not available",
        "street": "N 07 D\u00e9vision est, boulvard 1 er novembre z\u00e9ralda ",
        "city": "Zeralda",
        "state": "ALGER",
        "postal_code": "",
        "lat": "36.694615",
        "lng": "2.827796",
        "phone": "07 82 29 15 72 \/ 05 54 84 87 46",
        "fax": "",
        "email": "adz009@gam.dz",
        "website": "www.gam.dz",
        "logo_id": null,
        "path": null,
        "marker_id": "1",
        "description_2": "",
        "open_hours": "{\"mon\":[\"08:30 - 17:00\"],\"tue\":[\"08:30 - 17:00\"],\"wed\":[\"08:30 - 17:00\"],\"thu\":[\"08:30 - 17:00\"],\"fri\":[\"08:30 - 17:00\"],\"sat\":[\"08:30 - 17:00\"],\"sun\":[\"08:30 - 17:00\"]}",
        "ordr": "0",
        "brand": null,
        "categories": "91",
        "days_str": "Mon, Tues, Wed, Thur, Fri, Sat, Sun"
    },
    {
        "id": "1564",
        "title": "DZ010 - Agence HUSSEIN DEY",
        "description": "not available",
        "street": "Rue fernane hanafi ex: vou-bon n\u00b051 Hussein dey ALGER",
        "city": "Hussein dey ",
        "state": "ALGER",
        "postal_code": "",
        "lat": "36.738387",
        "lng": "3.094201",
        "phone": " 07 82 29 14 41 \/ 05 54 84 08 71 ",
        "fax": "",
        "email": "adz010@gam.dz",
        "website": "www.gam.dz",
        "logo_id": null,
        "path": null,
        "marker_id": "1",
        "description_2": "",
        "open_hours": "{\"mon\":[\"08:30 - 17:00\"],\"tue\":[\"08:30 - 17:00\"],\"wed\":[\"08:30 - 17:00\"],\"thu\":[\"08:30 - 17:00\"],\"fri\":[\"08:30 - 17:00\"],\"sat\":[\"08:30 - 17:00\"],\"sun\":[\"08:30 - 17:00\"]}",
        "ordr": "0",
        "brand": null,
        "categories": "91",
        "days_str": "Mon, Tues, Wed, Thur, Fri, Sat, Sun"
    },
    {
        "id": "1511",
        "title": "DZ011 - Agence DELY IBRAHIM",
        "description": "not available",
        "street": "Boutique N\u00b01 rez-de-chauss\u00e9e, Bois Des Cars 1 N\u00b0 124 Dely Ibrahim ALGER",
        "city": "Dely Ibrahim",
        "state": "ALGER",
        "postal_code": "",
        "lat": "36.753501",
        "lng": "2.978547",
        "phone": " 07 82 29 16 29 \/ 05 54 80 29 23 ",
        "fax": "",
        "email": "adz011@gam.dz",
        "website": "www.gam.dz",
        "logo_id": null,
        "path": null,
        "marker_id": "1",
        "description_2": "",
        "open_hours": "{\"mon\":[\"08:30 - 17:00\"],\"tue\":[\"08:30 - 17:00\"],\"wed\":[\"08:30 - 17:00\"],\"thu\":[\"08:30 - 17:00\"],\"fri\":[\"08:30 - 17:00\"],\"sat\":[\"08:30 - 17:00\"],\"sun\":[\"08:30 - 17:00\"]}",
        "ordr": "0",
        "brand": null,
        "categories": "91",
        "days_str": "Mon, Tues, Wed, Thur, Fri, Sat, Sun"
    },
    {
        "id": "1565",
        "title": "DZ012 - Agence REGHAIA",
        "description": "not available",
        "street": "Coop\u00e9rative immobili\u00e8re ESSADAKA 1 RDC local N\u00b004 B\u00a0commune de REGHAIA wilaya d'ALGER",
        "city": "Reghaia",
        "state": "ALGER",
        "postal_code": "",
        "lat": "36.743148",
        "lng": "3.338737",
        "phone": " 07 82 09 07 53 \/ 05 54 83 84 62",
        "fax": "",
        "email": "adz12@gam.dz",
        "website": "www.gam.dz",
        "logo_id": null,
        "path": null,
        "marker_id": "1",
        "description_2": "",
        "open_hours": "{\"mon\":[\"08:30 - 17:00\"],\"tue\":[\"08:30 - 17:00\"],\"wed\":[\"08:30 - 17:00\"],\"thu\":[\"08:30 - 17:00\"],\"fri\":[\"08:30 - 17:00\"],\"sat\":[\"08:30 - 17:00\"],\"sun\":[\"08:30 - 17:00\"]}",
        "ordr": "0",
        "brand": null,
        "categories": "91",
        "days_str": "Mon, Tues, Wed, Thur, Fri, Sat, Sun"
    },
    {
        "id": "1690",
        "title": "OR001 - Agence MILLENIUM",
        "description": "not available",
        "street": "Rue Millenium Bt C, N\u00b07 , R\u00e9sidence el sawsen Local N\u00b0 2",
        "city": "Oran",
        "state": "ORAN",
        "postal_code": "",
        "lat": "35.691895",
        "lng": "-0.632026",
        "phone": "07 82 29 14 20",
        "fax": "",
        "email": "or001@gam.dz",
        "website": "www.gam.dz",
        "logo_id": null,
        "path": null,
        "marker_id": "1",
        "description_2": "",
        "open_hours": "{\"mon\":[\"08:30 - 17:00\"],\"tue\":[\"08:30 - 17:00\"],\"wed\":[\"08:30 - 17:00\"],\"thu\":[\"08:30 - 17:00\"],\"fri\":[\"08:30 - 17:00\"],\"sat\":[\"08:30 - 17:00\"],\"sun\":[\"08:30 - 17:00\"]}",
        "ordr": "0",
        "brand": null,
        "categories": "92",
        "days_str": "Mon, Tues, Wed, Thur, Fri, Sat, Sun"
    },
    {
        "id": "1691",
        "title": "OR002 - Agence IDAA",
        "description": "not available",
        "street": "Cit\u00e9 Magheri N\u00b0 29, Boulevard AHMED BEN ABDERZZAK",
        "city": "Oran",
        "state": "ORAN",
        "postal_code": "",
        "lat": "35.700447",
        "lng": "-0.630108",
        "phone": "07 82 29 16 11 \/ 05 54 80 19 20 ",
        "fax": "",
        "email": "or002@gam.dz",
        "website": "www.gam.dz",
        "logo_id": null,
        "path": null,
        "marker_id": "1",
        "description_2": "",
        "open_hours": "{\"mon\":[\"08:30 - 17:00\"],\"tue\":[\"08:30 - 17:00\"],\"wed\":[\"08:30 - 17:00\"],\"thu\":[\"08:30 - 17:00\"],\"fri\":[\"08:30 - 17:00\"],\"sat\":[\"08:30 - 17:00\"],\"sun\":[\"08:30 - 17:00\"]}",
        "ordr": "0",
        "brand": null,
        "categories": "92",
        "days_str": "Mon, Tues, Wed, Thur, Fri, Sat, Sun"
    },
    {
        "id": "1497",
        "title": "ST001 - Park Mall",
        "description": "not available",
        "street": " N\u00b0 U1,14RDC centre commercial PARC MALL Setif",
        "city": "S\u00e9tif",
        "state": "SETIF",
        "postal_code": "",
        "lat": "36.190748",
        "lng": "5.410185",
        "phone": "07 82 29 16 51 \/ 05 54 84 87 47",
        "fax": "",
        "email": "ast001@gam.dz",
        "website": "www.gam.dz",
        "logo_id": null,
        "path": null,
        "marker_id": "1",
        "description_2": "",
        "open_hours": "{\"mon\":[\"08:30 - 17:00\"],\"tue\":[\"08:30 - 17:00\"],\"wed\":[\"08:30 - 17:00\"],\"thu\":[\"08:30 - 17:00\"],\"fri\":[\"08:30 - 17:00\"],\"sat\":[\"08:30 - 17:00\"],\"sun\":[\"08:30 - 17:00\"]}",
        "ordr": "0",
        "brand": null,
        "categories": "93",
        "days_str": "Mon, Tues, Wed, Thur, Fri, Sat, Sun"
    }
]