{
"type": "FeatureCollection",
"name": "pois_to_check",
"crs": { "type": "name", "properties": { "name": "urn:ogc:def:crs:OGC:1.3:CRS84" } },
"features": [
{ "type": "Feature", "properties": { "num": 171, "id": 1495, "title": "DZ007 - Macir Vie", "street": "40 Rue Boudjmaa Hayouna, Cité les Abatoires", "city": "Staouali", "phone": "07 82 29 16 12", "lat": 36.759129, "lon": 2.888891, "code_wil": 16, "to_check": false }, "geometry": { "type": "Point", "coordinates": [ 2.888891, 36.759129 ] } },
{ "type": "Feature", "properties": { "num": 178, "id": 1497, "title": "ST001 - Park Mall", "street": " N° U1,14RDC centre commercial PARC MALL Setif", "city": "Sétif", "phone": "07 82 29 16 51 \/ 05 54 84 87 47", "lat": 36.190748, "lon": 5.410185, "code_wil": 19, "to_check": false }, "geometry": { "type": "Point", "coordinates": [ 5.410185, 36.190748 ] } },
{ "type": "Feature", "properties": { "num": 74, "id": 1498, "title": "16.Y.YOUNSI", "street": "Cité 297 logts CNEP Birtouta", "city": "Birtouta", "phone": "07 82 29 15 32", "lat": 36.646094, "lon": 3.047605, "code_wil": 16, "to_check": false }, "geometry": { "type": "Point", "coordinates": [ 3.047605, 36.646094 ] } },
{ "type": "Feature", "properties": { "num": 70, "id": 1500, "title": "16.N.OMARI", "street": "56, lotissement Souk El Fellah - Douéra - W.Alger", "city": "Douera", "phone": "0661 51 12 53", "lat": 36.649094, "lon": 2.927584, "code_wil": 16, "to_check": false }, "geometry": { "type": "Point", "coordinates": [ 2.927584, 36.649094 ] } },
{ "type": "Feature", "properties": { "num": 72, "id": 1501, "title": "16.R.amroun", "street": "20, Rue El Djamila Ain el Benian Alger", "city": "Ain Benian", "phone": "07 82 29 13 50", "lat": 36.803256, "lon": 2.900121, "code_wil": 16, "to_check": false }, "geometry": { "type": "Point", "coordinates": [ 2.900121, 36.803256 ] } },
{ "type": "Feature", "properties": { "num": 67, "id": 1502, "title": "16.n.berraf", "street": "13 Route de Cheraga Ouled fayet ALGER", "city": "Ouled Fayet", "phone": "05 51 15 48 32", "lat": 36.758156, "lon": 2.933685, "code_wil": 16, "to_check": false }, "geometry": { "type": "Point", "coordinates": [ 2.933685, 36.758156 ] } },
{ "type": "Feature", "properties": { "num": 59, "id": 1503, "title": "16.1.Y.YOUNSI", "street": "Rue Djaiche Ettahrir El Watani N°03 Tassala El Merdja-Alger", "city": "Tassala Elmerdja", "phone": "07 82 29 15 32", "lat": 36.632201330776041, "lon": 2.9462139399013951, "code_wil": 16, "to_check": false }, "geometry": { "type": "Point", "coordinates": [ 2.946213939901395, 36.632201330776041 ] } },
{ "type": "Feature", "properties": { "num": 66, "id": 1504, "title": "16.M.BOULASBAA", "street": "Oued el tarfa route el achour Bt 07 S3 -Draria -Alger.", "city": "Draria", "phone": "05 50 10 11 05", "lat": 36.719165, "lon": 2.981306, "code_wil": 16, "to_check": false }, "geometry": { "type": "Point", "coordinates": [ 2.981306, 36.719165 ] } },
{ "type": "Feature", "properties": { "num": 61, "id": 1505, "title": "16.3.N.OMARI", "street": "116 Rue des Frères Nadir Baba-Hassen ALGER", "city": "Baba Hassen", "phone": "06 61 51 12 53", "lat": 36.732998, "lon": 3.085546, "code_wil": 16, "to_check": false }, "geometry": { "type": "Point", "coordinates": [ 3.085546, 36.732998 ] } },
{ "type": "Feature", "properties": { "num": 3, "id": 1506, "title": " DZ001 - Agence CHERAGA", "street": "Chéraga Ouled Fayet N° 57 Alger", "city": "Chéraga", "phone": " 07 82 29 15 86", "lat": 36.755765, "lon": 2.951391, "code_wil": 16, "to_check": false }, "geometry": { "type": "Point", "coordinates": [ 2.951391, 36.755765 ] } },
{ "type": "Feature", "properties": { "num": 167, "id": 1507, "title": "DZ003 - Agence EL BIAR", "street": "Rue Mustapha Khalef EL BIAR -ALGER", "city": "EL Biar", "phone": " 07 82 29 14 39 \/ 05 54 84 86 05", "lat": 36.763512, "lon": 3.020155, "code_wil": 16, "to_check": false }, "geometry": { "type": "Point", "coordinates": [ 3.020155, 36.763512 ] } },
{ "type": "Feature", "properties": { "num": 169, "id": 1508, "title": "DZ005 - Agence SIDI YAHIA", "street": "Rue yahia belhayet bts 14-Hydra-Alger", "city": "Hydra", "phone": " 07 82 29 14 93 \/ 05 54 84 85 26", "lat": 36.749192, "lon": 3.037872, "code_wil": 16, "to_check": false }, "geometry": { "type": "Point", "coordinates": [ 3.037872, 36.749192 ] } },
{ "type": "Feature", "properties": { "num": 170, "id": 1509, "title": "DZ006 - Agence BOUZAREAH", "street": "Rue Ali remli N 68  Bouzeriah ex: pascal  Alger", "city": "Bouzareah", "phone": " 07 82 29 14 67 \/ 05 54 82 30 54", "lat": 36.779899, "lon": 3.010268, "code_wil": 16, "to_check": false }, "geometry": { "type": "Point", "coordinates": [ 3.010268, 36.779899 ] } },
{ "type": "Feature", "properties": { "num": 174, "id": 1511, "title": "DZ011 - Agence DELY IBRAHIM", "street": "Boutique N°1 rez-de-chaussée, Bois Des Cars 1 N° 124 Dely Ibrahim ALGER", "city": "Dely Ibrahim", "phone": " 07 82 29 16 29 \/ 05 54 80 29 23", "lat": 36.753501, "lon": 2.978547, "code_wil": 16, "to_check": false }, "geometry": { "type": "Point", "coordinates": [ 2.978547, 36.753501 ] } },
{ "type": "Feature", "properties": { "num": 172, "id": 1512, "title": "DZ009 - Agence ZERALDA", "street": "N 07 Dévision est, boulvard 1 er novembre zéralda ", "city": "Zeralda", "phone": "07 82 29 15 72 \/ 05 54 84 87 46", "lat": 36.694615, "lon": 2.827796, "code_wil": 16, "to_check": false }, "geometry": { "type": "Point", "coordinates": [ 2.827796, 36.694615 ] } },
{ "type": "Feature", "properties": { "num": 123, "id": 1515, "title": "30.L.Merizgui", "street": " Cité Fadila Saadane commune et daira de Hassi Massaoud wilaya de OUARGLA", "city": "Hassi Messaoud", "phone": "07 70 63 29 63", "lat": 31.689974545317547, "lon": 6.0658614609862402, "code_wil": 30, "to_check": false }, "geometry": { "type": "Point", "coordinates": [ 6.06586146098624, 31.689974545317547 ] } },
{ "type": "Feature", "properties": { "num": 113, "id": 1517, "title": "26.M.L.HAMMOUDI", "street": "Rue Mokadem Ben Youcef ( Hammam Bouchou ) Medea", "city": "Médéa", "phone": "07 82 29 15 36", "lat": 36.285385, "lon": 2.768025, "code_wil": 26, "to_check": false }, "geometry": { "type": "Point", "coordinates": [ 2.768025, 36.285385 ] } },
{ "type": "Feature", "properties": { "num": 112, "id": 1518, "title": "26.1.M.L.HAMMOUDI", "street": "Cité mohamedi N°43 Berrouaghia Medea", "city": "Berrouaghia", "phone": "07 82 29 15 36", "lat": 36.135881149392169, "lon": 2.9202297155762169, "code_wil": 26, "to_check": false }, "geometry": { "type": "Point", "coordinates": [ 2.920229715576217, 36.135881149392169 ] } },
{ "type": "Feature", "properties": { "num": 161, "id": 1520, "title": "44.M.ZERROUKI", "street": "rue mohamed khmesti el Attaf", "city": "El Attaf", "phone": "07 82 29 15 49", "lat": 36.22582, "lon": 1.677435, "code_wil": 44, "to_check": false }, "geometry": { "type": "Point", "coordinates": [ 1.677435, 36.22582 ] } },
{ "type": "Feature", "properties": { "num": 160, "id": 1521, "title": "44.A.SELMANE", "street": "02,Rue de Martyrs, Ain Defla", "city": "Ain Defla", "phone": "07 82 29 14 59", "lat": 36.264479, "lon": 1.95857, "code_wil": 44, "to_check": false }, "geometry": { "type": "Point", "coordinates": [ 1.95857, 36.264479 ] } },
{ "type": "Feature", "properties": { "num": 159, "id": 1522, "title": "44.1.A.SELMANE", "street": "locale N°2 RDC zone industrielle N°16 commune Elamra -Aindefla,", "city": "Elamra", "phone": "07 82 29 14 59", "lat": 36.305860163895723, "lon": 1.846956300953402, "code_wil": 44, "to_check": false }, "geometry": { "type": "Point", "coordinates": [ 1.846956300953402, 36.305860163895723 ] } },
{ "type": "Feature", "properties": { "num": 162, "id": 1523, "title": "44.S.FERHAT", "street": "Cité Nadjem - Aïn Defla - W.Aïn Defla", "city": "Ain Defla", "phone": "07 82 29 15 42", "lat": 36.257204, "lon": 1.957519, "code_wil": 44, "to_check": false }, "geometry": { "type": "Point", "coordinates": [ 1.957519, 36.257204 ] } },
{ "type": "Feature", "properties": { "num": 4, "id": 1525, "title": "02-01.50", "street": " RDC Batiment 4 N°1 commune et daira de Chlef", "city": "Chlef", "phone": "0782 16 44 39 \/ 0554 84 86 74", "lat": 36.1645864, "lon": 1.3318918, "code_wil": 2, "to_check": false }, "geometry": { "type": "Point", "coordinates": [ 1.3318918, 36.1645864 ] } },
{ "type": "Feature", "properties": { "num": 7, "id": 1527, "title": "02.B.MESSABIH", "street": "31, Rue Aspirant Dahmane - Chlef - W.Chlef", "city": "chlef", "phone": "07 80 58 43 04", "lat": 36.154817, "lon": 1.325696, "code_wil": 2, "to_check": false }, "geometry": { "type": "Point", "coordinates": [ 1.325696, 36.154817 ] } },
{ "type": "Feature", "properties": { "num": 5, "id": 1528, "title": "02.1.S.BENZERGA", "street": "N°12 Hay Bensouna, Route d’oran chlef ", "city": "Chlef", "phone": "05 51 12 35 50", "lat": 36.160921, "lon": 1.315595, "code_wil": 2, "to_check": false }, "geometry": { "type": "Point", "coordinates": [ 1.315595, 36.160921 ] } },
{ "type": "Feature", "properties": { "num": 8, "id": 1529, "title": "02.S.TAHAR-DJEBBAR", "street": "Rue Ghoulami - Boukadir - W.Chlef", "city": "Boukadir", "phone": "06 65 63 44 48", "lat": 36.063913984139873, "lon": 1.12311964866846, "code_wil": 2, "to_check": false }, "geometry": { "type": "Point", "coordinates": [ 1.12311964866846, 36.063913984139873 ] } },
{ "type": "Feature", "properties": { "num": 6, "id": 1530, "title": "02.1.S.TAHAR-DJEBBAR", "street": "Rue de la gare - Bâtiment OPGI - Oued Sly - W.Chlef", "city": "Oued Sly", "phone": "06 65 63 44 48", "lat": 36.104424, "lon": 1.19619, "code_wil": 2, "to_check": false }, "geometry": { "type": "Point", "coordinates": [ 1.19619, 36.104424 ] } },
{ "type": "Feature", "properties": { "num": 27, "id": 1531, "title": "09-07.10 - Agence OULED YAICH", "street": "Cité 1652 LGTS AADL BT 10 local N°03 OULED YAICH", "city": "Ouled Yaich", "phone": "07 82 29 14 57", "lat": 36.475793, "lon": 2.829758, "code_wil": 9, "to_check": false }, "geometry": { "type": "Point", "coordinates": [ 2.829758, 36.475793 ] } },
{ "type": "Feature", "properties": { "num": 165, "id": 1532, "title": "BL0001", "street": "Avenue MEKERKEB Ben YOUCEF ex lotissement(VIDAL CORNARY)", "city": "Blida", "phone": "07 82 29 16 24 \/ 05 54 80 28 81", "lat": 36.472281, "lon": 2.816912, "code_wil": 9, "to_check": false }, "geometry": { "type": "Point", "coordinates": [ 2.816912, 36.472281 ] } },
{ "type": "Feature", "properties": { "num": 9, "id": 1533, "title": "03-01.20 - Agence LAGHOUAT", "street": "Cité El maamoura Lghouat", "city": "Laghouat", "phone": "07 82 29 15 94 \/ 05 54 84 41 58", "lat": 33.798062, "lon": 2.866655, "code_wil": 3, "to_check": false }, "geometry": { "type": "Point", "coordinates": [ 2.866655, 33.798062 ] } },
{ "type": "Feature", "properties": { "num": 2, "id": 1534, "title": " 44-04.10 - Agence KHEMIS MELIANA", "street": "Cité 56 logts LSP khmis miliana", "city": "Khemis Miliana", "phone": " 07 82 29 14 37 \/ 05 54 80 30 71", "lat": 36.256575, "lon": 2.220505, "code_wil": 44, "to_check": false }, "geometry": { "type": "Point", "coordinates": [ 2.220505, 36.256575 ] } },
{ "type": "Feature", "properties": { "num": 29, "id": 1535, "title": "09-20.10 - Agence BOUFARIK", "street": "03 Rue des frères Bouza Boufarik W. Blida", "city": "Boufarik", "phone": "07 82 29 14 58", "lat": 36.584859, "lon": 2.907609, "code_wil": 9, "to_check": false }, "geometry": { "type": "Point", "coordinates": [ 2.907609, 36.584859 ] } },
{ "type": "Feature", "properties": { "num": 28, "id": 1536, "title": "09-14.10 - Agence SOUMAA", "street": "Route Nationale n°29 local 1 lot soumaa-BLIDA", "city": "Soumaa", "phone": "07 82 29 14 56 \/ 05 54 84 87 18", "lat": 36.518805853369329, "lon": 2.9080840388492439, "code_wil": 9, "to_check": false }, "geometry": { "type": "Point", "coordinates": [ 2.908084038849244, 36.518805853369329 ] } },
{ "type": "Feature", "properties": { "num": 146, "id": 1537, "title": "42-12.10 - Agence HADJOUT", "street": "Rue LAARBI BOUKELFOUNE Hadjout Tipaza", "city": "Hadjout", "phone": "07 82 29 14 71 \/ 05 54 80 17 07", "lat": 36.5110787, "lon": 2.4083219, "code_wil": 42, "to_check": false }, "geometry": { "type": "Point", "coordinates": [ 2.4083219, 36.511078699999985 ] } },
{ "type": "Feature", "properties": { "num": 25, "id": 1538, "title": "09-01.20 - Agence LES PALMIERS", "street": "Avenue Kritli Mokhtar N°17 B Blida", "city": "Blida", "phone": "07 82 29 14 70 \/ 05 54 80 38 23", "lat": 36.475039, "lon": 2.832578, "code_wil": 9, "to_check": false }, "geometry": { "type": "Point", "coordinates": [ 2.832578, 36.475039 ] } },
{ "type": "Feature", "properties": { "num": 26, "id": 1540, "title": "09-04.20 - Agence OUED EL ALLEUG", "street": "Boulevard principal, Royal Groupe N°175. Section 10 commune Oued El Alleug BLIDA", "city": "Oued El Alleug", "phone": "07 82 29 13 43 \/ 05 54 80 21 19", "lat": 36.554275528766695, "lon": 2.7898249165585329, "code_wil": 9, "to_check": false }, "geometry": { "type": "Point", "coordinates": [ 2.789824916558533, 36.554275528766695 ] } },
{ "type": "Feature", "properties": { "num": 148, "id": 1541, "title": "42-26.10 - Agence BOUSMAIL", "street": "Rue 1er novembre -Bousmail w Tipaza", "city": "Bou-Smail", "phone": "07 82 29 14 55 \/ 05 54 84 87 19", "lat": 36.591737, "lon": 2.449262, "code_wil": 42, "to_check": false }, "geometry": { "type": "Point", "coordinates": [ 2.449262, 36.591737 ] } },
{ "type": "Feature", "properties": { "num": 147, "id": 1542, "title": "42-22.10 - Agence CHERCHEL", "street": "3 RUE YOUCEF KHOUDJA MOHAMED - Cherchell - W.Tipaza", "city": "Cherchel", "phone": "07 82 29 14 18 \/ 05 54 84 87 24", "lat": 36.608272735365894, "lon": 2.188627354056552, "code_wil": 42, "to_check": false }, "geometry": { "type": "Point", "coordinates": [ 2.188627354056552, 36.608272735365894 ] } },
{ "type": "Feature", "properties": { "num": 145, "id": 1543, "title": "42-01.10 - Agence RUE DU STADE", "street": "Cité  des 140 logts rue du stade Tipaza", "city": "Tipaza", "phone": "07 82 29 14 66 \/ 05 54 80 16 45", "lat": 36.588495704235285, "lon": 2.4370225657028439, "code_wil": 42, "to_check": false }, "geometry": { "type": "Point", "coordinates": [ 2.437022565702844, 36.588495704235285 ] } },
{ "type": "Feature", "properties": { "num": 163, "id": 1544, "title": "47-01.10 - Agence GHARDAIA", "street": " Rue 05 Juillet Cité Thniyete El Makhzen wilaya de GHARDAIA", "city": "Ghardaia", "phone": "07 82 29 14 46 \/ 05 54 84 36 25", "lat": 32.475239, "lon": 3.696225, "code_wil": 47, "to_check": false }, "geometry": { "type": "Point", "coordinates": [ 3.696225, 32.475239 ] } },
{ "type": "Feature", "properties": { "num": 68, "id": 1545, "title": "16.N.MEDJOUTI", "street": "Lot du lycée Abdelmoumène n°97 – Rouiba", "city": "Rouiba", "phone": "07 71 15 00 10", "lat": 36.74093, "lon": 3.287165, "code_wil": 16, "to_check": false }, "geometry": { "type": "Point", "coordinates": [ 3.287165, 36.74093 ] } },
{ "type": "Feature", "properties": { "num": 57, "id": 1546, "title": "16.1.N.MEDJOUTI", "street": "Route Nationale N°24 Brise Marine Bordj el bahri", "city": "Bordj el bahri", "phone": "07 71 15 00 10", "lat": 36.785524, "lon": 3.249345, "code_wil": 16, "to_check": false }, "geometry": { "type": "Point", "coordinates": [ 3.249345, 36.785524 ] } },
{ "type": "Feature", "properties": { "num": 58, "id": 1547, "title": "16.1.r.amroun", "street": "coop 05 juillet N° 70 route de bougara sidi moussa", "city": "Sidi moussa", "phone": "07 82 29 13 50", "lat": 36.622979, "lon": 3.107728, "code_wil": 16, "to_check": false }, "geometry": { "type": "Point", "coordinates": [ 3.107728, 36.622979 ] } },
{ "type": "Feature", "properties": { "num": 60, "id": 1548, "title": "16.2.R.AMROUN", "street": "Cité la montagne bloc 1 E 15 BOUROUBA - Alger", "city": "Bourouba", "phone": "07 82 29 13 50", "lat": 36.711707, "lon": 3.115248, "code_wil": 16, "to_check": false }, "geometry": { "type": "Point", "coordinates": [ 3.115248, 36.711707 ] } },
{ "type": "Feature", "properties": { "num": 64, "id": 1549, "title": "16.B.GRIBI", "street": " Lot A7 LOT 7 BIS Ain-naadja local N° 01 W-Alger", "city": "Gue de constantine", "phone": "07 82 29 14 50", "lat": 36.704473, "lon": 3.082667, "code_wil": 16, "to_check": false }, "geometry": { "type": "Point", "coordinates": [ 3.082667, 36.704473 ] } },
{ "type": "Feature", "properties": { "num": 63, "id": 1551, "title": "16.B.BERBAR", "street": "10, Rue des Fréres Oughlis el mouradia W.Alger ", "city": "El Mouaradia", "phone": " 05 41 13 84 22", "lat": 36.745235, "lon": 3.050518, "code_wil": 16, "to_check": false }, "geometry": { "type": "Point", "coordinates": [ 3.050518, 36.745235 ] } },
{ "type": "Feature", "properties": { "num": 65, "id": 1552, "title": "16.F.KACED", "street": "14, Avenue Abdelhamid Khodja Kouba", "city": "Kouba", "phone": "07 82 29 14 49", "lat": 36.726673, "lon": 3.081495, "code_wil": 16, "to_check": false }, "geometry": { "type": "Point", "coordinates": [ 3.081495, 36.726673 ] } },
{ "type": "Feature", "properties": { "num": 71, "id": 1553, "title": "16.N.SAIDI", "street": "454 Baraki, Route de l'Arbaa Alger", "city": "Beraki", "phone": "07 82 29 15 39", "lat": 36.667295, "lon": 3.09858, "code_wil": 16, "to_check": false }, "geometry": { "type": "Point", "coordinates": [ 3.09858, 36.667295 ] } },
{ "type": "Feature", "properties": { "num": 62, "id": 1554, "title": "16.4.N.OMARI", "street": "Cité 632 logts BT37 n°1 EL MOHAMMADIA", "city": "El Mohammadia", "phone": "0661 51 12 53", "lat": 36.73039, "lon": 3.147224, "code_wil": 16, "to_check": false }, "geometry": { "type": "Point", "coordinates": [ 3.147224, 36.73039 ] } },
{ "type": "Feature", "properties": { "num": 75, "id": 1555, "title": "16.Z.SIDAZARA", "street": "Cité 406 logts AADL Bt 01 local N°04 eucalyptus Alger", "city": "Eucalyptus", "phone": "07 82 29 15 34", "lat": 36.664526, "lon": 3.167926, "code_wil": 16, "to_check": false }, "geometry": { "type": "Point", "coordinates": [ 3.167926, 36.664526 ] } },
{ "type": "Feature", "properties": { "num": 73, "id": 1556, "title": "16.R.MADDOUI", "street": "Cité ravanal lot n°18 BEN TALHA -BERRAKI", "city": "Berraki", "phone": "05 41 60 72 05", "lat": 36.648084, "lon": 3.075152, "code_wil": 16, "to_check": false }, "geometry": { "type": "Point", "coordinates": [ 3.075152, 36.648084 ] } },
{ "type": "Feature", "properties": { "num": 69, "id": 1557, "title": "16.N.NACERI", "street": "35 Coopérative Erroched Vieux Kouba, Kouba - Alger.", "city": "Kouba", "phone": "07 71 93 79 33", "lat": 36.730015, "lon": 3.078247, "code_wil": 16, "to_check": false }, "geometry": { "type": "Point", "coordinates": [ 3.078247, 36.730015 ] } },
{ "type": "Feature", "properties": { "num": 53, "id": 1558, "title": "16-13.20 - Agence BELLE VUE", "street": "15, Rue Abderrahmane Sebaa Bellevue El Harrach", "city": "El Harrach", "phone": "07 82 29 14 60 \/ 05 54 80 31 28", "lat": 36.725893, "lon": 3.139072, "code_wil": 16, "to_check": false }, "geometry": { "type": "Point", "coordinates": [ 3.139072, 36.725893 ] } },
{ "type": "Feature", "properties": { "num": 54, "id": 1559, "title": "16-18.10 - Agence BAB EZZOUAR", "street": "cité 1200 logts copérative ESSANOUBER lot N° 02 BAB EZZOUAR", "city": "Bab Ezouar", "phone": " 07 82 29 14 68 \/ 05 54 84 85 42", "lat": 36.720625, "lon": 3.185497, "code_wil": 16, "to_check": false }, "geometry": { "type": "Point", "coordinates": [ 3.185497, 36.720625 ] } },
{ "type": "Feature", "properties": { "num": 56, "id": 1560, "title": "16-30.10 - Agence BORDJ EL KIFANE", "street": "Cité les Hirondelles Bloc 24 local N°02 lido Bordj el kifan", "city": "Bordj el kifan", "phone": "07 82 29 14 47", "lat": 36.747187, "lon": 3.190432, "code_wil": 16, "to_check": false }, "geometry": { "type": "Point", "coordinates": [ 3.190432, 36.747187 ] } },
{ "type": "Feature", "properties": { "num": 55, "id": 1561, "title": "16-20.10 - Agence DAR EL BEIDA", "street": "18,Rue Mohamed Khemisti, Local 49 dar el beida", "city": "Dar El Beida", "phone": " 07 82 29 14 53 \/ 05 54 84 86 61", "lat": 36.715659, "lon": 3.208498, "code_wil": 16, "to_check": false }, "geometry": { "type": "Point", "coordinates": [ 3.208498, 36.715659 ] } },
{ "type": "Feature", "properties": { "num": 51, "id": 1562, "title": "16-09.10 - Agence LES SOURCES", "street": "KADAT LES SOURCES BIRMOURAD RAIS", "city": "Les Sources", "phone": " 07 82 29 14 62 \/ 05 54 80 30 91", "lat": 36.735349, "lon": 3.050374, "code_wil": 16, "to_check": false }, "geometry": { "type": "Point", "coordinates": [ 3.050374, 36.735349 ] } },
{ "type": "Feature", "properties": { "num": 52, "id": 1563, "title": "16-12.10 - Agence BIR KHADEM", "street": " Place taleb mohamed ameziane commune et daira de bir khadel", "city": "Birkhadem", "phone": "07 82 29 14 69 \/ 05 54 84 87 20", "lat": 36.717067, "lon": 3.049006, "code_wil": 16, "to_check": false }, "geometry": { "type": "Point", "coordinates": [ 3.049006, 36.717067 ] } },
{ "type": "Feature", "properties": { "num": 173, "id": 1564, "title": "DZ010 - Agence HUSSEIN DEY", "street": "Rue fernane hanafi ex: vou-bon n°51 Hussein dey ALGER", "city": "Hussein dey", "phone": " 07 82 29 14 41 \/ 05 54 84 08 71", "lat": 36.738387, "lon": 3.094201, "code_wil": 16, "to_check": false }, "geometry": { "type": "Point", "coordinates": [ 3.094201, 36.738387 ] } },
{ "type": "Feature", "properties": { "num": 175, "id": 1565, "title": "DZ012 - Agence REGHAIA", "street": "Coopérative immobilière ESSADAKA 1 RDC local N°04 B commune de REGHAIA wilaya d'ALGER", "city": "Reghaia", "phone": " 07 82 09 07 53 \/ 05 54 83 84 62", "lat": 36.743148, "lon": 3.338737, "code_wil": 16, "to_check": false }, "geometry": { "type": "Point", "coordinates": [ 3.338737, 36.743148 ] } },
{ "type": "Feature", "properties": { "num": 168, "id": 1566, "title": "DZ004 - Agence KOUBA", "street": "201 parc BEN OMAR 16050-KOUBA-Alger", "city": "Kouba", "phone": "07 82 29 15 28 \/ 05 54 84 86 02", "lat": 36.725493, "lon": 3.091225, "code_wil": 16, "to_check": false }, "geometry": { "type": "Point", "coordinates": [ 3.091225, 36.725493 ] } },
{ "type": "Feature", "properties": { "num": 49, "id": 1567, "title": "15.B.AITIDDIR", "street": "Freha centre sur ancienne route d'AZAZGA Tizi Ouzou", "city": "Freha", "phone": "07 82 29 14 35", "lat": 36.734386, "lon": 4.366791, "code_wil": 15, "to_check": false }, "geometry": { "type": "Point", "coordinates": [ 4.366791, 36.734386 ] } },
{ "type": "Feature", "properties": { "num": 47, "id": 1568, "title": "15.A.Chabni", "street": "9, Avenue Abane Ramdane - Tizi Ouzou - W.Tizi Ouzou", "city": "Tizi Ouzou", "phone": "07 82 29 15 33", "lat": 36.712903, "lon": 4.048736, "code_wil": 15, "to_check": false }, "geometry": { "type": "Point", "coordinates": [ 4.048736, 36.712903 ] } },
{ "type": "Feature", "properties": { "num": 43, "id": 1569, "title": "15.1.Achabni", "street": "Immeuble Ait Ali locale n° 3 Tikobiene  ouaguenoune . Tizi Ouzou", "city": "Ouaguenoune", "phone": "07 82 29 15 33", "lat": 36.770094, "lon": 4.175088, "code_wil": 15, "to_check": false }, "geometry": { "type": "Point", "coordinates": [ 4.175088, 36.770094 ] } },
{ "type": "Feature", "properties": { "num": 44, "id": 1570, "title": "15.3.A.CHABNI", "street": "N°7 1er étage bouhamdoune maatkas w Tiziouzou", "city": "Meatka", "phone": "07 82 29 15 33", "lat": 36.605236316184246, "lon": 3.9841117275086009, "code_wil": 15, "to_check": false }, "geometry": { "type": "Point", "coordinates": [ 3.984111727508601, 36.605236316184246 ] } },
{ "type": "Feature", "properties": { "num": 45, "id": 1571, "title": "15.5.ACHABNI", "street": "Zone industrielle AISSET Idir,Taadja immeuble YEFSAF lot 95 local n°13CNE Tizi Rached ", "city": "Tizi Rached", "phone": "07 82 29 15 33", "lat": 36.692784, "lon": 4.137303, "code_wil": 15, "to_check": false }, "geometry": { "type": "Point", "coordinates": [ 4.137303, 36.692784 ] } },
{ "type": "Feature", "properties": { "num": 46, "id": 1572, "title": "15.6.A.CHABNI", "street": "B7 Route Nationnale N°15 Larabaa Nathirathen W-Tiziouzou", "city": "Larabaa Natherathen", "phone": "07 82 29 15 33", "lat": 36.636240932696445, "lon": 4.2053806987657936, "code_wil": 15, "to_check": false }, "geometry": { "type": "Point", "coordinates": [ 4.205380698765794, 36.636240932696445 ] } },
{ "type": "Feature", "properties": { "num": 48, "id": 1573, "title": "15.A.MESSAOUDENE", "street": "Route de Aïn El Hammam - Azazga - W.Tizi Ouzou", "city": "Azazga", "phone": "07 82 29 15 46", "lat": 36.742103582575552, "lon": 4.3724912376264911, "code_wil": 15, "to_check": false }, "geometry": { "type": "Point", "coordinates": [ 4.372491237626491, 36.742103582575552 ] } },
{ "type": "Feature", "properties": { "num": 142, "id": 1574, "title": "35.G.BOUDERBALA", "street": "Rue principale - Baghlia - W.Boumerdes", "city": "Baghlia", "phone": "07 82 29 15 52", "lat": 36.816939223470641, "lon": 3.859013944317419, "code_wil": 35, "to_check": false }, "geometry": { "type": "Point", "coordinates": [ 3.859013944317419, 36.816939223470641 ] } },
{ "type": "Feature", "properties": { "num": 139, "id": 1575, "title": "35.1.GBOUDERBALA", "street": "04 DELLYS -Boumerdes", "city": "Dellys", "phone": "07 82 29 15 52", "lat": 36.914534572745808, "lon": 3.9132664250956419, "code_wil": 35, "to_check": false }, "geometry": { "type": "Point", "coordinates": [ 3.913266425095642, 36.914534572745808 ] } },
{ "type": "Feature", "properties": { "num": 141, "id": 1576, "title": "35.A.DJADEL", "street": "Coopérative El Moustaqbel - Rue Colonel Amirouche - Les Issers - W.Boumerdes", "city": "Les Issers", "phone": "07 82 19 16 34", "lat": 36.727875405967204, "lon": 3.6673433423406721, "code_wil": 35, "to_check": false }, "geometry": { "type": "Point", "coordinates": [ 3.667343342340672, 36.727875405967204 ] } },
{ "type": "Feature", "properties": { "num": 140, "id": 1577, "title": "35.2.A.DJADEL", "street": "cité 11 Decembre 1960 coopérative el Badr bt 63 commune -wilaya Boumerdes", "city": "Boumerdes", "phone": "07 82 19 16 34", "lat": 36.756782, "lon": 3.458039, "code_wil": 35, "to_check": false }, "geometry": { "type": "Point", "coordinates": [ 3.458039, 36.756782 ] } },
{ "type": "Feature", "properties": { "num": 50, "id": 1578, "title": "15.M.AMMAD", "street": "Arkoub Nath Kaci Village Timizart loghbar, N°05 commune Ait Aissa Mimoune. Tizi ouzou", "city": "Ait Aissa Mimoune", "phone": "05 57 92 35 53", "lat": 36.725451, "lon": 4.087435, "code_wil": 15, "to_check": false }, "geometry": { "type": "Point", "coordinates": [ 4.087435, 36.725451 ] } },
{ "type": "Feature", "properties": { "num": 138, "id": 1580, "title": "35-20.10 - Agence OULED MOUSSA", "street": "Rue de la pacerelle ouled moussa", "city": "Ouled Moussa", "phone": "07 82 29 14 73 \/ 05 54 84 85 58", "lat": 36.680005, "lon": 3.389289, "code_wil": 35, "to_check": false }, "geometry": { "type": "Point", "coordinates": [ 3.389289, 36.680005 ] } },
{ "type": "Feature", "properties": { "num": 137, "id": 1581, "title": "35-10.30 - Agence ROUTE N°3", "street": "Route nationale N°24 local N°03- Boumerdes,", "city": "Boumerdes", "phone": "07 82 29 16 10 \/ 05 54 84 85 37", "lat": 36.751256, "lon": 3.472567, "code_wil": 35, "to_check": false }, "geometry": { "type": "Point", "coordinates": [ 3.472567, 36.751256 ] } },
{ "type": "Feature", "properties": { "num": 42, "id": 1582, "title": "15-40.10 - Agence BOUGHNI", "street": "Rue des fréres BENAKLI 15003 cne BOGHNI", "city": "Boghni", "phone": "07 82 29 14 34 \/ 05 54 80 41 06", "lat": 36.541055, "lon": 3.955875, "code_wil": 15, "to_check": false }, "geometry": { "type": "Point", "coordinates": [ 3.955875, 36.541055 ] } },
{ "type": "Feature", "properties": { "num": 38, "id": 1583, "title": "15-01.20 - Agence CITE 05 JUILLET", "street": "Cité 5 juillet Bt 05 local 01 Tizi Ouzou", "city": "Tizi Ouzou", "phone": "07 82 29 14 32 \/ 05 54 80 16 26", "lat": 36.711821, "lon": 4.051717, "code_wil": 15, "to_check": false }, "geometry": { "type": "Point", "coordinates": [ 4.051717, 36.711821 ] } },
{ "type": "Feature", "properties": { "num": 40, "id": 1584, "title": "15-34.10 - Agence BOUZEGUENE", "street": "Centre de Bouzeguene Tizi Ouzou", "city": "Bouzeguene", "phone": "07 82 29 14 65 \/ 05 54 83 16 98", "lat": 36.61413, "lon": 4.472591, "code_wil": 15, "to_check": false }, "geometry": { "type": "Point", "coordinates": [ 4.472591, 36.61413 ] } },
{ "type": "Feature", "properties": { "num": 39, "id": 1585, "title": "15-01.30 - Agence NOUVELLE VILLE", "street": "Rue des fréres OUDAHMANE, nouvelle ville Tizi Ouzou", "city": "Tizi Ouzou", "phone": "07 82 29 14 33 \/ 05 54 80 21 01", "lat": 36.707375, "lon": 4.043373, "code_wil": 15, "to_check": false }, "geometry": { "type": "Point", "coordinates": [ 4.043373, 36.707375 ] } },
{ "type": "Feature", "properties": { "num": 136, "id": 1586, "title": "35-02.10 - Agence BOUDOUAOU", "street": "Cité El Merdja 08 mai 1945, Coopérative N°127,Section 16 Lot N°03, Boudouaou, BOUMERDES ", "city": "Boudouaou", "phone": "07 99 12 95 04 \/ 05 54 84 87 39", "lat": 36.72727752696899, "lon": 3.40928130060029, "code_wil": 35, "to_check": false }, "geometry": { "type": "Point", "coordinates": [ 3.40928130060029, 36.72727752696899 ] } },
{ "type": "Feature", "properties": { "num": 41, "id": 1587, "title": "15-38.10 - Agence TIGZIRT", "street": "04, Rue Ghers Bousbene Tigzirt", "city": "Tigzirt", "phone": "07 82 29 14 74 \/ 05 54 80 28 53", "lat": 36.890586, "lon": 4.126784, "code_wil": 15, "to_check": false }, "geometry": { "type": "Point", "coordinates": [ 4.126784, 36.890586 ] } },
{ "type": "Feature", "properties": { "num": 30, "id": 1588, "title": "10-01.10 - Agence BOUIRA", "street": "Cité l'indepenance BT A N°06 BOUIRA", "city": "Bouira", "phone": "07 82 29 14 43 \/ 05 54 80 28 38", "lat": 36.374022, "lon": 3.898986, "code_wil": 10, "to_check": false }, "geometry": { "type": "Point", "coordinates": [ 3.898986, 36.374022 ] } },
{ "type": "Feature", "properties": { "num": 37, "id": 1589, "title": "15-01.10 - Agence LE DRUGSTORE", "street": " Centre Commercial \"Le Drugstore\" Tizi Ouzou", "city": "Tizi Ouzou", "phone": "07 82 29 14 31 \/ 05 54 84 86 68", "lat": 36.705504, "lon": 4.056044, "code_wil": 15, "to_check": false }, "geometry": { "type": "Point", "coordinates": [ 4.056044, 36.705504 ] } },
{ "type": "Feature", "properties": { "num": 111, "id": 1590, "title": "25.Y.BOULECHFAR", "street": "Cité 55 logements n°32 - Zighoud Youcef - W.Constantine", "city": "Constantine", "phone": "07 70 99 41 07", "lat": 36.530919, "lon": 6.70289, "code_wil": 25, "to_check": false }, "geometry": { "type": "Point", "coordinates": [ 6.70289, 36.530919 ] } },
{ "type": "Feature", "properties": { "num": 1, "id": 1591, "title": " 21.2.Y.BOULECHFAR", "street": "Route National El Hrouche SKIKDA", "city": "Sidi Mezghiche", "phone": "07 70 99 41 07", "lat": 36.655703, "lon": 6.84046, "code_wil": 21, "to_check": false }, "geometry": { "type": "Point", "coordinates": [ 6.84046, 36.655703 ] } },
{ "type": "Feature", "properties": { "num": 107, "id": 1592, "title": "25.D.DERARDJA", "street": "Cité el meleh N°372 Constantine", "city": "Constantine", "phone": "07 82 29 15 54", "lat": 36.360379363892463, "lon": 6.6425721091125194, "code_wil": 25, "to_check": false }, "geometry": { "type": "Point", "coordinates": [ 6.642572109112519, 36.360379363892463 ] } },
{ "type": "Feature", "properties": { "num": 109, "id": 1593, "title": "25.I.DJOUABI", "street": "Route Nationale N°05 Ain Smara Constantine", "city": "Ain Smara", "phone": "07 82 29 14 98", "lat": 36.264872983436746, "lon": 6.497247952522903, "code_wil": 25, "to_check": false }, "geometry": { "type": "Point", "coordinates": [ 6.497247952522903, 36.264872983436746 ] } },
{ "type": "Feature", "properties": { "num": 106, "id": 1595, "title": "25.D.BENOTMANE", "street": "Cité Bchir Hamma Bouziene Constantine", "city": "Hamma Bouziane", "phone": "07 82 29 16 22", "lat": 36.428203673048472, "lon": 6.6002443660058328, "code_wil": 25, "to_check": false }, "geometry": { "type": "Point", "coordinates": [ 6.600244366005833, 36.428203673048472 ] } },
{ "type": "Feature", "properties": { "num": 108, "id": 1596, "title": "25.F.MAGRAOUI", "street": "11 Cité Bouhali Laid, El Khroub Constantine", "city": "El Khroub", "phone": "07 82 29 14 97", "lat": 36.264492, "lon": 6.687879, "code_wil": 25, "to_check": false }, "geometry": { "type": "Point", "coordinates": [ 6.687879, 36.264492 ] } },
{ "type": "Feature", "properties": { "num": 110, "id": 1597, "title": "25.S.BEZIANE", "street": "Cité DAHDOUH Hocine n°81 Didouche Mourad", "city": "Didouche Mourad", "phone": "07 82 29 14 91", "lat": 36.437984704748963, "lon": 6.6465251268083074, "code_wil": 25, "to_check": false }, "geometry": { "type": "Point", "coordinates": [ 6.646525126808307, 36.437984704748963 ] } },
{ "type": "Feature", "properties": { "num": 156, "id": 1598, "title": "43.A.RABHI", "street": "Rue ahmed yahia rachid -Chelghoum laid", "city": "Chelghoum Laid", "phone": "07 93 36 94 00", "lat": 36.159448, "lon": 6.17366, "code_wil": 43, "to_check": false }, "geometry": { "type": "Point", "coordinates": [ 6.17366, 36.159448 ] } },
{ "type": "Feature", "properties": { "num": 100, "id": 1599, "title": "24-01.10 - Agence Guelma", "street": "Cité 19 Juin rue Bounar Salah N°1 commune et daira de Guelma Wilaya de GUELMA", "city": "Guelma", "phone": "0782 29 15 06 \/ 05 54 84 86 96", "lat": 36.4506801, "lon": 7.4181747, "code_wil": 24, "to_check": false }, "geometry": { "type": "Point", "coordinates": [ 7.4181747, 36.4506801 ] } },
{ "type": "Feature", "properties": { "num": 154, "id": 1600, "title": "43.2.ARABHI", "street": "07 Cité El Zeradab route nationale n°5 Tadjnent-mila", "city": "Tadjnent", "phone": "07 93 36 94 00", "lat": 36.117761, "lon": 5.970803, "code_wil": 43, "to_check": false }, "geometry": { "type": "Point", "coordinates": [ 5.970803, 36.117761 ] } },
{ "type": "Feature", "properties": { "num": 155, "id": 1601, "title": "43.3.ARABHI", "street": "Cité Céramique Route de Mila Ibn Ziad Constantine", "city": "Iben Ziad", "phone": "07 93 36 94 00", "lat": 36.381439234856217, "lon": 6.4716847066683467, "code_wil": 25, "to_check": false }, "geometry": { "type": "Point", "coordinates": [ 6.471684706668347, 36.381439234856217 ] } },
{ "type": "Feature", "properties": { "num": 157, "id": 1602, "title": "43.L.FEKRAOUI", "street": "Cité el jnayene Sidi Merouane Mila", "city": "Sidi Merouene", "phone": "07 82 29 15 02", "lat": 36.520039678567983, "lon": 6.259905664977703, "code_wil": 43, "to_check": false }, "geometry": { "type": "Point", "coordinates": [ 6.259905664977703, 36.520039678567983 ] } },
{ "type": "Feature", "properties": { "num": 152, "id": 1603, "title": "43.1.L.FEKRAOUI", "street": "Cité 40 logts participatifs n°53 ZEGHAIA-MILA", "city": "Zeghaia", "phone": "07 82 29 15 02", "lat": 36.471539, "lon": 6.173912, "code_wil": 43, "to_check": false }, "geometry": { "type": "Point", "coordinates": [ 6.173912, 36.471539 ] } },
{ "type": "Feature", "properties": { "num": 11, "id": 1604, "title": "05.L.BOUDARN", "street": "Rue Ahmed Ben Abderrezak Arris", "city": "Arris", "phone": "07 82 29 14 77", "lat": 35.257265492489879, "lon": 6.3502055469267891, "code_wil": 5, "to_check": false }, "geometry": { "type": "Point", "coordinates": [ 6.350205546926789, 35.257265492489879 ] } },
{ "type": "Feature", "properties": { "num": 158, "id": 1605, "title": "43.M.ELHADJALI", "street": "Cité 200 Logts Teleghma, Mila", "city": "Teleghma", "phone": "07 82 29 15 01", "lat": 36.127454862238217, "lon": 6.3665117449219633, "code_wil": 43, "to_check": false }, "geometry": { "type": "Point", "coordinates": [ 6.366511744921963, 36.127454862238217 ] } },
{ "type": "Feature", "properties": { "num": 12, "id": 1606, "title": "05.Y.DEKHINET", "street": "06 Rue Gaouda Moustapha Cité EL NASR Batna", "city": "Batna", "phone": "07 82 29 14 76", "lat": 35.561022, "lon": 6.173912, "code_wil": 5, "to_check": false }, "geometry": { "type": "Point", "coordinates": [ 6.173912, 35.561022 ] } },
{ "type": "Feature", "properties": { "num": 10, "id": 1607, "title": "05.1.Y.DEKHINET", "street": "Boulevard Ariouat Boubaker Barika W-BATNA", "city": "Barika", "phone": "07 82 29 14 76", "lat": 35.387430692058899, "lon": 5.3722882343949321, "code_wil": 5, "to_check": false }, "geometry": { "type": "Point", "coordinates": [ 5.372288234394932, 35.387430692058899 ] } },
{ "type": "Feature", "properties": { "num": 77, "id": 1608, "title": "18.B.DJAOUI", "street": "14 Rue Amra taher tahir jijel", "city": "Taher", "phone": "07 82 29 14 83", "lat": 36.77536, "lon": 5.909275, "code_wil": 18, "to_check": false }, "geometry": { "type": "Point", "coordinates": [ 5.909275, 36.77536 ] } },
{ "type": "Feature", "properties": { "num": 102, "id": 1609, "title": "25-01.60 - Agence SIDI MABROUK", "street": "31, Cité Ali Besbes sidi mabrouk Constantine", "city": "Sidi Mabrouk", "phone": "07 82 29 14 94 \/ 05 54 80 21 00", "lat": 36.35663, "lon": 6.633082, "code_wil": 25, "to_check": false }, "geometry": { "type": "Point", "coordinates": [ 6.633082, 36.35663 ] } },
{ "type": "Feature", "properties": { "num": 103, "id": 1610, "title": "25-01.90 - Agence CITE ALI MENJEL", "street": "Cité ALI MENDJELI 392 Lgts N°1-Constantine", "city": "Constantine", "phone": "07 82 29 15 82 \/ 05 54 83 29 43", "lat": 36.245553, "lon": 6.567662, "code_wil": 25, "to_check": false }, "geometry": { "type": "Point", "coordinates": [ 6.567662, 36.245553 ] } },
{ "type": "Feature", "properties": { "num": 105, "id": 1611, "title": "25-03.10 - Agence AIN ABID", "street": "Cité Bouguetaia Med N°72 Ain Abid Constantine", "city": "Ain Abid", "phone": "07 82 29 14 96 \/ 05 54 84 87 45", "lat": 36.23040350511333, "lon": 6.9448406223466472, "code_wil": 25, "to_check": false }, "geometry": { "type": "Point", "coordinates": [ 6.944840622346647, 36.23040350511333 ] } },
{ "type": "Feature", "properties": { "num": 104, "id": 1612, "title": "25-02.10 - Agence HAMMAM BOUZIANE", "street": "Cité Ain Sidera N°142 Hamma Bouziane Constantine", "city": "Hamma Bouziane", "phone": "07 82 29 14 99 \/ 05 54 84 87 61", "lat": 36.426197307571449, "lon": 6.5947268609440322, "code_wil": 25, "to_check": false }, "geometry": { "type": "Point", "coordinates": [ 6.594726860944032, 36.426197307571449 ] } },
{ "type": "Feature", "properties": { "num": 101, "id": 1613, "title": "25-01.10", "street": " Cité filali les arcades Emir Abdelkader Constantine", "city": "Constantine", "phone": "07 82 29 14 90 \/ 05 54 80 17 14", "lat": 36.360315669750335, "lon": 6.6423173325440086, "code_wil": 25, "to_check": false }, "geometry": { "type": "Point", "coordinates": [ 6.642317332544009, 36.360315669750335 ] } },
{ "type": "Feature", "properties": { "num": 151, "id": 1614, "title": "43-23.10 - Agence BAINEN", "street": "Bardou Beinen Wilaya de MILA", "city": "Bainen", "phone": "07 82 29 15 03 \/ 05 54 83 25 08", "lat": 36.550657651730553, "lon": 6.1259091134776762, "code_wil": 43, "to_check": false }, "geometry": { "type": "Point", "coordinates": [ 6.125909113477676, 36.550657651730553 ] } },
{ "type": "Feature", "properties": { "num": 150, "id": 1615, "title": "43-01.10 - Agence MILA", "street": "Lotissement Ouest Cité Brik N°79 Mila", "city": "Mila", "phone": "07 82 29 15 00 \/ 05 54 80 23 58", "lat": 36.4527619, "lon": 6.2545798, "code_wil": 43, "to_check": false }, "geometry": { "type": "Point", "coordinates": [ 6.2545798, 36.4527619 ] } },
{ "type": "Feature", "properties": { "num": 0, "id": 1616, "title": " 05-01.10 - Agence BOUABSA", "street": "08 avenue les frères BOUABSA-BATNA", "city": "Batna", "phone": "07 82 29 14 75 \/ 05 54 80 21 39", "lat": 35.554867, "lon": 6.176896, "code_wil": 5, "to_check": false }, "geometry": { "type": "Point", "coordinates": [ 6.176896, 35.554867 ] } },
{ "type": "Feature", "properties": { "num": 24, "id": 1617, "title": "07-01.10 - Agence BISKRA", "street": "Rue AISSA OUAER N°01 Biskra", "city": "Biskra", "phone": "07 82 29 14 78 \/ 05 54 80 30 67", "lat": 34.8551757, "lon": 5.724128, "code_wil": 7, "to_check": false }, "geometry": { "type": "Point", "coordinates": [ 5.724128, 34.855175699999975 ] } },
{ "type": "Feature", "properties": { "num": 90, "id": 1618, "title": "21.1.Y.BOULECHFAR", "street": "Cité 20 août 1956 - Sidi Mezghiche - W.Skikda", "city": "El Hrouche", "phone": "07 70 99 41 07", "lat": 36.680092, "lon": 6.718628, "code_wil": 21, "to_check": false }, "geometry": { "type": "Point", "coordinates": [ 6.718628, 36.680092 ] } },
{ "type": "Feature", "properties": { "num": 93, "id": 1619, "title": "21.B.BOULGAMH", "street": "Kerkra, Ziroud Youcef wilaya de SKIKDA", "city": "Skikda", "phone": "07 82 29 14 84", "lat": 36.931331, "lon": 6.587682, "code_wil": 21, "to_check": false }, "geometry": { "type": "Point", "coordinates": [ 6.587682, 36.931331 ] } },
{ "type": "Feature", "properties": { "num": 92, "id": 1620, "title": "21.B.2.BOULGAMH", "street": "Cité Rahouadj - Tamalous - W.Skikda", "city": "Tamalous", "phone": "07 82 29 14 85", "lat": 36.835754, "lon": 6.645105, "code_wil": 21, "to_check": false }, "geometry": { "type": "Point", "coordinates": [ 6.645105, 36.835754 ] } },
{ "type": "Feature", "properties": { "num": 153, "id": 1621, "title": "43.1.M.ELHADJALI", "street": "38 rue Bouchoua Ain M'lila -Oum El Bouaghi", "city": "Ain M'lila", "phone": "07 82 29 15 01", "lat": 36.018952, "lon": 6.556988, "code_wil": 4, "to_check": false }, "geometry": { "type": "Point", "coordinates": [ 6.556988, 36.018952 ] } },
{ "type": "Feature", "properties": { "num": 91, "id": 1622, "title": "21.B.1.BOULGAMH", "street": "Les allées du 20 Août 1955 - Minitour n°5 - Skikda - W.Skikda", "city": "Skikda", "phone": "07 82 29 14 86", "lat": 36.871325, "lon": 6.912445, "code_wil": 21, "to_check": false }, "geometry": { "type": "Point", "coordinates": [ 6.912445, 36.871325 ] } },
{ "type": "Feature", "properties": { "num": 99, "id": 1623, "title": "23.A.LAOUBI", "street": "Boulevard 1er novembre coopérayive El Wafa El Bouni Annaba", "city": "Annaba", "phone": "05 61 75 71 88", "lat": 36.908017, "lon": 7.7605, "code_wil": 23, "to_check": false }, "geometry": { "type": "Point", "coordinates": [ 7.7605, 36.908017 ] } },
{ "type": "Feature", "properties": { "num": 96, "id": 1624, "title": "23.1.a.LAOUBI", "street": "11 Rue SAYOUD Achour ", "city": " Annaba", "phone": "05 61 75 71 88", "lat": 36.908243, "lon": 7.759208, "code_wil": 23, "to_check": false }, "geometry": { "type": "Point", "coordinates": [ 7.759208, 36.908243 ] } },
{ "type": "Feature", "properties": { "num": 97, "id": 1625, "title": "23.5.a.laoubi", "street": "3 rue el Moukrani ain berda Annaba", "city": "Ain El Berda", "phone": "05 61 75 71 88", "lat": 36.644917, "lon": 7.590099, "code_wil": 23, "to_check": false }, "geometry": { "type": "Point", "coordinates": [ 7.590099, 36.644917 ] } },
{ "type": "Feature", "properties": { "num": 98, "id": 1626, "title": "23.6.a.laoubi", "street": "Route nationale locale, N°01 El Chat - EL TARF", "city": "EL TARF", "phone": "05 61 75 71 88", "lat": 36.829996273798933, "lon": 7.8705155516543392, "code_wil": 36, "to_check": false }, "geometry": { "type": "Point", "coordinates": [ 7.870515551654339, 36.829996273798933 ] } },
{ "type": "Feature", "properties": { "num": 144, "id": 1629, "title": "40.S.FILALI", "street": "Rue Abbas Leghrour Khenchela", "city": "Khenchela", "phone": "07 82 29 14 82", "lat": 35.430515, "lon": 7.148818, "code_wil": 40, "to_check": false }, "geometry": { "type": "Point", "coordinates": [ 7.148818, 35.430515 ] } },
{ "type": "Feature", "properties": { "num": 76, "id": 1630, "title": "17-01.20 - Agence Djelfa", "street": "Local cité Chaabani mohamed coopératif Ahmed Zabana 999 N° 14 section 161 lot 746 (B) Wilaya Djelfa", "city": "Djelfa", "phone": "07 82 29 13 85 \/ 05 54 82 03 69", "lat": 34.663222, "lon": 3.2605, "code_wil": 17, "to_check": false }, "geometry": { "type": "Point", "coordinates": [ 3.2605, 34.663222 ] } },
{ "type": "Feature", "properties": { "num": 34, "id": 1631, "title": "12.A.CHAIB", "street": "Cité nouvelle el Biadha,rue 1er novembre -el ouenza-tebessa", "city": "Ouenza", "phone": "07 82 29 16 21", "lat": 35.948996, "lon": 8.139318, "code_wil": 12, "to_check": false }, "geometry": { "type": "Point", "coordinates": [ 8.139318, 35.948996 ] } },
{ "type": "Feature", "properties": { "num": 89, "id": 1632, "title": "21-01.10 - Agence SKIKDA", "street": "Hay salah Boukeroua maison N°33 local N°03 Skikda", "city": "Skikda", "phone": "07 82 29 14 84 \/ 05 54 80 21 46", "lat": 36.87152, "lon": 6.910181, "code_wil": 21, "to_check": false }, "geometry": { "type": "Point", "coordinates": [ 6.910181, 36.87152 ] } },
{ "type": "Feature", "properties": { "num": 95, "id": 1633, "title": "23-01.20 - Agence ANNABA", "street": "154 Maatar Lakhdar ex Rue des viollettes Annaba", "city": "Annaba", "phone": " 07 82 29 14 88 \/ 05 54 80 36 43", "lat": 36.902302, "lon": 7.768223, "code_wil": 23, "to_check": false }, "geometry": { "type": "Point", "coordinates": [ 7.768223, 36.902302 ] } },
{ "type": "Feature", "properties": { "num": 33, "id": 1634, "title": "12-02.10 - Agence BIR EL ATER", "street": "Cité 150 logts, Centre Bir el Ater Tebessa", "city": "Bir El Ater", "phone": "07 82 29 14 80 \/ 05 54 84 87 27", "lat": 34.761089, "lon": 8.05743, "code_wil": 12, "to_check": false }, "geometry": { "type": "Point", "coordinates": [ 8.05743, 34.761089 ] } },
{ "type": "Feature", "properties": { "num": 32, "id": 1635, "title": "12-01.10 - Agence TEBESSA CENTRE", "street": "Rue El Amir Abdelkader Route de Constantine Tebessa", "city": "Tebessa", "phone": "07 82 29 14 79 \/ 05 54 80 31 82", "lat": 35.4078, "lon": 8.112599, "code_wil": 12, "to_check": false }, "geometry": { "type": "Point", "coordinates": [ 8.112599, 35.4078 ] } },
{ "type": "Feature", "properties": { "num": 143, "id": 1636, "title": "39-01.10 - Agence OUED SOUF", "street": "Cité 400 logts El Oued", "city": "Oued Souf", "phone": "07 82 29 14 81 \/ 05 54 80 41 79", "lat": 33.358833, "lon": 6.856208, "code_wil": 39, "to_check": false }, "geometry": { "type": "Point", "coordinates": [ 6.856208, 33.358833 ] } },
{ "type": "Feature", "properties": { "num": 21, "id": 1638, "title": "06.M.ABDELKADER", "street": " RC Tichy centre,route nationale N°05 commune et daira de Tichy wilaya de BEJAIA", "city": "Tychy", "phone": "07 82 29 16 14", "lat": 36.668272, "lon": 5.155088, "code_wil": 6, "to_check": false }, "geometry": { "type": "Point", "coordinates": [ 5.155088, 36.668272 ] } },
{ "type": "Feature", "properties": { "num": 13, "id": 1639, "title": "06.1.M.ABDELKADER", "street": "cité des 68 logements Bt5 N°522 LES Hamadite", "city": "Bejaia", "phone": "07 82 29 16 14", "lat": 36.673332, "lon": 5.147442, "code_wil": 6, "to_check": false }, "geometry": { "type": "Point", "coordinates": [ 5.147442, 36.673332 ] } },
{ "type": "Feature", "properties": { "num": 22, "id": 1640, "title": "06.R.BENZAID", "street": "Agmoune commune Barbacha W BEJAIA", "city": "Berbacha", "phone": "0560 77 47 59", "lat": 36.484172, "lon": 4.747158, "code_wil": 6, "to_check": false }, "geometry": { "type": "Point", "coordinates": [ 4.747158, 36.484172 ] } },
{ "type": "Feature", "properties": { "num": 16, "id": 1641, "title": "06.A.IKHLEF", "street": "Rue Boutekrabt Ahmed Souk Eltenine Bejaia.", "city": "Souk Eltenine", "phone": "06 67 86 82 83", "lat": 36.625652, "lon": 5.336022, "code_wil": 6, "to_check": false }, "geometry": { "type": "Point", "coordinates": [ 5.336022, 36.625652 ] } },
{ "type": "Feature", "properties": { "num": 19, "id": 1642, "title": "06.I.CHERIFI", "street": "cté 130 \/ 200 logt RHP BT E N°15 et 16 Akbou Bejaia", "city": "Akbou", "phone": "07 78 72 51 49", "lat": 36.459016, "lon": 4.533478, "code_wil": 6, "to_check": false }, "geometry": { "type": "Point", "coordinates": [ 4.533478, 36.459016 ] } },
{ "type": "Feature", "properties": { "num": 14, "id": 1643, "title": "06.2.I.CHERIFI", "street": "04, Chemins Ouzelaguen - Bejaia", "city": "Bejaia", "phone": "07 78 72 51 49", "lat": 36.542416475679467, "lon": 4.6109531487637812, "code_wil": 6, "to_check": false }, "geometry": { "type": "Point", "coordinates": [ 4.610953148763781, 36.542416475679467 ] } },
{ "type": "Feature", "properties": { "num": 15, "id": 1644, "title": "06.3.I.CHERIFI", "street": "Cité ihaddaden, prommotion immobiliére SOMACOB BEDJAIA ", "city": "Bejaia", "phone": "07 78 72 51 49", "lat": 36.743873, "lon": 5.050526, "code_wil": 6, "to_check": false }, "geometry": { "type": "Point", "coordinates": [ 5.050526, 36.743873 ] } },
{ "type": "Feature", "properties": { "num": 17, "id": 1645, "title": "06.H.KHELIFATI", "street": "Route Nationale N°26 Hotel Syfax -Tazamalt", "city": "Tazmalt", "phone": "07 82 29 15 08", "lat": 36.379845, "lon": 4.396449, "code_wil": 6, "to_check": false }, "geometry": { "type": "Point", "coordinates": [ 4.396449, 36.379845 ] } },
{ "type": "Feature", "properties": { "num": 18, "id": 1646, "title": "06.h.rabhi", "street": "Cité98 logts Bloc 14 AMIZOUR", "city": "Amizour", "phone": "07 82 29 15 53", "lat": 36.642116, "lon": 4.903334, "code_wil": 6, "to_check": false }, "geometry": { "type": "Point", "coordinates": [ 4.903334, 36.642116 ] } },
{ "type": "Feature", "properties": { "num": 20, "id": 1647, "title": "06.L.OUHENDI", "street": "56 logts la grande baie local N°23 RD CITE TOBALE", "city": "Bedjaia", "phone": "07 82 29 15 06", "lat": 36.750008, "lon": 5.071744, "code_wil": 6, "to_check": false }, "geometry": { "type": "Point", "coordinates": [ 5.071744, 36.750008 ] } },
{ "type": "Feature", "properties": { "num": 23, "id": 1648, "title": "06.W.HAMMAOUI", "street": "Centre Commercial Lot 130-131 El Kseur Bejaia", "city": "El Kseur", "phone": "07 82 29 15 07", "lat": 36.677564, "lon": 4.849324, "code_wil": 6, "to_check": false }, "geometry": { "type": "Point", "coordinates": [ 4.849324, 36.677564 ] } },
{ "type": "Feature", "properties": { "num": 86, "id": 1650, "title": "19.S.GUELLATI", "street": "Cité Houari Boumedienne Rue OUADA El hanachi El Eulma", "city": "El Eulma", "phone": "07 82 29 15 47", "lat": 36.162341, "lon": 5.683927, "code_wil": 19, "to_check": false }, "geometry": { "type": "Point", "coordinates": [ 5.683927, 36.162341 ] } },
{ "type": "Feature", "properties": { "num": 84, "id": 1652, "title": "19.F.AIFA", "street": "02 Rue Ouari Mokhtar Cité Yahyaoui EX C A3 N°62 setif", "city": "Setif", "phone": "07 82 29 15 05", "lat": 36.198737, "lon": 5.424066, "code_wil": 19, "to_check": false }, "geometry": { "type": "Point", "coordinates": [ 5.424066, 36.198737 ] } },
{ "type": "Feature", "properties": { "num": 85, "id": 1653, "title": "19.H.DOUADI", "street": "COMMUNE HAMMAM SOKHNA CENTRE W-SETIF", "city": "Hammam Soukhna", "phone": "07 82 29 13 95", "lat": 35.9756954, "lon": 5.8058058, "code_wil": 19, "to_check": false }, "geometry": { "type": "Point", "coordinates": [ 5.8058058, 35.975695399999985 ] } },
{ "type": "Feature", "properties": { "num": 82, "id": 1654, "title": "19.1.H.DOUADI", "street": "Cité 100 logts Bt El-Eulma Sétif.", "city": "El Eulma", "phone": "07 82 29 13 95", "lat": 36.160301, "lon": 5.698398, "code_wil": 19, "to_check": false }, "geometry": { "type": "Point", "coordinates": [ 5.698398, 36.160301 ] } },
{ "type": "Feature", "properties": { "num": 83, "id": 1655, "title": "19.2.H.DOUADI", "street": "Cité des 400 Logements Commune et Daïra de Sétif wilaya de Sétif", "city": "Setif", "phone": "07 82 29 13 95", "lat": 36.19929215115377, "lon": 5.4190526725892676, "code_wil": 19, "to_check": false }, "geometry": { "type": "Point", "coordinates": [ 5.419052672589268, 36.19929215115377 ] } },
{ "type": "Feature", "properties": { "num": 87, "id": 1656, "title": "19.Z.YAHIA", "street": "cité Houari Boumediene Rue Amar Goumidi N°1- El Eulma", "city": "El Eulma", "phone": "07 82 29 15 10", "lat": 36.160301, "lon": 5.698398, "code_wil": 19, "to_check": false }, "geometry": { "type": "Point", "coordinates": [ 5.698398, 36.160301 ] } },
{ "type": "Feature", "properties": { "num": 121, "id": 1657, "title": "28.R.TIOUB", "street": "CITE ELHOURANE HAMMAM DALAA", "city": "Hammam Delaa", "phone": "07 82 29 15 45", "lat": 35.922306231459963, "lon": 4.3767816352313709, "code_wil": 28, "to_check": false }, "geometry": { "type": "Point", "coordinates": [ 4.376781635231371, 35.922306231459963 ] } },
{ "type": "Feature", "properties": { "num": 117, "id": 1658, "title": "28.1.R.TIOUB", "street": "Cité 110 LSP BTS E local E5 - M'sila", "city": "M'sila", "phone": "07 82 29 15 45", "lat": 35.677109, "lon": 4.541814, "code_wil": 28, "to_check": false }, "geometry": { "type": "Point", "coordinates": [ 4.541814, 35.677109 ] } },
{ "type": "Feature", "properties": { "num": 118, "id": 1659, "title": "28.2.R.TIOUB", "street": "Local N°51\/37 RDC Bat N°07 Ouled Derradj Wilaya de M'sila", "city": "Ouled Derradj", "phone": "07 82 29 15 45", "lat": 35.689746975900178, "lon": 4.776263332888397, "code_wil": 28, "to_check": false }, "geometry": { "type": "Point", "coordinates": [ 4.776263332888397, 35.689746975900178 ] } },
{ "type": "Feature", "properties": { "num": 119, "id": 1660, "title": "28.3.R.TIOUB", "street": "Cité Houari Boumedienne Berhoum - M'sila", "city": "Berhoum", "phone": "07 82 29 15 45", "lat": 35.647765, "lon": 5.007845, "code_wil": 28, "to_check": false }, "geometry": { "type": "Point", "coordinates": [ 5.007845, 35.647765 ] } },
{ "type": "Feature", "properties": { "num": 120, "id": 1661, "title": "28.B.BOUCHERIF", "street": "Cité  19  juin 1965 baladiat  Sidi  Aissa  W.  M’SILA", "city": "Sidi Aissa", "phone": "07 82 29 15 50", "lat": 35.884167373419068, "lon": 3.7757856049759631, "code_wil": 28, "to_check": false }, "geometry": { "type": "Point", "coordinates": [ 3.775785604975963, 35.884167373419068 ] } },
{ "type": "Feature", "properties": { "num": 133, "id": 1663, "title": "34.B.MERZOUGUI", "street": "1ere rue zone urbaine Bourdj Bou Arreridj", "city": "Bordj Bou Arerridj", "phone": "07 82 29 13 77", "lat": 36.070419, "lon": 4.756405, "code_wil": 34, "to_check": false }, "geometry": { "type": "Point", "coordinates": [ 4.756405, 36.070419 ] } },
{ "type": "Feature", "properties": { "num": 131, "id": 1664, "title": "34.1.B.MERZOUGUI", "street": "Cité KELALECH AHMIMID HARRACH commune Bordj Bou Arreredj", "city": "Mhir BBA", "phone": "07 82 29 13 77", "lat": 36.070419, "lon": 4.756405, "code_wil": 34, "to_check": false }, "geometry": { "type": "Point", "coordinates": [ 4.756405, 36.070419 ] } },
{ "type": "Feature", "properties": { "num": 134, "id": 1665, "title": "34.H.DERRARDJA", "street": "29 BDV HOUARI BOUMEDIEN BBA", "city": "Bordj Bou Arerridj", "phone": "07 82 29 15 12", "lat": 36.07379, "lon": 4.758967, "code_wil": 34, "to_check": false }, "geometry": { "type": "Point", "coordinates": [ 4.758967, 36.07379 ] } },
{ "type": "Feature", "properties": { "num": 132, "id": 1666, "title": "34.1.H.DERRARDJA", "street": "Cité 64 logts cop N° 17 bordj Ghedir Bordj Bou Arreredj", "city": "Bordj el guedir", "phone": "07 82 29 15 12", "lat": 35.898319415623057, "lon": 4.8924354768034526, "code_wil": 34, "to_check": false }, "geometry": { "type": "Point", "coordinates": [ 4.892435476803453, 35.898319415623057 ] } },
{ "type": "Feature", "properties": { "num": 135, "id": 1667, "title": "34.S.MOHAMEDSEGHIR", "street": "Lotissement Bouda, RUE A N°49 Bordj Bou Arreredj", "city": "Bordj Bou Arerridj", "phone": "07 82 29 15 09", "lat": 36.070419, "lon": 4.756405, "code_wil": 34, "to_check": false }, "geometry": { "type": "Point", "coordinates": [ 4.756405, 36.070419 ] } },
{ "type": "Feature", "properties": { "num": 166, "id": 1668, "title": "BO.0001 - Agence BENI OURTTILANE", "street": "14 Rue colonel Amirouche Beni Ourtilane-SETIF", "city": "Beni Ourtilane", "phone": "07 82 29 13 90 \/ 05 54 84 67 88", "lat": 36.442206, "lon": 4.852528, "code_wil": 19, "to_check": false }, "geometry": { "type": "Point", "coordinates": [ 4.852528, 36.442206 ] } },
{ "type": "Feature", "properties": { "num": 116, "id": 1670, "title": "28-01.10 - Agence M'SILA", "street": "Cité administratif M'sila", "city": "M'sila", "phone": "07 82 29 16 23 \/ 05 54 80 34 24", "lat": 35.707783, "lon": 4.535624, "code_wil": 28, "to_check": false }, "geometry": { "type": "Point", "coordinates": [ 4.535624, 35.707783 ] } },
{ "type": "Feature", "properties": { "num": 31, "id": 1671, "title": "11-01.10 - Agence TAMENGHASSET", "street": "Hai el Kaser el Fougani Tamanrast", "city": "Tamanrast", "phone": "07 82 29 15 15 \/ 05 54 84 18 07", "lat": 22.799724, "lon": 5.524223, "code_wil": 11, "to_check": false }, "geometry": { "type": "Point", "coordinates": [ 5.524223, 22.799724 ] } },
{ "type": "Feature", "properties": { "num": 78, "id": 1672, "title": "19-01.10 - Agence DALLAS", "street": "24 Brarma Abdellah Cité 1er novembre 1954 Dalas-w-SETIF", "city": "Setif", "phone": "07 82 29 15 04 \/ 05 54 84 85 22", "lat": 36.191775, "lon": 5.429484, "code_wil": 19, "to_check": false }, "geometry": { "type": "Point", "coordinates": [ 5.429484, 36.191775 ] } },
{ "type": "Feature", "properties": { "num": 79, "id": 1673, "title": "19-01.40 - Agence COOPERATIVE EL AMEL", "street": "Cité Hachemi cooperative EL AMEL rue ALEM Mokhtar n° 05 -SETIF", "city": "Sétif", "phone": "07 82 29 15 14 \/ 05 54 84 86 46", "lat": 36.179269, "lon": 5.398209, "code_wil": 19, "to_check": false }, "geometry": { "type": "Point", "coordinates": [ 5.398209, 36.179269 ] } },
{ "type": "Feature", "properties": { "num": 164, "id": 1674, "title": "BBA001 - Agence BORDJ BOU ARRERIDJ", "street": "89 devision khelfaoui local n°6 groupe propr", "city": "BORDJ BOU ARRERIDJ", "phone": "07 82 29 14 09 \/ 05 54 83 63 34", "lat": 36.072901, "lon": 4.773474, "code_wil": 34, "to_check": false }, "geometry": { "type": "Point", "coordinates": [ 4.773474, 36.072901 ] } },
{ "type": "Feature", "properties": { "num": 80, "id": 1675, "title": "19-03.10 - Agence BENI AZIZ", "street": "rue khemkhoum saadi -beni Aziz w setif", "city": "Beni Azize", "phone": "07 82 29 15 13 \/ 05 54 84 85 75", "lat": 36.196903, "lon": 5.415087, "code_wil": 19, "to_check": false }, "geometry": { "type": "Point", "coordinates": [ 5.415087, 36.196903 ] } },
{ "type": "Feature", "properties": { "num": 81, "id": 1676, "title": "19-20.20 - Agence EL EULMA", "street": "Rue du 1er novembre 54 El Eulma", "city": "El Eulma", "phone": "07 82 29 15 11 \/ 05 54 84 85 21", "lat": 36.152913, "lon": 5.679733, "code_wil": 19, "to_check": false }, "geometry": { "type": "Point", "coordinates": [ 5.679733, 36.152913 ] } },
{ "type": "Feature", "properties": { "num": 129, "id": 1677, "title": "31.K.BENNOURA", "street": "02 Cité Kastor Maraval Oran. J38", "city": "Oran", "phone": "07 82 29 15 26", "lat": 35.670659, "lon": -0.651221, "code_wil": 31, "to_check": false }, "geometry": { "type": "Point", "coordinates": [ -0.651221, 35.670659 ] } },
{ "type": "Feature", "properties": { "num": 128, "id": 1678, "title": "31.1 .K.BENNOURA", "street": "Cité 287 logts (USTO) husn el djiwar BT C\/3 local N°04 Oran", "city": "Maraval", "phone": "07 82 29 15 26", "lat": 35.725774, "lon": -0.572924, "code_wil": 31, "to_check": false }, "geometry": { "type": "Point", "coordinates": [ -0.572924, 35.725774 ] } },
{ "type": "Feature", "properties": { "num": 114, "id": 1679, "title": "27.A.REZALI", "street": "Cité 72 logts, route d'Oran, bâtiment B N°13 Mostaganem.", "city": "Mostaganem", "phone": "07 72 90 44 43", "lat": 35.917746, "lon": 0.075159, "code_wil": 27, "to_check": false }, "geometry": { "type": "Point", "coordinates": [ 0.075159, 35.917746 ] } },
{ "type": "Feature", "properties": { "num": 115, "id": 1680, "title": "27.S.BENMEHAL", "street": " Cté 122  logts Bt A5 N°24 Mechouma Mostaganem.", "city": "Mostaganem", "phone": "07 82 29 15 21", "lat": 35.913799331407048, "lon": 0.090394522056708004, "code_wil": 27, "to_check": false }, "geometry": { "type": "Point", "coordinates": [ 0.090394522056708, 35.913799331407048 ] } },
{ "type": "Feature", "properties": { "num": 130, "id": 1683, "title": "31.M.Bendella", "street": " Hai Khemisti lot N°290 plan de morcellement 283 lot, Bir Eldjir Oran. ", "city": "Bir Eldjir", "phone": " 05 52 38 06 01", "lat": 35.736515, "lon": -0.570441, "code_wil": 31, "to_check": false }, "geometry": { "type": "Point", "coordinates": [ -0.570441, 35.736515 ] } },
{ "type": "Feature", "properties": { "num": 88, "id": 1685, "title": "20-01.20 - Agence Saïda", "street": "La rue de la révolution N°23 commune et daira de Saida W-SAIDA", "city": "Saïda", "phone": "07 82 89 76 39 \/ 05 54 80 37 31", "lat": 34.829672, "lon": 0.153324, "code_wil": 20, "to_check": false }, "geometry": { "type": "Point", "coordinates": [ 0.153324, 34.829672 ] } },
{ "type": "Feature", "properties": { "num": 124, "id": 1686, "title": "31-01.10 - Agence POINT DU JOUR", "street": "123 Rue A cité point du jour Oran", "city": "Oran", "phone": "07 82 29 15 23 \/ 05 54 80 22 64", "lat": 35.709364, "lon": -0.601621, "code_wil": 31, "to_check": false }, "geometry": { "type": "Point", "coordinates": [ -0.601621, 35.709364 ] } },
{ "type": "Feature", "properties": { "num": 125, "id": 1687, "title": "31-01.20 - Agence GENERAL FERRADO", "street": "88 rue Général HAMRI (EX Général FERRADO ) SEDDIKIA -Oran", "city": "Oran", "phone": "07 82 29 15 24 \/ 05 54 80 33 17", "lat": 35.71027527446136, "lon": -0.61114594601376004, "code_wil": 31, "to_check": false }, "geometry": { "type": "Point", "coordinates": [ -0.61114594601376, 35.71027527446136 ] } },
{ "type": "Feature", "properties": { "num": 126, "id": 1688, "title": "31-01.30 - Agence MUSTAPHA BEN BOULAID", "street": "88, Avenue Mustapha Ben Boulaid; ORAN ", "city": "Oran", "phone": "07 82 29 15 25 \/ 05 54 80 39 86", "lat": 35.687611, "lon": -0.661744, "code_wil": 31, "to_check": false }, "geometry": { "type": "Point", "coordinates": [ -0.661744, 35.687611 ] } },
{ "type": "Feature", "properties": { "num": 127, "id": 1689, "title": "31-01.50 - Agence AIN TURK", "street": "Plateau de trouville nich n°871 Ain Turck -Oran", "city": "Ain turk", "phone": "07 82 29 15 31 \/ 05 54 80 20 87", "lat": 35.735737, "lon": -0.744172, "code_wil": 31, "to_check": false }, "geometry": { "type": "Point", "coordinates": [ -0.744172, 35.735737 ] } },
{ "type": "Feature", "properties": { "num": 176, "id": 1690, "title": "OR001 - Agence MILLENIUM", "street": "Rue Millenium Bt C, N°7, Résidence el sawsen Local N° 2", "city": "Oran", "phone": "07 82 29 14 20", "lat": 35.691895, "lon": -0.632026, "code_wil": 31, "to_check": false }, "geometry": { "type": "Point", "coordinates": [ -0.632026, 35.691895 ] } },
{ "type": "Feature", "properties": { "num": 177, "id": 1691, "title": "OR002 - Agence IDAA", "street": "Cité Magheri N° 29, Boulevard AHMED BEN ABDERZZAK", "city": "Oran", "phone": "07 82 29 16 11 \/ 05 54 80 19 20", "lat": 35.700447, "lon": -0.630108, "code_wil": 31, "to_check": false }, "geometry": { "type": "Point", "coordinates": [ -0.630108, 35.700447 ] } },
{ "type": "Feature", "properties": { "num": 35, "id": 1692, "title": "13-01.20 - Agence TLEMCEN", "street": "Rue BOULVARD DERRAR ANBDERAHMANE KIFANE -TELEMCEN", "city": "Tlemcen", "phone": "05 54 80 39 02 \/ 07 82 29 15 61", "lat": 34.889277, "lon": -1.335138, "code_wil": 13, "to_check": false }, "geometry": { "type": "Point", "coordinates": [ -1.335138, 34.889277 ] } },
{ "type": "Feature", "properties": { "num": 36, "id": 1693, "title": "14-01.10 - Agence TIARET", "street": "Boulevard Maouf Ahmed D117 n°6 Tiaret", "city": "Tiaret", "phone": "07 82 29 15 18 \/ 05 54 80 40 58", "lat": 35.366873, "lon": 1.317641, "code_wil": 14, "to_check": false }, "geometry": { "type": "Point", "coordinates": [ 1.317641, 35.366873 ] } },
{ "type": "Feature", "properties": { "num": 94, "id": 1694, "title": "22-01.20 - Agence MAQAM ECHAHID", "street": "N° 07; Cité des 119 Villas, Maqam' Echahid;SIDI BELABBES", "city": "Sidi Belabbes", "phone": "07 82 29 16 09 \/ 05 54 80 31 98", "lat": 35.202225, "lon": -0.629892, "code_wil": 22, "to_check": false }, "geometry": { "type": "Point", "coordinates": [ -0.629892, 35.202225 ] } },
{ "type": "Feature", "properties": { "num": 122, "id": 1695, "title": "29-01.10 - Agence MASCARA", "street": "03, rue IKHLEF Bélaid - Mascara", "city": "Mascara", "phone": "07 82 29 15 22 \/ 05 54 80 32 44", "lat": 35.394474, "lon": 0.14102, "code_wil": 29, "to_check": false }, "geometry": { "type": "Point", "coordinates": [ 0.14102, 35.394474 ] } },
{ "type": "Feature", "properties": { "num": 149, "id": 1697, "title": "42-35.20 - Agence de Kolea", "street": "Lotissement N°30, Batiment 7\/A commune de Kolea TIPAZA ", "city": "Kolea", "phone": "07 82 29 16 08 \/ 05 54 80 39 12", "lat": 36.643244, "lon": 2.770802, "code_wil": 42, "to_check": false }, "geometry": { "type": "Point", "coordinates": [ 2.770802, 36.643244 ] } }
]
}
