{
"type": "FeatureCollection",
"crs": { "type": "name", "properties": { "name": "urn:ogc:def:crs:OGC:1.3:CRS84" } },
"features": [
{ "type": "Feature", "properties": { "num": 0, "Name": "01-Adrar", "localite": "Adrar", "code_agence": "408", "succursale": "Oran (400)", "address": "N° 03, Centre Commercial \"AMRAD\" - Adrar", "phone": "049 36 78 83 \/ 049 36 78 85", "fax": "049 36 78 85", "code_wil": 1, "lat": 27.870513098041801, "lon": -0.28782417622554601, "to_check": false }, "geometry": { "type": "Point", "coordinates": [ -0.287824176225546, 27.870513098041801 ] } },
{ "type": "Feature", "properties": { "num": 1, "Name": "02-Chlef", "localite": "Chlef", "code_agence": "607", "succursale": "Bouzaréah (600)", "address": "Rue Ibn Rochd, BP. 137 - Chlef", "phone": "027 77 15 73", "fax": "027 77 81 58", "code_wil": 2, "lat": 36.170123, "lon": 1.334741, "to_check": false }, "geometry": { "type": "Point", "coordinates": [ 1.334741, 36.170123 ] } },
{ "type": "Feature", "properties": { "num": 2, "Name": "02-Chlef", "localite": "Chlef", "code_agence": "732", "succursale": "Bouzaréah (600)", "address": "Cite des fonctionnaires, Bt. 1 N°06 - Chlef", "phone": "027 79 04 20", "fax": "027 79 04 20", "code_wil": 2, "lat": 36.169331, "lon": 1.341806, "to_check": false }, "geometry": { "type": "Point", "coordinates": [ 1.341806, 36.169331 ] } },
{ "type": "Feature", "properties": { "num": 3, "Name": "03-Laghouat", "localite": "Laghouat", "code_agence": "621", "succursale": "Bouzaréah (600)", "address": "Bloc H, cité des 600 Logements Makam - Laghouat", "phone": "029 11 73 79", "fax": "029 11 73 84", "code_wil": 3, "lat": 33.795496319705698, "lon": 2.8569293262669802, "to_check": false }, "geometry": { "type": "Point", "coordinates": [ 2.85692932626698, 33.795496319705698 ] } },
{ "type": "Feature", "properties": { "num": 4, "Name": "04-Oum El Bouaghi", "localite": "Meskiana", "code_agence": "306", "succursale": "Annaba (300)", "address": "Route Radai Amar, Code 04250, Meskiana - Oum El Bouaghi", "phone": "032 47 18 96", "fax": "032 66 22 58", "code_wil": 4, "lat": 35.6334765, "lon": 7.6674872, "to_check": false }, "geometry": { "type": "Point", "coordinates": [ 7.6674872, 35.6334765 ] } },
{ "type": "Feature", "properties": { "num": 5, "Name": "04-Oum El Bouaghi", "localite": "Oum El Bouaghi", "code_agence": "514", "succursale": "Constantine (500)", "address": "Cité Hihi El Mekki, BP 344 - Oum El Bouaghi  ", "phone": "032 56 00 31", "fax": "032 56 00 31", "code_wil": 4, "lat": 35.8705589, "lon": 7.1146963, "to_check": false }, "geometry": { "type": "Point", "coordinates": [ 7.1146963, 35.8705589 ] } },
{ "type": "Feature", "properties": { "num": 6, "Name": "04-Oum El Bouaghi", "localite": "Aïn Beïda", "code_agence": "717", "succursale": "Annaba (300)", "address": "Résidence FLN BP. 369, code 04200, Aïn Beïda - Oum El Bouaghi", "phone": "032 68 56 98", "fax": "032 68 56 98", "code_wil": 4, "lat": 35.793667, "lon": 7.377667, "to_check": false }, "geometry": { "type": "Point", "coordinates": [ 7.377667, 35.793667 ] } },
{ "type": "Feature", "properties": { "num": 7, "Name": "04-Oum El Bouaghi", "localite": "Aïn M'lila", "code_agence": "798", "succursale": "Constantine (500)", "address": "01, Cité des 100 Logements, Aïn M'lila - Oum El Bouaghi", "phone": "032 50 43 31", "fax": "032 50 43 31", "code_wil": 4, "lat": 36.0430239, "lon": 6.5726147, "to_check": false }, "geometry": { "type": "Point", "coordinates": [ 6.5726147, 36.0430239 ] } },
{ "type": "Feature", "properties": { "num": 8, "Name": "05-Batna", "localite": "Batna", "code_agence": "307", "succursale": "Annaba (300)", "address": "02, Rue Hamid Benchaabane, la Verdure - Batna", "phone": "033 80 76 14 \/ 033 80 76 09", "fax": "033 80 76 29 \/ 033 36 18 78", "code_wil": 5, "lat": 35.551601, "lon": 6.172301, "to_check": false }, "geometry": { "type": "Point", "coordinates": [ 6.172301, 35.551601 ] } },
{ "type": "Feature", "properties": { "num": 9, "Name": "05-Batna", "localite": "Aïn Touta", "code_agence": "308", "succursale": "Annaba (300)", "address": "BP. 142, Route Maaoufa, Code 05500, Aïn Touta - Batna", "phone": "033 35 87 92 \/ 033 35 83 26", "fax": "033 35 83 26", "code_wil": 5, "lat": 36.3710676, "lon": 5.8920139, "to_check": true }, "geometry": { "type": "Point", "coordinates": [ 5.8920139, 36.3710676 ] } },
{ "type": "Feature", "properties": { "num": 10, "Name": "05-Batna", "localite": "Barika", "code_agence": "309", "succursale": "Annaba (300)", "address": "06, Avenue Emir Abdelkader, Barika - Batna", "phone": "033 39 18 82", "fax": "033 39 18 83", "code_wil": 5, "lat": 35.383917, "lon": 5.369711, "to_check": false }, "geometry": { "type": "Point", "coordinates": [ 5.369711, 35.383917 ] } },
{ "type": "Feature", "properties": { "num": 11, "Name": "05-Batna", "localite": "Arris", "code_agence": "759", "succursale": "Constantine (500)", "address": "01, Rue Ahmed Ben Abderezak, Arris - Batna", "phone": "033 34 30 83", "fax": "033 34 30 83", "code_wil": 5, "lat": 35.2607, "lon": 6.34787, "to_check": false }, "geometry": { "type": "Point", "coordinates": [ 6.34787, 35.2607 ] } },
{ "type": "Feature", "properties": { "num": 12, "Name": "05-Batna", "localite": "Barika", "code_agence": "773", "succursale": "Annaba (300)", "address": "06, Rue Bouradi Ismail, Barika - Batna", "phone": "033 38 98 01", "fax": "033 38 98 02", "code_wil": 5, "lat": 35.3878253, "lon": 5.3672937, "to_check": false }, "geometry": { "type": "Point", "coordinates": [ 5.3672937, 35.3878253 ] } },
{ "type": "Feature", "properties": { "num": 17, "Name": "06-Béjaïa", "localite": "Béjaïa", "code_agence": "776", "succursale": "Chéraga (200)", "address": "Cité Administrative Somacob, Bt. C2, 1er étage, Boulevard Krim Belkacem - Béjaïa", "phone": "034 12 01 11", "fax": "034 12 00 99", "code_wil": 6, "lat": 36.74465, "lon": 5.0492, "to_check": false }, "geometry": { "type": "Point", "coordinates": [ 5.0492, 36.74465 ] } },
{ "type": "Feature", "properties": { "num": 16, "Name": "06-Béjaïa", "localite": "Akbou", "code_agence": "774", "succursale": "Chéraga (200)", "address": "26, Rue Larbi Touati, Akbou - Bejaïa", "phone": "034 35 86 86 ", "fax": "034 35 98 83", "code_wil": 6, "lat": 36.47771, "lon": 4.556552, "to_check": false }, "geometry": { "type": "Point", "coordinates": [ 4.556552, 36.47771 ] } },
{ "type": "Feature", "properties": { "num": 14, "Name": "06-Béjaïa", "localite": "Béjaïa", "code_agence": "216", "succursale": "Chéraga (200)", "address": "Centre des affaires Big Centre Boulevard Krim Belkacem - Béjaïa ", "phone": "034 11 31 05\/48", "fax": "034 11 33 90", "code_wil": 6, "lat": 36.744932, "lon": 5.048108, "to_check": false }, "geometry": { "type": "Point", "coordinates": [ 5.048108, 36.744932 ] } },
{ "type": "Feature", "properties": { "num": 13, "Name": "06-Béjaïa", "localite": "Béjaïa", "code_agence": "206", "succursale": "Chéraga (200)", "address": "Bt. N° D11 ET D12, Boulevard de la Révolution, Quartier Séghir - Béjaïa", "phone": "034 12 56 84 \/ 034 12 56 87                                              ", "fax": "034 12 56 83", "code_wil": 6, "lat": 36.749219, "lon": 5.060497, "to_check": false }, "geometry": { "type": "Point", "coordinates": [ 5.060497, 36.749219 ] } },
{ "type": "Feature", "properties": { "num": 15, "Name": "06-Béjaïa", "localite": "Béjaïa", "code_agence": "758", "succursale": "Chéraga (200)", "address": "12, Boulevard Bouaouina - Bejaïa", "phone": "034 18 64 01 \/ 034 18 64 03", "fax": "034 18 64 00", "code_wil": 6, "lat": 36.756718, "lon": 5.085644, "to_check": false }, "geometry": { "type": "Point", "coordinates": [ 5.085644, 36.756718 ] } },
{ "type": "Feature", "properties": { "num": 18, "Name": "07-Biskra", "localite": "Biskra", "code_agence": "509", "succursale": "Constantine (500)", "address": "Cité des 1000 logemets, EL Amel, BP 88 - Biskra", "phone": "033 54 15 22", "fax": "033 54 10 32", "code_wil": 7, "lat": 34.8451721, "lon": 5.7126274, "to_check": false }, "geometry": { "type": "Point", "coordinates": [ 5.7126274, 34.8451721 ] } },
{ "type": "Feature", "properties": { "num": 19, "Name": "08-Béchar", "localite": "Béchar", "code_agence": "406", "succursale": "Oran (400)", "address": "N° 65, Four à chaux, Rue Guyen Van Troy - Béchar", "phone": "049 21 52 35 \/ 049 21 52 36", "fax": "049 21 52 36", "code_wil": 8, "lat": 31.618734922379399, "lon": -2.2182855303275, "to_check": false }, "geometry": { "type": "Point", "coordinates": [ -2.2182855303275, 31.618734922379399 ] } },
{ "type": "Feature", "properties": { "num": 20, "Name": "09-Blida", "localite": "Blida", "code_agence": "604", "succursale": "Bouzaréah (600)", "address": "77, Boulevard Mohamed Boudiaf - Blida", "phone": "025 21 58 26", "fax": "025 21 58 27", "code_wil": 9, "lat": 36.478462748584697, "lon": 2.8192483351723401, "to_check": false }, "geometry": { "type": "Point", "coordinates": [ 2.81924833517234, 36.478462748584697 ] } },
{ "type": "Feature", "properties": { "num": 21, "Name": "10-Bouira", "localite": "Lakhdaria", "code_agence": "215", "succursale": "Chéraga (200)", "address": "Cité des 39 Logts., Route Nationale N° 05, BP 127, Lakhdaria - Bouira", "phone": "026 71 20 39", "fax": "026 71 20 40", "code_wil": 10, "lat": 36.563939, "lon": 3.596601, "to_check": false }, "geometry": { "type": "Point", "coordinates": [ 3.596601, 36.563939 ] } },
{ "type": "Feature", "properties": { "num": 22, "Name": "10-Bouira", "localite": "Bouira", "code_agence": "223", "succursale": "Chéraga (200)", "address": "Axe des Finances - Bouira ", "phone": "026 73 93 01 \/ 026 73 93 05", "fax": "026 73 93 62", "code_wil": 10, "lat": 36.376085, "lon": 3.889071, "to_check": false }, "geometry": { "type": "Point", "coordinates": [ 3.889071, 36.376085 ] } },
{ "type": "Feature", "properties": { "num": 23, "Name": "10-Bouira", "localite": "Bouira", "code_agence": "749", "succursale": "Chéraga (200)", "address": "Cité LSP 50 Lgts. Hamana Omar, local N° 49, Bloc A12,Lakhdaria - Bouira", "phone": "026 70 53 01", "fax": "026 70 53 01", "code_wil": 10, "lat": 36.769611, "lon": 3.055204, "to_check": true }, "geometry": { "type": "Point", "coordinates": [ 3.055204, 36.769611 ] } },
{ "type": "Feature", "properties": { "num": 24, "Name": "12-Tebessa", "localite": "Tebessa", "code_agence": "310", "succursale": "Annaba (300)", "address": "Bordj Larbi Boudiba, BP. 198 - Tebessa", "phone": "037 55 54 61", "fax": "037 55 50 67", "code_wil": 12, "lat": 35.402086, "lon": 8.115716, "to_check": false }, "geometry": { "type": "Point", "coordinates": [ 8.115716, 35.402086 ] } },
{ "type": "Feature", "properties": { "num": 25, "Name": "12-Tebessa", "localite": "Ouenza", "code_agence": "312", "succursale": "Annaba (300)", "address": "Boulevard 1er Novembre 1954, BP. 171, Ouenza - Tebessa", "phone": "037 67 87 00", "fax": "037 67 89 63", "code_wil": 12, "lat": 35.951838, "lon": 8.132996, "to_check": false }, "geometry": { "type": "Point", "coordinates": [ 8.132996, 35.951838 ] } },
{ "type": "Feature", "properties": { "num": 26, "Name": "12-Tebessa", "localite": "Tebessa", "code_agence": "754", "succursale": "Annaba (300)", "address": "Cité Oued Neghs, Nouvelle Gare Routière - Tébessa                 ", "phone": "037 59 24 25 \/ 0560 48 10 97", "fax": "037 59 24 25", "code_wil": 12, "lat": 35.4151586, "lon": 8.1089036, "to_check": false }, "geometry": { "type": "Point", "coordinates": [ 8.1089036, 35.4151586 ] } },
{ "type": "Feature", "properties": { "num": 31, "Name": "13-Tlemcen", "localite": "Tlemcen", "code_agence": "747\/01", "succursale": "Oran (400)", "address": "21, Boulevard ZERROUKI Abdelkarim - Tlemcen", "phone": "043 42 76 96", "fax": "043 42 76 96", "code_wil": 13, "lat": 34.879414672800102, "lon": -1.3081240345062799, "to_check": false }, "geometry": { "type": "Point", "coordinates": [ -1.30812403450628, 34.879414672800102 ] } },
{ "type": "Feature", "properties": { "num": 30, "Name": "13-Tlemcen", "localite": "Nedroma", "code_agence": "417 Bis", "succursale": "Oran (400)", "address": "Ilot N° 36, N° 09, Nedroma - Tlemcen", "phone": "043 45 62 99", "fax": "043 45 62 95", "code_wil": 13, "lat": 35.010159450189903, "lon": -1.7465460039259699, "to_check": false }, "geometry": { "type": "Point", "coordinates": [ -1.74654600392597, 35.010159450189903 ] } },
{ "type": "Feature", "properties": { "num": 29, "Name": "13-Tlemcen", "localite": "Ghazaouet", "code_agence": "417", "succursale": "Oran (400)", "address": "Porte de Nedroma, Ghazaouet - Tlemcen", "phone": "043 46 72 88 \/ 043 46 72 89", "fax": "043 46 72 87", "code_wil": 13, "lat": 35.099020730306599, "lon": -1.8580564950685701, "to_check": false }, "geometry": { "type": "Point", "coordinates": [ -1.85805649506857, 35.099020730306599 ] } },
{ "type": "Feature", "properties": { "num": 28, "Name": "13-Tlemcen", "localite": "Maghnia", "code_agence": "416", "succursale": "Oran (400)", "address": "Rue Mohamed Khemisti, BP 461, Maghnia - Tlemcen", "phone": "043 50 27 23 \/ 043 50 27 24", "fax": "043 50 27 24", "code_wil": 13, "lat": 34.847607821776002, "lon": -1.72902048177931, "to_check": false }, "geometry": { "type": "Point", "coordinates": [ -1.72902048177931, 34.847607821776002 ] } },
{ "type": "Feature", "properties": { "num": 27, "Name": "13-Tlemcen", "localite": "Tlemcen", "code_agence": "404", "succursale": "Oran (400)", "address": "Résidence El Mitak 01, Bloc BC El Kiffan - Tlemcen", "phone": "043 26 71 46 \/ 043 26 71 48", "fax": "043 26 71 49", "code_wil": 13, "lat": 34.885680356155, "lon": -1.3269376820124901, "to_check": false }, "geometry": { "type": "Point", "coordinates": [ -1.32693768201249, 34.885680356155 ] } },
{ "type": "Feature", "properties": { "num": 32, "Name": "14-Tiaret", "localite": "Tiaret", "code_agence": "405", "succursale": "Oran (400)", "address": "CIA la Colline, Rue de La Palestine - Tiaret", "phone": "046 21 29 36", "fax": "046 21 29  37", "code_wil": 14, "lat": 35.377523906738901, "lon": 1.32035737034393, "to_check": false }, "geometry": { "type": "Point", "coordinates": [ 1.32035737034393, 35.377523906738901 ] } },
{ "type": "Feature", "properties": { "num": 38, "Name": "15-Tizi Ouzou", "localite": "Beni Douala", "code_agence": "205-Bis ", "succursale": "Chéraga (200)", "address": "Bt. N° 06 Appt. N° 04, 2ème Etage, Centre Beni Douala - Tizi Ouzou", "phone": "026 40 63 42", "fax": "026 25 63 44", "code_wil": 15, "lat": 36.623111, "lon": 4.079728, "to_check": false }, "geometry": { "type": "Point", "coordinates": [ 4.079728, 36.623111 ] } },
{ "type": "Feature", "properties": { "num": 37, "Name": "15-Tizi Ouzou", "localite": "Draa Ben Khedda", "code_agence": "768", "succursale": "Chéraga (200)", "address": "Rue KASRI Ahmed îlot central N° 39, Draa Ben Khedda - Tizi Ouzou", "phone": "026 27 30 28", "fax": "026 27 30 28", "code_wil": 15, "lat": 36.73227, "lon": 3.96579, "to_check": false }, "geometry": { "type": "Point", "coordinates": [ 3.96579, 36.73227 ] } },
{ "type": "Feature", "properties": { "num": 36, "Name": "15-Tizi Ouzou", "localite": "Tizi Ouzou", "code_agence": "739", "succursale": "Chéraga (200)", "address": "Tours Villa N° 37, Rue des Frères Slimani - Tizi Ouzou", "phone": "026 12 49 31", "fax": "026 12 65 17", "code_wil": 15, "lat": 36.71701, "lon": 4.04146, "to_check": false }, "geometry": { "type": "Point", "coordinates": [ 4.04146, 36.71701 ] } },
{ "type": "Feature", "properties": { "num": 39, "Name": "15-Tizi Ouzou", "localite": "Tizi Ouzou", "code_agence": "727\/03", "succursale": "Chéraga (200)", "address": "600 Lgts. Cité Génie Sider, Rue Salah Louanchi, Bt. N° 04Rez de chaussée, Local N° 05 - Tizi Ouzou", "phone": "026 10 16 20", "fax": "027 10 16 20", "code_wil": 15, "lat": 36.695469, "lon": 4.044174, "to_check": false }, "geometry": { "type": "Point", "coordinates": [ 4.044174, 36.695469 ] } },
{ "type": "Feature", "properties": { "num": 34, "Name": "15-Tizi Ouzou", "localite": "Larabaâ Nath Irathen", "code_agence": "228", "succursale": "Chéraga (200)", "address": "Route du Lycée, Larabaâ Nath Irathen -Tizi Ouzou", "phone": "026 49 26 28", "fax": "026 49 26 32", "code_wil": 15, "lat": 36.63485, "lon": 4.205765, "to_check": false }, "geometry": { "type": "Point", "coordinates": [ 4.205765, 36.63485 ] } },
{ "type": "Feature", "properties": { "num": 33, "Name": "15-Tizi Ouzou", "localite": "Tizi Ouzou", "code_agence": "205", "succursale": "Chéraga (200)", "address": "Boulevard des Frères Belhadj, Nouvelle ville - Tizi Ouzou", "phone": "026 11 74 86 \/ 026 11 38 39 \/ 026 11 05 41", "fax": "026 11 21 63", "code_wil": 15, "lat": 36.702034, "lon": 4.049709, "to_check": false }, "geometry": { "type": "Point", "coordinates": [ 4.049709, 36.702034 ] } },
{ "type": "Feature", "properties": { "num": 35, "Name": "15-Tizi Ouzou", "localite": "Azzazga", "code_agence": "234", "succursale": "Chéraga (200)", "address": "Cité 300 Logts. AADL,  Azzazga - Tizi Ouzou", "phone": "026 34 11 96 \/ 026 34 10 01    ", "fax": "026 34 14 16", "code_wil": 15, "lat": 36.747593, "lon": 4.359077, "to_check": false }, "geometry": { "type": "Point", "coordinates": [ 4.359077, 36.747593 ] } },
{ "type": "Feature", "properties": { "num": 69, "Name": "16-Alger", "localite": "Bab Ezzouar", "code_agence": "765", "succursale": "Chéraga (200)", "address": "Cité El Djorf, Bt. 57 C N° 02, Baba Ezzouar - Alger", "phone": "021 24 82 96", "fax": "021 24 82 96", "code_wil": 16, "lat": 36.72242, "lon": 3.176618, "to_check": false }, "geometry": { "type": "Point", "coordinates": [ 3.176618, 36.72242 ] } },
{ "type": "Feature", "properties": { "num": 62, "Name": "16-Alger", "localite": "Alger Centre", "code_agence": "712", "succursale": "Chéraga (200)", "address": "31, Rue du Capitaine Menani - Alger ", "phone": "021 65 84 33 \/ 021 66 26 92", "fax": "021 65 20 39", "code_wil": 16, "lat": 36.763878, "lon": 3.051291, "to_check": false }, "geometry": { "type": "Point", "coordinates": [ 3.051291, 36.763878 ] } },
{ "type": "Feature", "properties": { "num": 63, "Name": "16-Alger", "localite": "Chéraga", "code_agence": "713", "succursale": "Bouzaréah (600)", "address": "04, Place Ben Badis, Cheraga - Alger", "phone": "023 35 81 19", "fax": "023 35 81 18", "code_wil": 16, "lat": 36.767102, "lon": 2.962718, "to_check": false }, "geometry": { "type": "Point", "coordinates": [ 2.962718, 36.767102 ] } },
{ "type": "Feature", "properties": { "num": 64, "Name": "16-Alger", "localite": "Alger Centre", "code_agence": "718", "succursale": "Chéraga (200)", "address": "53, Rue Didouche Mourad - Alger ", "phone": "021 73 68 69 \/ 021 73 68 51 \/ 021 74 49 27 \/ 021 74 49 85", "fax": "021 74 41 47 \/ 021 71 19 73", "code_wil": 16, "lat": 36.766692, "lon": 3.052709, "to_check": false }, "geometry": { "type": "Point", "coordinates": [ 3.052709, 36.766692 ] } },
{ "type": "Feature", "properties": { "num": 65, "Name": "16-Alger", "localite": "Chéraga", "code_agence": "719", "succursale": "Bouzaréah (600)", "address": "20, Lotissement Giroud \"Petit Staoueli\", Cheraga - Alger", "phone": "023 36 73 77", "fax": "023 36 73 77", "code_wil": 16, "lat": 36.754602980366897, "lon": 2.9637640751646899, "to_check": false }, "geometry": { "type": "Point", "coordinates": [ 2.96376407516469, 36.754602980366897 ] } },
{ "type": "Feature", "properties": { "num": 66, "Name": "16-Alger", "localite": "Reghaïa", "code_agence": "742", "succursale": "Chéraga (200)", "address": "Coopérative El Mostakbel, Aissat Mustapha, Reghaia - Alger", "phone": "023  84 21 51", "fax": "023  84 21 51", "code_wil": 16, "lat": 36.725798, "lon": 3.334801, "to_check": false }, "geometry": { "type": "Point", "coordinates": [ 3.334801, 36.725798 ] } },
{ "type": "Feature", "properties": { "num": 67, "Name": "16-Alger", "localite": "Zeralda", "code_agence": "755", "succursale": "Bouzaréah (600)", "address": "Cité 50 logements, Bt. 07 N° 01, Zeralda - Alger", "phone": "0657 88 60 64 \/ 0667 95 74 89", "fax": null, "code_wil": 16, "lat": 36.714606636764799, "lon": 2.8446365292423401, "to_check": false }, "geometry": { "type": "Point", "coordinates": [ 2.84463652924234, 36.714606636764799 ] } },
{ "type": "Feature", "properties": { "num": 68, "Name": "16-Alger", "localite": "Ouled Fayet", "code_agence": "760", "succursale": "Bouzaréah (600)", "address": "Cooperative El Mostakbal lots N° 01, actuellement cite Mohamed Boudiaf N° 03, Ouled Fayet - Alger", "phone": "0560 92 75 30 \/ 0560 92 75 32", "fax": "023 32 45 64", "code_wil": 16, "lat": 36.739689, "lon": 2.948404, "to_check": false }, "geometry": { "type": "Point", "coordinates": [ 2.948404, 36.739689 ] } },
{ "type": "Feature", "properties": { "num": 70, "Name": "16-Alger", "localite": "Bir Khadem", "code_agence": "770", "succursale": "Bouzaréah (600)", "address": "Cité 194 logements, Bt. 07 N°20, Texeraine - Alger", "phone": "021 40 20 09", "fax": "021 40 20 09", "code_wil": 16, "lat": 36.7263986036983, "lon": 3.0292166765523598, "to_check": false }, "geometry": { "type": "Point", "coordinates": [ 3.02921667655236, 36.7263986036983 ] } },
{ "type": "Feature", "properties": { "num": 75, "Name": "16-Alger", "localite": "Reghaïa", "code_agence": "799", "succursale": "Chéraga (200)", "address": "Cité Ahmed Faoussi, Reghaia - Alger", "phone": "023 74 66 07", "fax": "023 74 66 07", "code_wil": 16, "lat": 36.739458, "lon": 3.356079, "to_check": false }, "geometry": { "type": "Point", "coordinates": [ 3.356079, 36.739458 ] } },
{ "type": "Feature", "properties": { "num": 72, "Name": "16-Alger", "localite": "Alger Centre", "code_agence": "785", "succursale": "Bouzaréah (600)", "address": "1, Rue Didouche Mourad - Alger", "phone": "023 49 24 51", "fax": "023 49 24 53", "code_wil": 16, "lat": 36.771292, "lon": 3.057282, "to_check": false }, "geometry": { "type": "Point", "coordinates": [ 3.057282, 36.771292 ] } },
{ "type": "Feature", "properties": { "num": 73, "Name": "16-Alger", "localite": "Hussein-Dey", "code_agence": "796", "succursale": "Chéraga (200)", "address": "71, Rue Djenan Ben Danoune, Hussein Dey - Alger ", "phone": "023 70 93 05", "fax": "023 70 93 05", "code_wil": 16, "lat": 36.734531, "lon": 3.097918, "to_check": false }, "geometry": { "type": "Point", "coordinates": [ 3.097918, 36.734531 ] } },
{ "type": "Feature", "properties": { "num": 74, "Name": "16-Alger", "localite": "Bab Ezzouar", "code_agence": "797", "succursale": "Chéraga (200)", "address": "Cité 1577 logts., Bt. 15 S2, 05 Juillet, Bab Ezzouar - Alger", "phone": "023 92 86 78", "fax": "023 92 86 78", "code_wil": 16, "lat": 36.715754, "lon": 3.188243, "to_check": false }, "geometry": { "type": "Point", "coordinates": [ 3.188243, 36.715754 ] } },
{ "type": "Feature", "properties": { "num": 61, "Name": "16-Alger", "localite": "Rouiba", "code_agence": "711", "succursale": "Chéraga (200)", "address": "Cité du Lycée Abdelmoumène, Rouiba - ALGER", "phone": "021 81 51 10", "fax": "021 81 51 10", "code_wil": 16, "lat": 36.74107, "lon": 3.28655, "to_check": false }, "geometry": { "type": "Point", "coordinates": [ 3.28655, 36.74107 ] } },
{ "type": "Feature", "properties": { "num": 77, "Name": "16-Alger", "localite": "Bab El Oued", "code_agence": "767\/01", "succursale": "Bouzaréah (600)", "address": "18, Bouzid Ezzine, Oued Koriche, Bab El Oued - Alger", "phone": "023 05 10 76", "fax": "023 05 10 76", "code_wil": 16, "lat": 36.766168337181199, "lon": 3.0293718562509602, "to_check": false }, "geometry": { "type": "Point", "coordinates": [ 3.02937185625096, 36.766168337181199 ] } },
{ "type": "Feature", "properties": { "num": 78, "Name": "16-Alger", "localite": null, "code_agence": "767\/03", "succursale": "Bouzaréah (600)", "address": "Bouzaréah - Alger", "phone": null, "fax": null, "code_wil": 16, "lat": 36.651732, "lon": 2.769685, "to_check": true }, "geometry": { "type": "Point", "coordinates": [ 2.769685, 36.651732 ] } },
{ "type": "Feature", "properties": { "num": 79, "Name": "16-Alger", "localite": "Douira", "code_agence": "767\/04", "succursale": "Bouzaréah (600)", "address": "N° 14 C, Rue des frères Larbi BEN M'HIDI, Douira - Alger", "phone": "023 32 80 69", "fax": "023 32 80 69", "code_wil": 16, "lat": 36.668899207080003, "lon": 2.9443079973514599, "to_check": false }, "geometry": { "type": "Point", "coordinates": [ 2.94430799735146, 36.668899207080003 ] } },
{ "type": "Feature", "properties": { "num": 80, "Name": "16-Alger", "localite": null, "code_agence": "767\/05", "succursale": "Bouzaréah (600)", "address": "Bouzaréah - Alger", "phone": null, "fax": null, "code_wil": 16, "lat": 36.644429993456299, "lon": 2.6896353272366098, "to_check": true }, "geometry": { "type": "Point", "coordinates": [ 2.68963532723661, 36.644429993456299 ] } },
{ "type": "Feature", "properties": { "num": 71, "Name": "16-Alger", "localite": "EL Biar", "code_agence": "781", "succursale": "Bouzaréah (600)", "address": "72, Boulevard Bougara, El biar - Alger", "phone": "021 92 84 15 ", "fax": "021 92 84 15 ", "code_wil": 16, "lat": 36.766171, "lon": 3.03674, "to_check": false }, "geometry": { "type": "Point", "coordinates": [ 3.03674, 36.766171 ] } },
{ "type": "Feature", "properties": { "num": 60, "Name": "16-Alger", "localite": "Bab Ezzouar", "code_agence": "708", "succursale": "Chéraga (200)", "address": "Cité 2068 logements Lot N° 39, Bab Ezzouar - Alger", "phone": "023 93 82 09", "fax": "023 93 82 09", "code_wil": 16, "lat": 36.7173, "lon": 3.18683, "to_check": false }, "geometry": { "type": "Point", "coordinates": [ 3.18683, 36.7173 ] } },
{ "type": "Feature", "properties": { "num": 76, "Name": "16-Alger", "localite": "Kouba", "code_agence": "727\/02", "succursale": "Chéraga (200)", "address": "Cité 302 Logements, Haï El Badr, Bt. A21 N° 16 - Alger", "phone": "023 88 51 20", "fax": null, "code_wil": 16, "lat": 36.72185, "lon": 3.1048, "to_check": false }, "geometry": { "type": "Point", "coordinates": [ 3.1048, 36.72185 ] } },
{ "type": "Feature", "properties": { "num": 58, "Name": "16-Alger", "localite": "Zeralda", "code_agence": "636", "succursale": "Bouzaréah (600)", "address": "Cité 2750 Logts. AADL, Bt. A7-08, Sidi Addellah, Mhalma,Zeralda - Alger", "phone": "044 08 50 00", "fax": "044 08 50 50", "code_wil": 16, "lat": 36.690521, "lon": 2.854198, "to_check": false }, "geometry": { "type": "Point", "coordinates": [ 2.854198, 36.690521 ] } },
{ "type": "Feature", "properties": { "num": 40, "Name": "16-Alger", "localite": "Belouizded", "code_agence": "203", "succursale": "Chéraga (200)", "address": "23, Rue Mohamed Belouizded - Alger", "phone": "021 65 10 24 \/ 021 65 40 92", "fax": "021 66 06 76", "code_wil": 16, "lat": 36.75833, "lon": 3.055971, "to_check": false }, "geometry": { "type": "Point", "coordinates": [ 3.055971, 36.75833 ] } },
{ "type": "Feature", "properties": { "num": 41, "Name": "16-Alger", "localite": "Kouba", "code_agence": "210", "succursale": "Chéraga (200)", "address": "Cité Serbat Bt. A9 GARIDI 1, Kouba - Alger", "phone": "023 70 01 60", "fax": "023 70 01 57", "code_wil": 16, "lat": 36.730145, "lon": 3.066458, "to_check": false }, "geometry": { "type": "Point", "coordinates": [ 3.066458, 36.730145 ] } },
{ "type": "Feature", "properties": { "num": 42, "Name": "16-Alger", "localite": "Baraki", "code_agence": "212", "succursale": "Chéraga (200)", "address": "Cité 2004 Logements, Bt. 43 A ET B, Baraki - Alger", "phone": "023 90 61 41\/43", "fax": "023 90 61 42", "code_wil": 16, "lat": 36.789635, "lon": 3.262313, "to_check": false }, "geometry": { "type": "Point", "coordinates": [ 3.262313, 36.789635 ] } },
{ "type": "Feature", "properties": { "num": 43, "Name": "16-Alger", "localite": "Hussein-Dey", "code_agence": "213", "succursale": "Chéraga (200)", "address": "Rue Bachir Aoun, Brossette, Hussein-Dey - Alger ", "phone": "021 23 46 88 \/ 021 23 31 50", "fax": "021 23 23 94", "code_wil": 16, "lat": 36.739716, "lon": 3.101389, "to_check": false }, "geometry": { "type": "Point", "coordinates": [ 3.101389, 36.739716 ] } },
{ "type": "Feature", "properties": { "num": 59, "Name": "16-Alger", "localite": "Alger Centre", "code_agence": "701", "succursale": "Chéraga (200)", "address": "27, Boulevard Victor Hugo - Alger ", "phone": "021 73 32 07", "fax": "021 73 83 71", "code_wil": 16, "lat": 36.766306, "lon": 3.052556, "to_check": false }, "geometry": { "type": "Point", "coordinates": [ 3.052556, 36.766306 ] } },
{ "type": "Feature", "properties": { "num": 44, "Name": "16-Alger", "localite": "Rouiba", "code_agence": "226", "succursale": "Chéraga (200)", "address": "31, Avenue du 1ER Novembre, Rouiba - Alger ", "phone": "023 85 54 46", "fax": "023 85 42 58", "code_wil": 16, "lat": 36.736113, "lon": 3.280854, "to_check": false }, "geometry": { "type": "Point", "coordinates": [ 3.280854, 36.736113 ] } },
{ "type": "Feature", "properties": { "num": 45, "Name": "16-Alger", "localite": "Chéraga", "code_agence": "229", "succursale": "Chéraga (200)", "address": "Entrée Esplanade N° 14, Centre Commercial Et d'Affaires El Qods, Chéraga - Alger", "phone": "021 34 10 34 \/ 021 34 10 35", "fax": "021 34 10 35", "code_wil": 16, "lat": 36.759903, "lon": 2.964061, "to_check": false }, "geometry": { "type": "Point", "coordinates": [ 2.964061, 36.759903 ] } },
{ "type": "Feature", "properties": { "num": 46, "Name": "16-Alger", "localite": "Bab Ezzouar", "code_agence": "230", "succursale": "Chéraga (200)", "address": "Cité EPLF 1408\/2038 Logts. N° 67, Bab Ezzouar - Alger", "phone": "021 24 18 90", "fax": "021 24 19 01", "code_wil": 16, "lat": 36.719237, "lon": 3.182492, "to_check": false }, "geometry": { "type": "Point", "coordinates": [ 3.182492, 36.719237 ] } },
{ "type": "Feature", "properties": { "num": 47, "Name": "16-Alger", "localite": "El Harrach", "code_agence": "232", "succursale": "Chéraga (200)", "address": "02, Rue  des Frères Djelli, Boumati, El Harrach - Alger ", "phone": "021 52 30 77", "fax": "021 52 61 00", "code_wil": 16, "lat": 36.718528, "lon": 3.139752, "to_check": false }, "geometry": { "type": "Point", "coordinates": [ 3.139752, 36.718528 ] } },
{ "type": "Feature", "properties": { "num": 48, "Name": "16-Alger", "localite": "Aïn Naâdja", "code_agence": "233", "succursale": "Chéraga (200)", "address": "Cité 1516 Logts., Bt. D6 , Aïn El Malha, Aïn Naâdja - Alger", "phone": "023 53 00 28", "fax": "023 53 00 27", "code_wil": 16, "lat": 36.6936987, "lon": 3.06532, "to_check": false }, "geometry": { "type": "Point", "coordinates": [ 3.06532, 36.6936987 ] } },
{ "type": "Feature", "properties": { "num": 49, "Name": "16-Alger", "localite": "Belouizded", "code_agence": "601", "succursale": "Bouzaréah (600)", "address": "Cité El Djaouhara, Bt. N° 63, Les Halles, Belouizded - Alger", "phone": "021 67 46 93 \/ 021 67 46 94", "fax": "021 67 46 92", "code_wil": 16, "lat": 36.755362, "lon": 3.066307, "to_check": false }, "geometry": { "type": "Point", "coordinates": [ 3.066307, 36.755362 ] } },
{ "type": "Feature", "properties": { "num": 50, "Name": "16-Alger", "localite": "Alger Centre", "code_agence": "602", "succursale": "Bouzaréah (600)", "address": "74, Rue Didouche Mourad - Alger", "phone": "023 50 49 65 \/ 023 50 49 89", "fax": "023 50 49 90", "code_wil": 16, "lat": 36.765588, "lon": 3.050308, "to_check": false }, "geometry": { "type": "Point", "coordinates": [ 3.050308, 36.765588 ] } },
{ "type": "Feature", "properties": { "num": 51, "Name": "16-Alger", "localite": "El Madania", "code_agence": "609", "succursale": "Bouzaréah (600)", "address": "Niveau 104, Local 1 A 03, Riadh El Feth, BT. 570,  El Madania - Alger", "phone": "021 67 89 07", "fax": "021 67 89 06", "code_wil": 16, "lat": 36.742739, "lon": 3.068246, "to_check": false }, "geometry": { "type": "Point", "coordinates": [ 3.068246, 36.742739 ] } },
{ "type": "Feature", "properties": { "num": 52, "Name": "16-Alger", "localite": "Bouzaréah", "code_agence": "611", "succursale": "Bouzaréah (600)", "address": "Centre Commercial, Bouzaréah - Alger", "phone": "023 18 15 85", "fax": "023 18 15 84", "code_wil": 16, "lat": 36.789895, "lon": 3.016365, "to_check": false }, "geometry": { "type": "Point", "coordinates": [ 3.016365, 36.789895 ] } },
{ "type": "Feature", "properties": { "num": 53, "Name": "16-Alger", "localite": "EL Biar", "code_agence": "622", "succursale": "Bouzaréah (600)", "address": "16, Place Kennedy, El Biar - Alger", "phone": "023 37 72 15 \/ 023 37 72 19", "fax": "023 37 72 17", "code_wil": 16, "lat": 36.769127, "lon": 3.031004, "to_check": false }, "geometry": { "type": "Point", "coordinates": [ 3.031004, 36.769127 ] } },
{ "type": "Feature", "properties": { "num": 54, "Name": "16-Alger", "localite": "Alger Centre", "code_agence": "630", "succursale": "Bouzaréah (600)", "address": "27, Rue Didouche Mourad - Alger", "phone": "021 63 38 94 \/ 021 63 37 53", "fax": "021 63 37 55", "code_wil": 16, "lat": 36.7693624940486, "lon": 3.0550950034832298, "to_check": false }, "geometry": { "type": "Point", "coordinates": [ 3.05509500348323, 36.7693624940486 ] } },
{ "type": "Feature", "properties": { "num": 55, "Name": "16-Alger", "localite": "El Achour", "code_agence": "632", "succursale": "Bouzaréah (600)", "address": "Cité 1071 Logts. Bt. D35, Oued Romane, El Achour - Alger", "phone": "023 15 31 49", "fax": "023 15 31 56", "code_wil": 16, "lat": 36.747531755374901, "lon": 2.9992158958878701, "to_check": false }, "geometry": { "type": "Point", "coordinates": [ 2.99921589588787, 36.747531755374901 ] } },
{ "type": "Feature", "properties": { "num": 56, "Name": "16-Alger", "localite": "Beni Messous", "code_agence": "633", "succursale": "Bouzaréah (600)", "address": "01, Avenue de la Révolution, Beni Messous - Alger", "phone": "023 13 60 72 \/ 023 13 60 75", "fax": "023 13 60 74", "code_wil": 16, "lat": 36.780177, "lon": 2.974103, "to_check": false }, "geometry": { "type": "Point", "coordinates": [ 2.974103, 36.780177 ] } },
{ "type": "Feature", "properties": { "num": 57, "Name": "16-Alger", "localite": "Aïn Benian", "code_agence": "635", "succursale": "Bouzaréah (600)", "address": "Cité 873 Logts. AADL Dar Chabane, Bt. N°04 Local 4\/5\/6\/7, Aïn Benian - Alger", "phone": "023 21 98 62", "fax": "023 21 98  61", "code_wil": 16, "lat": 36.798718, "lon": 2.930057, "to_check": false }, "geometry": { "type": "Point", "coordinates": [ 2.930057, 36.798718 ] } },
{ "type": "Feature", "properties": { "num": 81, "Name": "17-Djelfa", "localite": "Djelfa", "code_agence": "631", "succursale": "Bouzaréah (600)", "address": "Cité Wiam, BT. N° 30 - Djelfa", "phone": "027 92 61 55", "fax": "027 92 61 54", "code_wil": 17, "lat": 34.66755, "lon": 3.275673, "to_check": false }, "geometry": { "type": "Point", "coordinates": [ 3.275673, 34.66755 ] } },
{ "type": "Feature", "properties": { "num": 84, "Name": "18-Jijel", "localite": "El Milia", "code_agence": "778", "succursale": "Constantine (500)", "address": "34, Rue de l'ALN, El Milia - Jijel", "phone": "034 52 67 95", "fax": "034 52 67 95", "code_wil": 18, "lat": 36.7498562, "lon": 6.2728051, "to_check": false }, "geometry": { "type": "Point", "coordinates": [ 6.2728051, 36.7498562 ] } },
{ "type": "Feature", "properties": { "num": 82, "Name": "18-Jijel", "localite": "Jijel", "code_agence": "507", "succursale": "Constantine (500)", "address": "Centre Commercial, Rue Larbi Ben M’Hidi - Jijel", "phone": "034 47 12 27", "fax": "034 47 56 28", "code_wil": 18, "lat": 36.820369, "lon": 5.768548, "to_check": false }, "geometry": { "type": "Point", "coordinates": [ 5.768548, 36.820369 ] } },
{ "type": "Feature", "properties": { "num": 83, "Name": "18-Jijel", "localite": "Jijel", "code_agence": "724", "succursale": "Constantine (500)", "address": "05, Avenue Emir Abdelkader - Jijel", "phone": "034 47 11 90", "fax": "034 47 11 90", "code_wil": 18, "lat": 36.824137, "lon": 5.766731, "to_check": false }, "geometry": { "type": "Point", "coordinates": [ 5.766731, 36.824137 ] } },
{ "type": "Feature", "properties": { "num": 85, "Name": "19-Sétif", "localite": "Sétif", "code_agence": "506", "succursale": "Constantine (500)", "address": "Cité Financière, Boulevard Port Said - Sétif", "phone": "036 82 56 90 \/ 036 82 56 87", "fax": "036 82 56 88", "code_wil": 19, "lat": 36.194421, "lon": 5.411657, "to_check": false }, "geometry": { "type": "Point", "coordinates": [ 5.411657, 36.194421 ] } },
{ "type": "Feature", "properties": { "num": 86, "Name": "19-Sétif", "localite": "El Eulma", "code_agence": "511", "succursale": "Constantine (500)", "address": "Cité des 800 logements, locaux N° 33 et 06 , El Eulma - Sétif", "phone": "036 48 12 60", "fax": "036 48 12 60", "code_wil": 19, "lat": 36.15301, "lon": 5.70222, "to_check": false }, "geometry": { "type": "Point", "coordinates": [ 5.70222, 36.15301 ] } },
{ "type": "Feature", "properties": { "num": 87, "Name": "20-Saida", "localite": " Saida", "code_agence": "407", "succursale": "Oran (400)", "address": "N° 08 Zaouia, Boulevard Mouloud Feraoun - Saida", "phone": "048 41 24 45 \/ 048 41 25 20", "fax": "048 41 25 20", "code_wil": 20, "lat": 34.828396712453099, "lon": 0.1527288636635, "to_check": false }, "geometry": { "type": "Point", "coordinates": [ 0.1527288636635, 34.828396712453099 ] } },
{ "type": "Feature", "properties": { "num": 94, "Name": "21-Skikda", "localite": "Skikda", "code_agence": "706", "succursale": "Annaba (300)", "address": "14, Cité Mohamed Namous - Skikda", "phone": "038 75 73 08", "fax": "038 75 73 08", "code_wil": 21, "lat": 36.869478, "lon": 6.90645, "to_check": false }, "geometry": { "type": "Point", "coordinates": [ 6.90645, 36.869478 ] } },
{ "type": "Feature", "properties": { "num": 88, "Name": "21-Skikda", "localite": "Béni Malek ", "code_agence": "304", "succursale": "Annaba (300)", "address": "Cité des Frères KHALDI, Béni Malek - Skikda                                                                                                                                                           ", "phone": "038 76 27 73 \/ 038 76 10 77 \/ 038 76 32 10", "fax": "038 76 28 96", "code_wil": 21, "lat": 36.881184, "lon": 6.89702, "to_check": false }, "geometry": { "type": "Point", "coordinates": [ 6.89702, 36.881184 ] } },
{ "type": "Feature", "properties": { "num": 89, "Name": "21-Skikda", "localite": "Skikda", "code_agence": "315", "succursale": "Annaba (300)", "address": "01, Rue Mohamed Nadir - Skikda", "phone": "038 75 75 00", "fax": "038 75 75 77", "code_wil": 21, "lat": 36.882851, "lon": 6.906431, "to_check": false }, "geometry": { "type": "Point", "coordinates": [ 6.906431, 36.882851 ] } },
{ "type": "Feature", "properties": { "num": 90, "Name": "21-Skikda", "localite": "Skikda", "code_agence": "316", "succursale": "Annaba (300)", "address": "Cité 30 Logts., Mordj Dib,BT. MD 01, les Platanes - Skikda", "phone": "038 93 85 90", "fax": "038 93 86 09", "code_wil": 21, "lat": 36.7596787, "lon": 6.8945243, "to_check": false }, "geometry": { "type": "Point", "coordinates": [ 6.8945243, 36.7596787 ] } },
{ "type": "Feature", "properties": { "num": 91, "Name": "21-Skikda", "localite": "Skikda", "code_agence": "317", "succursale": "Annaba (300)", "address": "Rue Omar Tayeb, Ramdane Djamel code 21425 - Skikda", "phone": "038 94 11 72", "fax": "038 94 11 72", "code_wil": 21, "lat": 36.753471, "lon": 6.89818, "to_check": false }, "geometry": { "type": "Point", "coordinates": [ 6.89818, 36.753471 ] } },
{ "type": "Feature", "properties": { "num": 92, "Name": "21-Skikda", "localite": "El Harrouche", "code_agence": "318", "succursale": "Annaba (300)", "address": "Cité 164 Logements, Rue Bachir Boukadoum, El Harrouche - Skikda", "phone": "038 79 10 90", "fax": "038 79 29 29", "code_wil": 21, "lat": 36.651308, "lon": 6.834195, "to_check": false }, "geometry": { "type": "Point", "coordinates": [ 6.834195, 36.651308 ] } },
{ "type": "Feature", "properties": { "num": 93, "Name": "21-Skikda", "localite": "Azzaba", "code_agence": "319", "succursale": "Annaba (300)", "address": "Rue du 1er Novembre 1954, Azzaba - Skikda                      ", "phone": "038 96 97 97", "fax": "038 96 98 98", "code_wil": 21, "lat": 36.742106, "lon": 7.108976, "to_check": false }, "geometry": { "type": "Point", "coordinates": [ 7.108976, 36.742106 ] } },
{ "type": "Feature", "properties": { "num": 95, "Name": "22-Sidi Bel-Abbès", "localite": "Sidi Bel-Abbès", "code_agence": "402", "succursale": "Oran (400)", "address": "N°04 citè 108 Logements - Sidi Bel Abbes", "phone": "048 74 62 72 \/ 048 74 62 70", "fax": "048 74 62 71", "code_wil": 22, "lat": 35.192865340485099, "lon": -0.61769283937084996, "to_check": false }, "geometry": { "type": "Point", "coordinates": [ -0.61769283937085, 35.192865340485099 ] } },
{ "type": "Feature", "properties": { "num": 96, "Name": "22-Sidi Bel-Abbès", "localite": "Sidi Bel-Abbès", "code_agence": "411", "succursale": "Oran (400)", "address": "N°18, Residence El Feth, 20 Août, 1° Etage - Sidi Bel Abbes", "phone": "048 74 13 86 \/ 048 74 13 90 ", "fax": "048 74 13 88", "code_wil": 22, "lat": 35.189056303000797, "lon": -0.63616340629615697, "to_check": false }, "geometry": { "type": "Point", "coordinates": [ -0.636163406296157, 35.189056303000797 ] } },
{ "type": "Feature", "properties": { "num": 97, "Name": "22-Sidi Bel-Abbès", "localite": "Sidi Bel-Abbès", "code_agence": "786", "succursale": "Oran (400)", "address": "22, Rue Résidence- El Fateh - Sidi Bel Abbes", "phone": "048 74 14 14 \/ 048 74 13 84", "fax": "048 74 13 83", "code_wil": 22, "lat": 35.188818893799301, "lon": -0.63613710783835398, "to_check": false }, "geometry": { "type": "Point", "coordinates": [ -0.636137107838354, 35.188818893799301 ] } },
{ "type": "Feature", "properties": { "num": 102, "Name": "23-Annaba", "localite": "Annaba", "code_agence": "757", "succursale": "Annaba (300)", "address": "Coopérative Menzel El Amel, cité 05 Juillet Bt. N° 05Rez de chaussée - Annaba", "phone": "038 42 12 99", "fax": "038 42 10 70", "code_wil": 23, "lat": 36.8905743, "lon": 7.7165052, "to_check": false }, "geometry": { "type": "Point", "coordinates": [ 7.7165052, 36.8905743 ] } },
{ "type": "Feature", "properties": { "num": 101, "Name": "23-Annaba", "localite": "Annaba", "code_agence": "729", "succursale": "Annaba (300)", "address": "Cité les Santos, N° 03 Entrée 01, Local N° 03 - Annaba", "phone": "038 45 21 27 \/ 038 45 25 25", "fax": "038 45 21 24", "code_wil": 23, "lat": 36.9026594, "lon": 7.7592489, "to_check": false }, "geometry": { "type": "Point", "coordinates": [ 7.7592489, 36.9026594 ] } },
{ "type": "Feature", "properties": { "num": 103, "Name": "23-Annaba", "localite": "Annaba", "code_agence": "788", "succursale": "Annaba (300)", "address": "Coopérative Basma, Local N° 03, Route de Bouhdid - Annaba", "phone": "038 41 08 66", "fax": "038 41 08 66", "code_wil": 23, "lat": 36.892863, "lon": 7.719582, "to_check": false }, "geometry": { "type": "Point", "coordinates": [ 7.719582, 36.892863 ] } },
{ "type": "Feature", "properties": { "num": 99, "Name": "23-Annaba", "localite": "Annaba", "code_agence": "302", "succursale": "Annaba (300)", "address": "12, Place Salah Eddine El Ayoubi - Annaba                                                                                                                                              ", "phone": "038 45 79 06", "fax": "038 45 79 06", "code_wil": 23, "lat": 36.9013777, "lon": 7.757899, "to_check": false }, "geometry": { "type": "Point", "coordinates": [ 7.757899, 36.9013777 ] } },
{ "type": "Feature", "properties": { "num": 98, "Name": "23-Annaba", "localite": "Annaba", "code_agence": "301", "succursale": "Annaba (300)", "address": "18, Rue ATTIA Ahmed - Annaba", "phone": "038 44 53 51 \/ 038 44 53 57 \/ 030 83 09 57", "fax": "038 44 53 54 \/ 038 44 53 76", "code_wil": 23, "lat": 36.894745, "lon": 7.754908, "to_check": false }, "geometry": { "type": "Point", "coordinates": [ 7.754908, 36.894745 ] } },
{ "type": "Feature", "properties": { "num": 100, "Name": "23-Annaba", "localite": "Annaba", "code_agence": "323", "succursale": "Annaba (300)", "address": "Boulevard Seddik Benyahia, Plaine Ouest - Annaba", "phone": "038 48 55 93 \/ 030 83 15 57", "fax": "038 48 55 93", "code_wil": 23, "lat": 36.901577, "lon": 7.737081, "to_check": false }, "geometry": { "type": "Point", "coordinates": [ 7.737081, 36.901577 ] } },
{ "type": "Feature", "properties": { "num": 104, "Name": "23-Annaba", "localite": "Annaba", "code_agence": "737\/01", "succursale": "Annaba (300)", "address": "Cité 1028 Logements, Plaine Ouest, Bt. N° 87 N° 124 - Annaba", "phone": "038 41 95 65", "fax": "038 41 95 65", "code_wil": 23, "lat": 36.8882378, "lon": 7.7267324, "to_check": false }, "geometry": { "type": "Point", "coordinates": [ 7.7267324, 36.8882378 ] } },
{ "type": "Feature", "properties": { "num": 106, "Name": "24-Guelma", "localite": "Guelma", "code_agence": "727", "succursale": "Annaba (300)", "address": "15, Rue SERIDI Mohamed Tahar - Guelma", "phone": "037 27 46 32 \/ 037 26 74 15", "fax": "037 26 74 14", "code_wil": 24, "lat": 36.464174, "lon": 7.431038, "to_check": false }, "geometry": { "type": "Point", "coordinates": [ 7.431038, 36.464174 ] } },
{ "type": "Feature", "properties": { "num": 105, "Name": "24-Guelma", "localite": "Guelma", "code_agence": "321", "succursale": "Annaba (300)", "address": "Rue Patrice Lumumba - Guelma", "phone": "037 14 37 87", "fax": "037 14 37 69", "code_wil": 24, "lat": 36.464423, "lon": 7.43162, "to_check": false }, "geometry": { "type": "Point", "coordinates": [ 7.43162, 36.464423 ] } },
{ "type": "Feature", "properties": { "num": 118, "Name": "25-Constantine", "localite": "Ali Mendjli", "code_agence": "795", "succursale": "Constantine (500)", "address": "Cité Aïn El Bey, 290 Logements, Bt. 138, Nouvelle Ville - Constantine", "phone": "031 77 60 69", "fax": "031 77 60 69", "code_wil": 25, "lat": 36.262343, "lon": 6.574134, "to_check": false }, "geometry": { "type": "Point", "coordinates": [ 6.574134, 36.262343 ] } },
{ "type": "Feature", "properties": { "num": 117, "Name": "25-Constantine", "localite": "Constantine", "code_agence": "794", "succursale": "Constantine (500)", "address": "Cité Benboulaid Bt. 10  Rez de chaussée N° 07 - Constantine", "phone": "031 60 94 49", "fax": "031 60 94 49", "code_wil": 25, "lat": 36.340797, "lon": 6.602717, "to_check": false }, "geometry": { "type": "Point", "coordinates": [ 6.602717, 36.340797 ] } },
{ "type": "Feature", "properties": { "num": 115, "Name": "25-Constantine", "localite": "Constantine", "code_agence": "769", "succursale": "Constantine (500)", "address": "Chalet des Pins N°160 - Constantine", "phone": "031 62 71  23", "fax": "031 62 71  23", "code_wil": 25, "lat": 36.3473556, "lon": 6.642426, "to_check": false }, "geometry": { "type": "Point", "coordinates": [ 6.642426, 36.3473556 ] } },
{ "type": "Feature", "properties": { "num": 114, "Name": "25-Constantine", "localite": "El Khroub", "code_agence": "763", "succursale": "Constantine (500)", "address": "12, Rue Izlioui Ali, El Khroub - Constantine", "phone": "031 75 86 83", "fax": "031 75 86 83", "code_wil": 25, "lat": 36.262107, "lon": 6.69075, "to_check": false }, "geometry": { "type": "Point", "coordinates": [ 6.69075, 36.262107 ] } },
{ "type": "Feature", "properties": { "num": 113, "Name": "25-Constantine", "localite": "Constantine", "code_agence": "761", "succursale": "Constantine (500)", "address": "Cité Boussouf Bt. H N° 01 au RDC - Constantine", "phone": "031 60 35 02\/01", "fax": "031 60 35 02", "code_wil": 25, "lat": 36.335236, "lon": 6.576483, "to_check": false }, "geometry": { "type": "Point", "coordinates": [ 6.576483, 36.335236 ] } },
{ "type": "Feature", "properties": { "num": 116, "Name": "25-Constantine", "localite": "Emir Abdelkader", "code_agence": "784", "succursale": "Constantine (500)", "address": "01, Rue Chihabi Bachir, Cité Emir Abdelkader - Constantine", "phone": "031 84 68 02", "fax": "031 84 68 02", "code_wil": 25, "lat": 36.3742569, "lon": 6.6234338, "to_check": false }, "geometry": { "type": "Point", "coordinates": [ 6.6234338, 36.3742569 ] } },
{ "type": "Feature", "properties": { "num": 111, "Name": "25-Constantine", "localite": "Ali Mendjli", "code_agence": "515", "succursale": "Constantine (500)", "address": "Unité de voisinage 07 Ali Mendjli - Constantine", "phone": "031 74 80 20 \/ 031 74 82 28", "fax": "031 74 80 12", "code_wil": 25, "lat": 36.2616759, "lon": 6.5826338, "to_check": false }, "geometry": { "type": "Point", "coordinates": [ 6.5826338, 36.2616759 ] } },
{ "type": "Feature", "properties": { "num": 110, "Name": "25-Constantine", "localite": "Daksi", "code_agence": "512", "succursale": "Constantine (500)", "address": "Arrondissement administratif Daksi - Constantine", "phone": "031 63 80 74", "fax": "031 61 11 75", "code_wil": 25, "lat": 36.357694444444398, "lon": 6.6396666666666704, "to_check": false }, "geometry": { "type": "Point", "coordinates": [ 6.63966666666667, 36.357694444444398 ] } },
{ "type": "Feature", "properties": { "num": 109, "Name": "25-Constantine", "localite": "Hamma Bouziane", "code_agence": "505", "succursale": "Constantine (500)", "address": "01, Boulevard de L'ALN , Hamma Bouziane - Constantine", "phone": "031 84 06 71", "fax": "031 84 06 71", "code_wil": 25, "lat": 36.41542, "lon": 6.59729, "to_check": false }, "geometry": { "type": "Point", "coordinates": [ 6.59729, 36.41542 ] } },
{ "type": "Feature", "properties": { "num": 108, "Name": "25-Constantine", "localite": "Constantine", "code_agence": "503", "succursale": "Constantine (500)", "address": "55, Avenue Aouati Mostefa - Constantine", "phone": "031 91 10 10 \/ 031 92 94 90", "fax": "031 92 94 91", "code_wil": 25, "lat": 36.35719, "lon": 6.608236, "to_check": false }, "geometry": { "type": "Point", "coordinates": [ 6.608236, 36.35719 ] } },
{ "type": "Feature", "properties": { "num": 107, "Name": "25-Constantine", "localite": "Constantine", "code_agence": "502", "succursale": "Constantine (500)", "address": "Cité Boussouf, Bt. 7, locaux N° 157\/158 - Constantine", "phone": "031 60 27 22", "fax": "031 60 20 52", "code_wil": 25, "lat": 36.331741, "lon": 6.5813103, "to_check": false }, "geometry": { "type": "Point", "coordinates": [ 6.5813103, 36.331741 ] } },
{ "type": "Feature", "properties": { "num": 112, "Name": "25-Constantine", "localite": "Aïn El Bey", "code_agence": "721", "succursale": "Constantine (500)", "address": "Cité 564 Logements Tour 39 N° 01, Aïn El Bey - Constantine", "phone": "031 69 00 41", "fax": "031 69 00 40", "code_wil": 25, "lat": 36.299681, "lon": 6.619157, "to_check": false }, "geometry": { "type": "Point", "coordinates": [ 6.619157, 36.299681 ] } },
{ "type": "Feature", "properties": { "num": 119, "Name": "26-Médéa", "localite": "Médéa", "code_agence": "629", "succursale": "Bouzaréah (600)", "address": "Tour d'affaires Theniet El Hadjer - Médéa", "phone": "025 73 23 03", "fax": "025 73 23 04", "code_wil": 26, "lat": 36.270450392300198, "lon": 2.77716531513197, "to_check": false }, "geometry": { "type": "Point", "coordinates": [ 2.77716531513197, 36.270450392300198 ] } },
{ "type": "Feature", "properties": { "num": 120, "Name": "27-Mostaganem", "localite": "Mostaganem", "code_agence": "403", "succursale": "Oran (400)", "address": "18, Place du 1er Novembre 1954 - Mostaganem", "phone": "045 41 32 36 \/ 045 41 32 37", "fax": "045 41 32 25", "code_wil": 27, "lat": 35.9327319536416, "lon": 0.089323618679311004, "to_check": false }, "geometry": { "type": "Point", "coordinates": [ 0.089323618679311, 35.9327319536416 ] } },
{ "type": "Feature", "properties": { "num": 121, "Name": "28-M’Sila", "localite": "M’Sila", "code_agence": "508", "succursale": "Constantine (500)", "address": "Cité 44 Logements, BP 612 - M’Sila", "phone": "035 33 65 88", "fax": "035 33 65 89", "code_wil": 28, "lat": 35.6983892, "lon": 4.5347565, "to_check": false }, "geometry": { "type": "Point", "coordinates": [ 4.5347565, 35.6983892 ] } },
{ "type": "Feature", "properties": { "num": 122, "Name": "28-M’Sila", "localite": "M’Sila", "code_agence": "767", "succursale": "Constantine (500)", "address": "Lotissement 924 - M’Sila", "phone": "035 38 00 68", "fax": "035 38 00 68", "code_wil": 28, "lat": 35.725583333333297, "lon": 4.546, "to_check": false }, "geometry": { "type": "Point", "coordinates": [ 4.546, 35.725583333333297 ] } },
{ "type": "Feature", "properties": { "num": 123, "Name": "29-Mascara", "localite": "Mascara", "code_agence": "419", "succursale": "Oran (400)", "address": "Avenue de L'ALN, cité Bel-Air - Mascara", "phone": "045 72 16 50 \/ 045 81 45 08", "fax": "045 72 16 46", "code_wil": 29, "lat": 35.401205432990899, "lon": 0.140870989385736, "to_check": false }, "geometry": { "type": "Point", "coordinates": [ 0.140870989385736, 35.401205432990899 ] } },
{ "type": "Feature", "properties": { "num": 126, "Name": "30-Ouargla", "localite": "Touggourt", "code_agence": "314", "succursale": "Annaba (300)", "address": "Place Houari Boumédiene, 2ème étage, BP. 277, Touggourt - Ouargla", "phone": "029 66 14 13 \/ 029 66 12 05", "fax": "029 66 14 13", "code_wil": 30, "lat": 33.10586, "lon": 6.067271, "to_check": false }, "geometry": { "type": "Point", "coordinates": [ 6.067271, 33.10586 ] } },
{ "type": "Feature", "properties": { "num": 124, "Name": "30-Ouargla", "localite": "Ouargla", "code_agence": "214", "succursale": "Chéraga (200)", "address": "Rue du 24 Février (EX Silice) - Ouargla", "phone": "029 71 38 60", "fax": "029 71 47 73", "code_wil": 30, "lat": 31.946858, "lon": 5.31866, "to_check": false }, "geometry": { "type": "Point", "coordinates": [ 5.31866, 31.946858 ] } },
{ "type": "Feature", "properties": { "num": 125, "Name": "30-Ouargla", "localite": "Hassi Messaoud", "code_agence": "219", "succursale": "Chéraga (200)", "address": "Cité Chaabani N° 01, BP. 548, Hassi Messaoud - Ouargla", "phone": "029 78 96 08", "fax": "029 78 96 09", "code_wil": 30, "lat": 31.68627, "lon": 6.073704, "to_check": false }, "geometry": { "type": "Point", "coordinates": [ 6.073704, 31.68627 ] } },
{ "type": "Feature", "properties": { "num": 127, "Name": "30-Ouargla", "localite": "Hassi Messaoud", "code_agence": "705", "succursale": "Chéraga (200)", "address": "Coopérative El Wifak N° 2, Hassi Messaoud - Ouargla", "phone": "029 79 91 03 \/ 029 79 90 89", "fax": "029 79 91 18", "code_wil": 30, "lat": 31.692217, "lon": 6.058057, "to_check": false }, "geometry": { "type": "Point", "coordinates": [ 6.058057, 31.692217 ] } },
{ "type": "Feature", "properties": { "num": 129, "Name": "31-Oran", "localite": "Oran", "code_agence": "409", "succursale": "Oran (400)", "address": "04, Rue Belhachemi Mouley - Oran", "phone": "041 33 25 66 \/ 041 33 60 09", "fax": "041 33 19 50", "code_wil": 31, "lat": 35.703691006521602, "lon": -0.64433639313276503, "to_check": false }, "geometry": { "type": "Point", "coordinates": [ -0.644336393132765, 35.703691006521602 ] } },
{ "type": "Feature", "properties": { "num": 133, "Name": "31-Oran", "localite": "Oran", "code_agence": "792", "succursale": "Oran (400)", "address": "Résidence Aribi, 116 logements, Bloc A1 B, Colonel Lotfi - Oran", "phone": "041 74 53 34", "fax": "041 74 53 33", "code_wil": 31, "lat": 35.722310512092797, "lon": -0.59344200670661995, "to_check": false }, "geometry": { "type": "Point", "coordinates": [ -0.59344200670662, 35.722310512092797 ] } },
{ "type": "Feature", "properties": { "num": 132, "Name": "31-Oran", "localite": "Oran", "code_agence": "752", "succursale": "Oran (400)", "address": "Oran Est Millenium Cité Khemisti - Oran", "phone": "041 73 54 58", "fax": "041 73 54 56", "code_wil": 31, "lat": 35.717348305384199, "lon": -0.59738533868277699, "to_check": false }, "geometry": { "type": "Point", "coordinates": [ -0.597385338682777, 35.717348305384199 ] } },
{ "type": "Feature", "properties": { "num": 128, "Name": "31-Oran", "localite": "Oran", "code_agence": "401", "succursale": "Oran (400)", "address": "15, Avenue Hammou Mokhtar El Makkari, Ex Saint Eugène - Oran", "phone": "041 28 17 52 \/041 28 17 46", "fax": "041 28 17 48 ", "code_wil": 31, "lat": 35.6988280830736, "lon": -0.628832476688024, "to_check": false }, "geometry": { "type": "Point", "coordinates": [ -0.628832476688024, 35.6988280830736 ] } },
{ "type": "Feature", "properties": { "num": 130, "Name": "31-Oran", "localite": "Arzew", "code_agence": "412", "succursale": "Oran (400)", "address": "24, Boulevard Emir Abdelkader, Arzew - Oran", "phone": "041 77 16 18", "fax": "041 77 16 18", "code_wil": 31, "lat": 35.857917777342301, "lon": -0.30891304470290498, "to_check": false }, "geometry": { "type": "Point", "coordinates": [ -0.308913044702905, 35.857917777342301 ] } },
{ "type": "Feature", "properties": { "num": 131, "Name": "31-Oran", "localite": "Oran", "code_agence": "413", "succursale": "Oran (400)", "address": "Cité Administrative Zhun Usto, îlot 26 - Oran", "phone": "041 70 68 09", "fax": "041 70 68 09", "code_wil": 31, "lat": 35.700696661452703, "lon": -0.59848673022762, "to_check": false }, "geometry": { "type": "Point", "coordinates": [ -0.59848673022762, 35.700696661452703 ] } },
{ "type": "Feature", "properties": { "num": 134, "Name": "34-Bordj Bou Arreridj", "localite": "Bordj Bou Arreridj", "code_agence": "510", "succursale": "Constantine (500)", "address": "Cité des 500 logements, BP 470 - Bordj Bou Arreridj", "phone": "035 69 75 20", "fax": "035 69 81 62", "code_wil": 34, "lat": 36.0790676, "lon": 4.7647313, "to_check": false }, "geometry": { "type": "Point", "coordinates": [ 4.7647313, 36.0790676 ] } },
{ "type": "Feature", "properties": { "num": 135, "Name": "34-Bordj Bou Arreridj", "localite": "Bordj Bou Arreridj", "code_agence": "757\/02", "succursale": "Constantine (500)", "address": "Cité 360\/750 Bt. C09 N° 01 - Bordj Bou Arreridj", "phone": "035 87 59 90", "fax": "035 87 59 90", "code_wil": 34, "lat": 36.081038, "lon": 4.744332, "to_check": false }, "geometry": { "type": "Point", "coordinates": [ 4.744332, 36.081038 ] } },
{ "type": "Feature", "properties": { "num": 136, "Name": "34-Bordj Bou Arreridj", "localite": "Bordj Bou Arreridj ", "code_agence": "743", "succursale": "Chéraga (200)", "address": "BP. 484, Villa A1, Promotion EPLF Faubourg des Jardins - Bordj Bou Arréridj ", "phone": "035 73 00 78 \/ 035 73 09 24", "fax": "035 73 00 78", "code_wil": 34, "lat": 36.0756, "lon": 4.76817, "to_check": false }, "geometry": { "type": "Point", "coordinates": [ 4.76817, 36.0756 ] } },
{ "type": "Feature", "properties": { "num": 137, "Name": "35-Boumerdès", "localite": "Boumerdès", "code_agence": "231", "succursale": "Chéraga (200)", "address": "Centre Commercial Oued Tatareg, locaux 2 & 3 - Boumerdes", "phone": "024 94 77 07 \/ 024 94 77 08 \/ 024 94 77 10", "fax": "024 94 77 09", "code_wil": 35, "lat": 36.763003, "lon": 3.465574, "to_check": false }, "geometry": { "type": "Point", "coordinates": [ 3.465574, 36.763003 ] } },
{ "type": "Feature", "properties": { "num": 138, "Name": "36-El-Tarf", "localite": "36-El-Tarf", "code_agence": "303", "succursale": "Annaba (300)", "address": "Route du Sahara, BP. 62, El Kala - El Tarf", "phone": "038 35 02 56", "fax": "038 66 24 36", "code_wil": 36, "lat": 36.896726, "lon": 8.445768, "to_check": false }, "geometry": { "type": "Point", "coordinates": [ 8.445768, 36.896726 ] } },
{ "type": "Feature", "properties": { "num": 139, "Name": "36-El-Tarf", "localite": "36-El-Tarf", "code_agence": "322", "succursale": "Annaba (300)", "address": "Rue Frikh Taif - El Tarf", "phone": "038 30 12 67", "fax": "038 30 17 51", "code_wil": 36, "lat": 36.766485, "lon": 8.312143, "to_check": false }, "geometry": { "type": "Point", "coordinates": [ 8.312143, 36.766485 ] } },
{ "type": "Feature", "properties": { "num": 140, "Name": "38-Tissemsilt", "localite": "Tissemsilt", "code_agence": "418", "succursale": "Oran (400)", "address": "Boulevard Zeffan Abed îlot 67, Coopérative 389 - Tissemsilt", "phone": "046 57 13 23", "fax": "046 57 13 42", "code_wil": 38, "lat": 35.609101070126201, "lon": 1.8115978386913101, "to_check": false }, "geometry": { "type": "Point", "coordinates": [ 1.81159783869131, 35.609101070126201 ] } },
{ "type": "Feature", "properties": { "num": 141, "Name": "39-El Oued", "localite": "El Oued", "code_agence": "320", "succursale": "Annaba (300)", "address": "Cité du 17 Octobre, BP. 18 - El Oued", "phone": "032 11 46 40  \/032 11 46 41", "fax": "032 11 46 39", "code_wil": 39, "lat": 33.361486, "lon": 6.845923, "to_check": false }, "geometry": { "type": "Point", "coordinates": [ 6.845923, 33.361486 ] } },
{ "type": "Feature", "properties": { "num": 142, "Name": "40-Khenchella", "localite": " Khenchella", "code_agence": "311", "succursale": "Annaba (300)", "address": "Cité 100 logements, Route de Batna - Khenchela", "phone": "032 72 55 39", "fax": "032 72 55 38", "code_wil": 40, "lat": 35.426515, "lon": 7.146094, "to_check": false }, "geometry": { "type": "Point", "coordinates": [ 7.146094, 35.426515 ] } },
{ "type": "Feature", "properties": { "num": 143, "Name": "41-Souk Ahras", "localite": "Souk Ahras", "code_agence": "313", "succursale": "Annaba (300)", "address": "Cité 1700 Logements, B 30, N° 01 - Souk Ahras", "phone": "037 76 70 19", "fax": "037 76 70 28", "code_wil": 41, "lat": 36.882812, "lon": 6.906565, "to_check": true }, "geometry": { "type": "Point", "coordinates": [ 6.906565, 36.882812 ] } },
{ "type": "Feature", "properties": { "num": 144, "Name": "42-Tipaza", "localite": "Koléa", "code_agence": "620", "succursale": "Bouzaréah (600)", "address": "Cité 128 Logts. 13 LSP, Route de Bousmail, Koléa - Tipaza", "phone": "024 38 49 00", "fax": "024 38 49 01", "code_wil": 42, "lat": 36.638819, "lon": 2.751881, "to_check": false }, "geometry": { "type": "Point", "coordinates": [ 2.751881, 36.638819 ] } },
{ "type": "Feature", "properties": { "num": 145, "Name": "42-Tipaza", "localite": "Cherchell", "code_agence": "625", "succursale": "Bouzaréah (600)", "address": "Centre Commercial, N° 25, Cherchell - Tipaza", "phone": "024 33 51 41", "fax": "024 33 51 42", "code_wil": 42, "lat": 36.605564674820201, "lon": 2.1868273176541799, "to_check": false }, "geometry": { "type": "Point", "coordinates": [ 2.18682731765418, 36.605564674820201 ] } },
{ "type": "Feature", "properties": { "num": 146, "Name": "42-Tipaza", "localite": "Tipaza", "code_agence": "634", "succursale": "Bouzaréah (600)", "address": "Cité 150 Logts. LSP, B 03, N° 10 2401 - Tipaza", "phone": "024 37 43 75\/76", "fax": "024 37 43 73", "code_wil": 42, "lat": 36.586141, "lon": 2.431119, "to_check": false }, "geometry": { "type": "Point", "coordinates": [ 2.431119, 36.586141 ] } },
{ "type": "Feature", "properties": { "num": 147, "Name": "43-Mila", "localite": "Mila", "code_agence": "504", "succursale": "Constantine (500)", "address": "Cité Boutout Salah, BP. 24 - Mila", "phone": "031 47 47 21", "fax": "031 47 47 20", "code_wil": 43, "lat": 36.455317, "lon": 6.266223, "to_check": false }, "geometry": { "type": "Point", "coordinates": [ 6.266223, 36.455317 ] } },
{ "type": "Feature", "properties": { "num": 148, "Name": "43-Mila", "localite": "Chelghoum Laid", "code_agence": "793", "succursale": "Constantine (500)", "address": "Cité du 1er Nouvembre 1954, Chelghoum Laid - Mila", "phone": "031 41 65 18", "fax": "031 41 65 18", "code_wil": 43, "lat": 36.15892, "lon": 6.159697, "to_check": false }, "geometry": { "type": "Point", "coordinates": [ 6.159697, 36.15892 ] } },
{ "type": "Feature", "properties": { "num": 149, "Name": "44-Aïn Defla", "localite": "Khemis Miliana", "code_agence": "627", "succursale": "Bouzaréah (600)", "address": "14, Rue Djitli Mustapha, Khemis Miliana - Aïn Defla", "phone": "027 56 38 09", "fax": "027 56 38 08", "code_wil": 44, "lat": 36.259506, "lon": 2.21762, "to_check": false }, "geometry": { "type": "Point", "coordinates": [ 2.21762, 36.259506 ] } },
{ "type": "Feature", "properties": { "num": 150, "Name": "46-Ain Temouchent", "localite": "Ain Temouchent", "code_agence": "415", "succursale": "Oran (400)", "address": "Boulevard Mohamed Boudiaf - Ain Temouchent", "phone": "043 77 82 82 \/043 77 43 85", "fax": "043 77 86 10", "code_wil": 46, "lat": 35.307418414052499, "lon": -1.13840851279563, "to_check": false }, "geometry": { "type": "Point", "coordinates": [ -1.13840851279563, 35.307418414052499 ] } },
{ "type": "Feature", "properties": { "num": 151, "Name": "47-Ghardaïa", "localite": "Sidi Abbaz", "code_agence": "208", "succursale": "Chéraga (200)", "address": "BP. 24, Sidi Abbaz - Ghardaïa", "phone": "029 25 53 25", "fax": "029 25 54 60", "code_wil": 47, "lat": 32.486888, "lon": 3.697482, "to_check": false }, "geometry": { "type": "Point", "coordinates": [ 3.697482, 32.486888 ] } },
{ "type": "Feature", "properties": { "num": 152, "Name": "48-Relizane", "localite": "Relizane", "code_agence": "414", "succursale": "Oran (400)", "address": "Boulevard Mohamed Khemisti - Relizane", "phone": "046 72 36 06 \/ 046 72 34 55", "fax": "046 72 35 08", "code_wil": 48, "lat": 35.744671314773797, "lon": 0.55641235539836897, "to_check": false }, "geometry": { "type": "Point", "coordinates": [ 0.556412355398369, 35.744671314773797 ] } }
]
}
